0: $GPRMC,143222.00,A,5345.56943,N,02759.94574,E,54.178,90.98,241015,,,A*66
0: $GPVTG,90.98,T,,M,54.178,N,100.338,K,A*33
0: $GPGGA,143222.00,5345.56943,N,02759.94574,E,1,11,0.88,197.8,M,24.7,M,,*56
0: $GPGSA,A,3,32,01,03,04,11,19,17,14,23,31,12,,1.58,0.88,1.32*02
0: $GPGSV,3,1,12,01,66,190,32,03,65,276,36,04,41,160,34,11,41,191,32*7A
0: $GPGSV,3,2,12,12,07,011,23,14,19,050,33,17,29,298,34,19,24,223,32*73
0: $GPGSV,3,3,12,23,29,216,32,25,02,046,14,31,36,097,24,32,72,087,29*79
0: $GPGLL,5345.56943,N,02759.94574,E,143222.00,A,A*65
1: $GPRMC,143223.00,A,5345.56915,N,02759.97100,E,54.283,91.16,241015,,,A*60
1: $GPVTG,91.16,T,,M,54.283,N,100.531,K,A*3C
1: $GPGGA,143223.00,5345.56915,N,02759.97100,E,1,11,0.88,197.7,M,24.7,M,,*5F
1: $GPGSA,A,3,32,01,03,04,11,19,17,14,23,31,12,,1.58,0.88,1.32*02
1: $GPGSV,3,1,12,01,66,190,31,03,65,276,36,04,41,160,34,11,41,191,32*79
1: $GPGSV,3,2,12,12,07,011,24,14,19,050,33,17,29,298,30,19,24,223,32*70
1: $GPGSV,3,3,12,23,29,216,31,25,02,046,15,31,36,097,24,32,72,087,29*7B
1: $GPGLL,5345.56915,N,02759.97100,E,143223.00,A,A*63
1: $GPRMC,143224.00,A,5345.56893,N,02759.99636,E,54.372,90.76,241015,,,A*6C
2: $GPVTG,90.76,T,,M,54.372,N,100.698,K,A*34
2: $GPGGA,143224.00,5345.56893,N,02759.99636,E,1,11,0.88,197.8,M,24.7,M,,*54
2: $GPGSA,A,3,32,01,03,04,11,19,17,14,23,31,12,,1.58,0.88,1.32*02
2: $GPGSV,3,1,12,01,66,190,32,03,65,276,37,04,41,160,36,11,41,191,30*7B
2: $GPGSV,3,2,12,12,07,011,24,14,19,050,33,17,29,298,31,19,24,223,32*71
2: $GPGSV,3,3,12,23,29,216,29,25,02,046,17,31,36,097,25,32,72,087,28*70
2: $GPGLL,5345.56893,N,02759.99636,E,143224.00,A,A*67
2: $GPRMC,143225.00,A,5345.56875,N,02800.02167,E,54.095,90.67,241015,,,A*6D
3: $GPVTG,90.67,T,,M,54.095,N,100.184,K,A*34
3: $GPGGA,143225.00,5345.56875,N,02800.02167,E,1,11,0.88,197.9,M,24.7,M,,*5E
3: $GPGSA,A,3,32,01,03,04,11,19,17,14,23,31,12,,1.58,0.88,1.32*02
3: $GPGSV,3,1,12,01,66,190,31,03,65,276,36,04,41,160,35,11,41,191,30*7A
3: $GPGSV,3,2,12,12,07,011,23,14,19,050,33,17,29,298,32,19,24,223,32*75
3: $GPGSV,3,3,12,23,29,216,30,25,02,046,19,31,36,097,25,32,72,087,28*76
3: $GPGLL,5345.56875,N,02800.02167,E,143225.00,A,A*6C
3: $GPRMC,143226.00,A,5345.56859,N,02800.04694,E,54.094,90.60,241015,,,A*6B
3: $GPVTG,90.60,T,,M,54.094,N,100.182,K,A*34
4: $GPGGA,143226.00,5345.56859,N,02800.04694,E,1,11,0.88,198.0,M,24.7,M,,*58
4: $GPGSA,A,3,32,01,03,04,11,19,17,14,23,31,12,,1.58,0.88,1.32*02
4: $GPGSV,3,1,12,01,66,190,31,03,65,276,37,04,41,160,36,11,41,191,31*79
4: $GPGSV,3,2,12,12,07,011,21,14,19,050,33,17,29,298,32,19,24,223,31*74
4: $GPGSV,3,3,12,23,29,216,31,25,02,046,18,31,36,097,25,32,72,087,27*79
4: $GPGLL,5345.56859,N,02800.04694,E,143226.00,A,A*6C
4: $GPRMC,143227.00,A,5345.56841,N,02800.07225,E,54.238,90.66,241015,,,A*6C
4: $GPVTG,90.66,T,,M,54.238,N,100.448,K,A*35
5: $GPGGA,143227.00,5345.56841,N,02800.07225,E,1,11,0.88,198.2,M,24.7,M,,*5F
5: $GPGSA,A,3,32,01,03,04,11,19,17,14,23,31,12,,1.58,0.88,1.32*02
5: $GPGSV,3,1,12,01,66,190,31,03,65,276,37,04,41,160,36,11,41,191,31*79
5: $GPGSV,3,2,12,12,07,011,21,14,19,050,33,17,29,298,32,19,24,223,31*74
5: $GPGSV,3,3,12,23,29,216,32,25,02,046,16,31,36,097,25,32,72,087,27*74
5: $GPGLL,5345.56841,N,02800.07225,E,143227.00,A,A*69
5: $GPRMC,143228.00,A,5345.56823,N,02800.09759,E,54.280,90.67,241015,,,A*65
5: $GPVTG,90.67,T,,M,54.280,N,100.527,K,A*3F
5: $GPGGA,143228.00,5345.56823,N,02800.09759,E,1,11,0.88,198.2,M,24.7,M,,*54
6: $GPGSA,A,3,32,01,03,04,11,19,17,14,23,31,12,,1.58,0.88,1.32*02
6: $GPGSV,3,1,12,01,66,190,33,03,65,276,37,04,41,160,36,11,41,191,31*7B
6: $GPGSV,3,2,12,12,07,011,22,14,19,050,34,17,29,298,32,19,24,223,31*70
6: $GPGSV,3,3,12,23,29,216,32,25,02,046,14,31,36,097,25,32,72,087,27*76
6: $GPGLL,5345.56823,N,02800.09759,E,143228.00,A,A*62
6: $GPRMC,143229.00,A,5345.56806,N,02800.12289,E,54.171,90.59,241015,,,A*61
6: $GPVTG,90.59,T,,M,54.171,N,100.324,K,A*3A
6: $GPGGA,143229.00,5345.56806,N,02800.12289,E,1,11,0.88,198.2,M,24.7,M,,*50
6: $GPGSA,A,3,32,01,03,04,11,19,17,14,23,31,12,,1.58,0.88,1.32*02
7: $GPGSV,3,1,12,01,66,190,33,03,65,276,37,04,41,160,36,11,41,191,31*7B
7: $GPGSV,3,2,12,12,07,011,22,14,19,050,34,17,29,298,33,19,24,223,31*71
7: $GPGSV,3,3,12,23,29,216,33,25,02,046,14,31,36,097,25,32,72,087,27*77
7: $GPGLL,5345.56806,N,02800.12289,E,143229.00,A,A*66
7: $GPRMC,143230.00,A,5345.56792,N,02800.14817,E,54.067,90.51,241015,,,A*6E
7: $GPVTG,90.51,T,,M,54.067,N,100.131,K,A*32
7: $GPGGA,143230.00,5345.56792,N,02800.14817,E,1,11,0.88,198.2,M,24.7,M,,*51
7: $GPGSA,A,3,32,01,03,04,11,19,17,14,23,31,12,,1.58,0.88,1.32*02
8: $GPGSV,3,1,12,01,66,190,33,03,65,276,37,04,41,160,35,11,41,191,31*78
8: $GPGSV,3,2,12,12,07,011,23,14,19,050,33,17,29,298,32,19,24,223,31*76
8: $GPGSV,3,3,12,23,29,216,31,25,02,046,15,31,36,097,25,32,72,087,27*74
8: $GPGLL,5345.56792,N,02800.14817,E,143230.00,A,A*67
8: $GPRMC,143231.00,A,5345.56780,N,02800.17337,E,53.954,90.46,241015,,,A*6E
8: $GPVTG,90.46,T,,M,53.954,N,99.922,K,A*01
8: $GPGGA,143231.00,5345.56780,N,02800.17337,E,1,11,0.88,198.1,M,24.7,M,,*5A
8: $GPGSA,A,3,32,01,03,04,11,19,17,14,23,31,12,,1.58,0.88,1.32*02
8: $GPGSV,3,1,12,01,66,190,33,03,65,276,37,04,41,160,36,11,41,191,31*7B
9: $GPGSV,3,2,12,12,07,011,22,14,19,050,34,17,29,298,26,19,24,223,31*75
9: $GPGSV,3,3,12,23,29,216,32,25,02,046,16,31,36,097,26,32,72,087,27*77
9: $GPGLL,5345.56780,N,02800.17337,E,143231.00,A,A*6F
9: $GPRMC,143232.00,A,5345.56768,N,02800.19860,E,53.963,90.42,241015,,,A*6C
9: $GPVTG,90.42,T,,M,53.963,N,99.940,K,A*05
9: $GPGGA,143232.00,5345.56768,N,02800.19860,E,1,11,0.88,198.1,M,24.7,M,,*58
9: $GPGSA,A,3,32,01,03,04,11,19,17,14,23,31,12,,1.58,0.88,1.32*02
9: $GPGSV,3,1,12,01,66,190,33,03,65,276,36,04,41,160,36,11,41,191,32*79
10: $GPGSV,3,2,12,12,07,011,22,14,19,050,33,17,29,298,28,19,24,223,31*7C
10: $GPGSV,3,3,12,23,29,216,32,25,02,046,18,31,36,097,25,32,72,087,26*7B
10: $GPGLL,5345.56768,N,02800.19860,E,143232.00,A,A*6D
10: $GPRMC,143233.00,A,5345.56755,N,02800.22382,E,54.022,90.56,241015,,,A*62
10: $GPVTG,90.56,T,,M,54.022,N,100.048,K,A*3B
10: $GPGGA,143233.00,5345.56755,N,02800.22382,E,1,11,0.88,198.2,M,24.7,M,,*5B
10: $GPGSA,A,3,32,01,03,04,11,19,17,14,23,31,12,,1.58,0.88,1.32*02
10: $GPGSV,3,1,12,01,66,190,32,03,65,276,37,04,41,160,35,11,41,191,32*7A
10: $GPGSV,3,2,12,12,07,011,22,14,19,050,32,17,29,298,30,19,24,223,31*74
11: $GPGSV,3,3,12,23,29,216,32,25,02,046,19,31,36,097,25,32,72,087,26*7A
11: $GPGLL,5345.56755,N,02800.22382,E,143233.00,A,A*6D
11: $GPRMC,143234.00,A,5345.56738,N,02800.24917,E,54.321,90.76,241015,,,A*6C
11: $GPVTG,90.76,T,,M,54.321,N,100.603,K,A*30
11: $GPGGA,143234.00,5345.56738,N,02800.24917,E,1,11,0.88,198.2,M,24.7,M,,*57
11: $GPGSA,A,3,32,01,03,04,11,19,17,14,23,31,12,,1.58,0.88,1.32*02
11: $GPGSV,3,1,12,01,66,190,32,03,65,276,36,04,41,160,35,11,41,191,32*7B
11: $GPGSV,3,2,12,12,07,011,23,14,19,050,33,17,29,298,30,19,24,223,31*74
11: $GPGSV,3,3,12,23,29,216,32,25,02,046,19,31,36,097,25,32,72,087,26*7A
12: $GPGLL,5345.56738,N,02800.24917,E,143234.00,A,A*61
12: $GPRMC,143235.00,A,5345.56721,N,02800.27461,E,54.470,90.59,241015,,,A*64
12: $GPVTG,90.59,T,,M,54.470,N,100.879,K,A*3D
12: $GPGGA,143235.00,5345.56721,N,02800.27461,E,1,11,0.88,198.2,M,24.7,M,,*51
12: $GPGSA,A,3,32,01,03,04,11,19,17,14,23,31,12,,1.58,0.88,1.32*02
12: $GPGSV,3,1,12,01,66,190,33,03,65,276,36,04,41,160,36,11,41,191,31*7A
12: $GPGSV,3,2,12,12,07,011,24,14,19,050,33,17,29,298,30,19,24,223,31*73
12: $GPGSV,3,3,12,23,29,216,32,25,02,046,20,31,36,097,26,32,72,087,27*72
12: $GPGLL,5345.56721,N,02800.27461,E,143235.00,A,A*67
13: $GPRMC,143236.00,A,5345.56719,N,02800.30023,E,55.036,89.85,241015,,,A*66
13: $GPVTG,89.85,T,,M,55.036,N,101.926,K,A*39
13: $GPGGA,143236.00,5345.56719,N,02800.30023,E,1,11,0.88,198.0,M,24.7,M,,*5F
13: $GPGSA,A,3,32,01,03,04,11,19,17,14,23,31,12,,1.58,0.88,1.32*02
13: $GPGSV,3,1,12,01,66,190,33,03,65,276,36,04,41,160,36,11,41,191,30*7B
13: $GPGSV,3,2,12,12,07,011,25,14,19,050,33,17,29,298,31,19,24,223,31*73
13: $GPGSV,3,3,12,23,29,216,32,25,02,046,24,31,36,097,27,32,72,087,27*77
13: $GPGLL,5345.56719,N,02800.30023,E,143236.00,A,A*6B
14: $GPRMC,143237.00,A,5345.56714,N,02800.32599,E,55.237,90.20,241015,,,A*68
14: $GPVTG,90.20,T,,M,55.237,N,102.299,K,A*31
14: $GPGGA,143237.00,5345.56714,N,02800.32599,E,1,11,0.94,198.0,M,24.7,M,,*58
14: $GPGSA,A,3,32,01,03,04,11,19,17,14,23,31,12,,1.76,0.94,1.49*0F
14: $GPGSV,3,1,12,01,66,190,33,03,65,276,37,04,41,160,35,11,41,191,30*79
14: $GPGSV,3,2,12,12,07,011,22,14,19,050,34,17,29,298,31,19,24,223,31*73
14: $GPGSV,3,3,12,23,29,216,32,25,02,046,25,31,36,097,25,32,72,087,28*7B
14: $GPGLL,5345.56714,N,02800.32599,E,143237.00,A,A*61
15: $GPRMC,143238.00,A,5345.56700,N,02800.35186,E,55.479,90.48,241015,,,A*6D
15: $GPVTG,90.48,T,,M,55.479,N,102.747,K,A*35
15: $GPGGA,143238.00,5345.56700,N,02800.35186,E,1,10,0.94,198.1,M,24.7,M,,*5F
15: $GPGSA,A,3,32,01,03,04,11,19,17,14,23,31,,,1.76,0.94,1.49*0C
15: $GPGSV,3,1,12,01,66,190,32,03,65,276,37,04,41,160,35,11,41,191,31*79
15: $GPGSV,3,2,12,12,07,011,,14,19,050,34,17,29,298,33,19,24,223,32*72
15: $GPGSV,3,3,12,23,29,216,32,25,02,046,26,31,36,097,23,32,72,087,28*7E
15: $GPGLL,5345.56700,N,02800.35186,E,143238.00,A,A*66
16: $GPRMC,143239.00,A,5345.56687,N,02800.37788,E,55.795,90.55,241015,,,A*65
16: $GPVTG,90.55,T,,M,55.795,N,103.332,K,A*3F
16: $GPGGA,143239.00,5345.56687,N,02800.37788,E,1,11,0.94,198.1,M,24.7,M,,*5B
16: $GPGSA,A,3,32,01,03,04,11,19,17,14,23,31,12,,1.76,0.94,1.49*0F
16: $GPGSV,3,1,12,01,66,190,32,03,65,276,37,04,41,160,35,11,41,191,30*78
16: $GPGSV,3,2,12,12,07,011,24,14,19,050,34,17,29,298,33,19,24,223,32*74
16: $GPGSV,3,3,12,23,29,216,33,25,02,046,27,31,36,097,25,32,72,087,28*78
16: $GPGLL,5345.56687,N,02800.37788,E,143239.00,A,A*63
16: $GPRMC,143240.00,A,5345.56669,N,02800.40408,E,56.078,90.63,241015,,,A*62
17: $GPVTG,90.63,T,,M,56.078,N,103.857,K,A*35
17: $GPGGA,143240.00,5345.56669,N,02800.40408,E,1,11,0.94,198.2,M,24.7,M,,*5D
17: $GPGSA,A,3,32,01,03,04,11,19,17,14,23,31,12,,1.76,0.94,1.49*0F
17: $GPGSV,3,1,12,01,66,190,33,03,65,276,36,04,41,160,35,11,41,191,31*79
17: $GPGSV,3,2,12,12,07,011,23,14,19,050,30,17,29,298,34,19,24,223,32*70
17: $GPGSV,3,3,12,23,29,216,34,25,02,046,25,31,36,097,27,32,72,087,27*70
17: $GPGLL,5345.56669,N,02800.40408,E,143240.00,A,A*66
17: $GPRMC,143241.00,A,5345.56657,N,02800.43035,E,56.478,90.55,241015,,,A*66
18: $GPVTG,90.55,T,,M,56.478,N,104.597,K,A*32
18: $GPGGA,143241.00,5345.56657,N,02800.43035,E,1,11,0.88,198.2,M,24.7,M,,*55
18: $GPGSA,A,3,32,01,03,04,11,19,17,14,23,31,12,,1.58,0.88,1.32*02
18: $GPGSV,4,1,13,01,66,190,33,03,65,276,36,04,41,160,35,11,41,191,31*7F
18: $GPGSV,4,2,13,12,07,011,23,14,19,050,32,17,29,298,34,19,24,223,31*77
18: $GPGSV,4,3,13,23,29,216,34,25,02,046,23,31,36,097,28,32,72,087,28*70
18: $GPGSV,4,4,13,33,17,229,30*47
18: $GPGLL,5345.56657,N,02800.43035,E,143241.00,A,A*63
18: $GPRMC,143242.00,A,5345.56641,N,02800.45676,E,56.626,90.65,241015,,,A*6F
19: $GPVTG,90.65,T,,M,56.626,N,104.871,K,A*3D
19: $GPGGA,143242.00,5345.56641,N,02800.45676,E,1,11,0.88,198.3,M,24.7,M,,*57
19: $GPGSA,A,3,32,01,03,04,11,19,17,14,23,31,12,,1.58,0.88,1.32*02
19: $GPGSV,4,1,13,01,66,190,33,03,65,276,36,04,41,160,35,11,41,191,29*76
19: $GPGSV,4,2,13,12,07,011,24,14,19,050,31,17,29,298,33,19,24,223,31*74
19: $GPGSV,4,3,13,23,29,216,31,25,02,046,20,31,36,097,27,32,72,087,28*79
19: $GPGSV,4,4,13,33,17,229,32*45
19: $GPGLL,5345.56641,N,02800.45676,E,143242.00,A,A*60
19: $GPRMC,143243.00,A,5345.56623,N,02800.48333,E,56.957,90.70,241015,,,A*6E
20: $GPVTG,90.70,T,,M,56.957,N,105.485,K,A*36
20: $GPGGA,143243.00,5345.56623,N,02800.48333,E,1,11,0.88,198.4,M,24.7,M,,*5C
20: $GPGSA,A,3,32,01,03,04,11,19,17,14,23,31,12,,1.58,0.88,1.32*02
20: $GPGSV,4,1,13,01,66,190,33,03,65,276,36,04,41,160,35,11,41,191,31*7F
20: $GPGSV,4,2,13,12,07,011,24,14,19,050,32,17,29,298,33,19,24,223,30*76
20: $GPGSV,4,3,13,23,29,216,31,25,02,046,22,31,36,097,26,32,72,087,28*7A
20: $GPGSV,4,4,13,33,17,229,34*43
20: $GPGLL,5345.56623,N,02800.48333,E,143243.00,A,A*6C
20: $GPRMC,143244.00,A,5345.56607,N,02800.51000,E,57.279,90.42,241015,,,A*63
20: $GPVTG,90.42,T,,M,57.279,N,106.080,K,A*33
21: $GPGGA,143244.00,5345.56607,N,02800.51000,E,1,11,0.88,198.4,M,24.7,M,,*56
21: $GPGSA,A,3,32,01,03,04,11,19,17,14,23,31,12,,1.58,0.88,1.32*02
21: $GPGSV,4,1,13,01,66,190,32,03,65,276,36,04,41,160,36,11,41,191,30*7C
21: $GPGSV,4,2,13,12,07,011,25,14,19,050,33,17,29,298,33,19,24,223,29*7E
21: $GPGSV,4,3,13,23,29,216,34,25,02,046,22,31,36,097,26,32,72,087,28*7F
21: $GPGSV,4,4,13,33,17,229,30*47
21: $GPGLL,5345.56607,N,02800.51000,E,143244.00,A,A*66
21: $GPRMC,143245.00,A,5345.56593,N,02800.53689,E,57.630,90.30,241015,,,A*65
21: $GPVTG,90.30,T,,M,57.630,N,106.732,K,A*31
21: $GPGGA,143245.00,5345.56593,N,02800.53689,E,1,11,0.88,198.5,M,24.7,M,,*5D
22: $GPGSA,A,3,32,01,03,04,11,19,17,14,23,31,12,,1.58,0.88,1.32*02
22: $GPGSV,4,1,13,01,66,190,32,03,65,276,36,04,41,160,36,11,41,191,31*7D
22: $GPGSV,4,2,13,12,07,011,25,14,19,050,33,17,29,298,36,19,24,223,30*73
22: $GPGSV,4,3,13,23,29,216,30,25,02,046,22,31,36,097,26,32,72,087,27*74
22: $GPGSV,4,4,13,33,17,229,31*46
22: $GPGLL,5345.56593,N,02800.53689,E,143245.00,A,A*6C
22: $GPRMC,143246.00,A,5345.56578,N,02800.56389,E,57.890,90.59,241015,,,A*68
22: $GPVTG,90.59,T,,M,57.890,N,107.212,K,A*3C
22: $GPGGA,143246.00,5345.56578,N,02800.56389,E,1,11,0.88,198.5,M,24.7,M,,*5B
22: $GPGSA,A,3,32,01,03,04,11,19,17,14,23,31,12,,1.58,0.88,1.32*02
23: $GPGSV,4,1,13,01,66,190,33,03,65,276,36,04,41,160,36,11,41,191,31*7C
23: $GPGSV,4,2,13,12,07,011,25,14,19,050,32,17,29,298,34,19,24,223,31*71
23: $GPGSV,4,3,13,23,29,216,33,25,02,046,22,31,36,097,24,32,72,087,27*75
23: $GPGSV,4,4,13,33,17,229,30*47
23: $GPGLL,5345.56578,N,02800.56389,E,143246.00,A,A*6A
23: $GPRMC,143247.00,A,5345.56557,N,02800.59097,E,58.028,90.82,241015,,,A*65
23: $GPVTG,90.82,T,,M,58.028,N,107.469,K,A*34
23: $GPGGA,143247.00,5345.56557,N,02800.59097,E,1,11,0.88,198.5,M,24.7,M,,*54
23: $GPGSA,A,3,32,01,03,04,11,19,17,14,23,31,12,,1.58,0.88,1.32*02
24: $GPGSV,4,1,13,01,66,190,33,03,65,276,37,04,41,160,36,11,41,191,31*7D
24: $GPGSV,4,2,13,12,07,011,25,14,19,050,32,17,29,298,33,19,24,223,31*76
24: $GPGSV,4,3,13,23,29,216,32,25,02,046,23,31,36,097,24,32,72,087,28*7A
24: $GPGSV,4,4,13,33,17,229,31*46
24: $GPGLL,5345.56557,N,02800.59097,E,143247.00,A,A*65
24: $GPRMC,143248.00,A,5345.56534,N,02800.61819,E,58.415,90.70,241015,,,A*6D
24: $GPVTG,90.70,T,,M,58.415,N,108.186,K,A*38
24: $GPGGA,143248.00,5345.56534,N,02800.61819,E,1,11,0.88,198.5,M,24.7,M,,*5B
24: $GPGSA,A,3,32,01,03,04,11,19,17,14,23,31,12,,1.58,0.88,1.32*02
24: $GPGSV,4,1,13,01,66,189,33,03,65,276,37,04,41,160,36,11,41,191,32*76
25: $GPGSV,4,2,13,12,07,011,25,14,19,050,33,17,29,298,33,19,24,223,30*76
25: $GPGSV,4,3,13,23,29,216,33,25,02,046,23,31,36,097,26,32,72,087,28*79
25: $GPGSV,4,4,13,33,17,229,31*46
25: $GPGLL,5345.56534,N,02800.61819,E,143248.00,A,A*6A
25: $GPRMC,143249.00,A,5345.56508,N,02800.64547,E,58.575,90.75,241015,,,A*62
25: $GPVTG,90.75,T,,M,58.575,N,108.482,K,A*3B
25: $GPGGA,143249.00,5345.56508,N,02800.64547,E,1,11,0.88,198.5,M,24.7,M,,*56
25: $GPGSA,A,3,32,01,03,04,11,19,17,14,23,31,12,,1.58,0.88,1.32*02
25: $GPGSV,4,1,13,01,66,189,33,03,65,276,36,04,41,160,36,11,41,191,32*77
26: $GPGSV,4,2,13,12,07,011,27,14,19,050,33,17,29,298,30,19,24,223,31*76
26: $GPGSV,4,3,13,23,29,216,33,25,02,046,22,31,36,097,26,32,72,087,27*77
26: $GPGSV,4,4,13,33,17,229,31*46
26: $GPGLL,5345.56508,N,02800.64547,E,143249.00,A,A*67
26: $GPRMC,143250.00,A,5345.56485,N,02800.67289,E,58.721,90.81,241015,,,A*60
26: $GPVTG,90.81,T,,M,58.721,N,108.751,K,A*3E
26: $GPGGA,143250.00,5345.56485,N,02800.67289,E,1,11,0.88,198.5,M,24.7,M,,*5C
26: $GPGSA,A,3,32,01,03,04,11,19,17,14,23,31,12,,1.58,0.88,1.32*02
26: $GPGSV,4,1,13,01,66,189,32,03,66,277,36,04,41,160,36,11,41,191,31*77
26: $GPGSV,4,2,13,12,07,011,27,14,19,050,32,17,29,298,30,19,24,223,31*77
27: $GPGSV,4,3,13,23,29,216,30,25,02,046,20,31,36,097,26,32,72,087,26*77
27: $GPGSV,4,4,13,33,17,229,32*45
27: $GPGLL,5345.56485,N,02800.67289,E,143250.00,A,A*6D
27: $GPRMC,143251.00,A,5345.56461,N,02800.70032,E,58.770,90.85,241015,,,A*6F
27: $GPVTG,90.85,T,,M,58.770,N,108.842,K,A*33
27: $GPGGA,143251.00,5345.56461,N,02800.70032,E,1,11,0.88,198.4,M,24.7,M,,*52
27: $GPGSA,A,3,32,01,03,04,11,19,17,14,23,31,12,,1.58,0.88,1.32*02
27: $GPGSV,4,1,13,01,66,189,33,03,66,277,36,04,40,160,36,11,41,191,32*74
27: $GPGSV,4,2,13,12,07,011,26,14,19,050,32,17,29,298,31,19,24,223,30*76
27: $GPGSV,4,3,13,23,29,216,34,25,02,046,18,31,36,097,24,32,72,087,25*79
28: $GPGSV,4,4,13,33,17,229,31*46
28: $GPGLL,5345.56461,N,02800.70032,E,143251.00,A,A*62
28: $GPRMC,143252.00,A,5345.56437,N,02800.72772,E,58.659,90.60,241015,,,A*6F
28: $GPVTG,90.60,T,,M,58.659,N,108.637,K,A*3E
28: $GPGGA,143252.00,5345.56437,N,02800.72772,E,1,11,0.88,198.4,M,24.7,M,,*53
28: $GPGSA,A,3,32,01,03,04,11,19,17,14,23,31,12,,1.58,0.88,1.32*02
28: $GPGSV,4,1,13,01,66,189,32,03,66,277,36,04,40,160,36,11,41,191,31*76
28: $GPGSV,4,2,13,12,07,011,28,14,19,050,33,17,29,298,31,19,24,223,29*71
28: $GPGSV,4,3,13,23,29,216,34,25,02,046,17,31,36,097,25,32,72,087,27*75
29: $GPGSV,4,4,13,33,17,229,32*45
29: $GPGLL,5345.56437,N,02800.72772,E,143252.00,A,A*63
29: $GPRMC,143253.00,A,5345.56417,N,02800.75515,E,58.709,90.58,241015,,,A*67
29: $GPVTG,90.58,T,,M,58.709,N,108.729,K,A*3F
29: $GPGGA,143253.00,5345.56417,N,02800.75515,E,1,11,0.88,198.2,M,24.7,M,,*52
29: $GPGSA,A,3,32,01,03,04,11,19,17,14,23,31,12,,1.58,0.88,1.32*02
29: $GPGSV,4,1,13,01,66,189,33,03,66,277,36,04,40,160,35,11,41,191,32*77
29: $GPGSV,4,2,13,12,07,011,28,14,19,050,33,17,29,298,31,19,24,223,30*79
29: $GPGSV,4,3,13,23,29,216,35,25,02,046,17,31,36,097,27,32,72,087,27*76
30: $GPGSV,4,4,13,33,17,229,32*45
30: $GPGLL,5345.56417,N,02800.75515,E,143253.00,A,A*64
30: $GPRMC,143254.00,A,5345.56400,N,02800.78258,E,58.645,90.61,241015,,,A*66
30: $GPVTG,90.61,T,,M,58.645,N,108.610,K,A*37
30: $GPGGA,143254.00,5345.56400,N,02800.78258,E,1,11,0.88,198.1,M,24.7,M,,*53
30: $GPGSA,A,3,32,01,03,04,11,19,17,14,23,31,12,,1.58,0.88,1.32*02
30: $GPGSV,4,1,13,01,66,189,33,03,66,277,36,04,40,160,35,11,41,191,31*74
30: $GPGSV,4,2,13,12,07,011,27,14,19,050,33,17,29,298,32,19,24,223,30*75
30: $GPGSV,4,3,13,23,29,216,35,25,02,046,17,31,36,097,28,32,72,087,28*76
31: $GPGSV,4,4,13,33,17,229,32*45
31: $GPGLL,5345.56400,N,02800.78258,E,143254.00,A,A*66
31: $GPRMC,143255.00,A,5345.56386,N,02800.81002,E,58.673,90.47,241015,,,A*64
31: $GPVTG,90.47,T,,M,58.673,N,108.663,K,A*32
31: $GPGGA,143255.00,5345.56386,N,02800.81002,E,1,11,0.88,198.0,M,24.7,M,,*51
31: $GPGSA,A,3,32,01,03,04,11,19,17,14,23,31,12,,1.58,0.88,1.32*02
31: $GPGSV,4,1,13,01,66,189,32,03,66,277,36,04,40,160,34,11,41,191,31*74
31: $GPGSV,4,2,13,12,07,011,27,14,19,050,33,17,29,298,32,19,24,223,30*75
31: $GPGSV,4,3,13,23,29,216,32,25,02,046,17,31,36,097,26,32,72,087,28*7F
32: $GPGSV,4,4,13,33,17,229,32*45
32: $GPGLL,5345.56386,N,02800.81002,E,143255.00,A,A*65
32: $GPRMC,143256.00,A,5345.56371,N,02800.83734,E,58.519,90.60,241015,,,A*65
32: $GPVTG,90.60,T,,M,58.519,N,108.377,K,A*38
32: $GPGGA,143256.00,5345.56371,N,02800.83734,E,1,11,0.88,197.8,M,24.7,M,,*5D
32: $GPGSA,A,3,32,01,03,04,11,19,17,14,23,31,12,,1.58,0.88,1.32*02
32: $GPGSV,4,1,13,01,66,189,33,03,66,277,36,04,40,160,34,11,41,191,31*75
32: $GPGSV,4,2,13,12,07,011,27,14,19,050,32,17,29,298,32,19,24,223,30*74
32: $GPGSV,4,3,13,23,29,216,34,25,02,046,16,31,36,097,26,32,72,087,28*78
32: $GPGSV,4,4,13,33,17,229,33*44
33: $GPGLL,5345.56371,N,02800.83734,E,143256.00,A,A*6E
33: $GPRMC,143257.00,A,5345.56355,N,02800.86470,E,58.676,90.63,241015,,,A*6D
33: $GPVTG,90.63,T,,M,58.676,N,108.668,K,A*3A
33: $GPGGA,143257.00,5345.56355,N,02800.86470,E,1,11,0.88,197.5,M,24.7,M,,*51
33: $GPGSA,A,3,32,01,03,04,11,19,17,14,23,31,12,,1.58,0.88,1.32*02
33: $GPGSV,4,1,13,01,66,189,33,03,66,277,36,04,40,160,35,11,41,191,31*74
33: $GPGSV,4,2,13,12,07,011,27,14,19,050,29,17,29,298,32,19,24,223,31*7F
33: $GPGSV,4,3,13,23,29,216,34,25,02,046,16,31,36,097,25,32,72,087,28*7B
33: $GPGSV,4,4,13,33,17,229,33*44
33: $GPGLL,5345.56355,N,02800.86470,E,143257.00,A,A*6F
34: $GPRMC,143258.00,A,5345.56338,N,02800.89207,E,58.550,90.58,241015,,,A*6F
34: $GPVTG,90.58,T,,M,58.550,N,108.434,K,A*3E
34: $GPGGA,143258.00,5345.56338,N,02800.89207,E,1,11,0.88,197.3,M,24.7,M,,*5A
34: $GPGSA,A,3,32,01,03,04,11,19,17,14,23,31,12,,1.58,0.88,1.32*02
34: $GPGSV,4,1,13,01,66,189,33,03,66,277,36,04,40,160,34,11,40,191,31*74
34: $GPGSV,4,2,13,12,07,011,27,14,19,050,29,17,29,298,32,19,24,223,31*7F
34: $GPGSV,4,3,13,23,29,216,32,25,02,046,18,31,36,097,25,32,72,087,28*73
34: $GPGSV,4,4,13,33,17,229,33*44
34: $GPGLL,5345.56338,N,02800.89207,E,143258.00,A,A*62
35: $GPRMC,143259.00,A,5345.56321,N,02800.91942,E,58.574,90.66,241015,,,A*6E
35: $GPVTG,90.66,T,,M,58.574,N,108.480,K,A*3A
35: $GPGGA,143259.00,5345.56321,N,02800.91942,E,1,11,0.88,197.1,M,24.7,M,,*52
35: $GPGSA,A,3,32,01,03,04,11,19,17,14,23,31,12,,1.58,0.88,1.32*02
35: $GPGSV,4,1,13,01,66,189,33,03,66,277,36,04,40,160,34,11,40,191,31*74
35: $GPGSV,4,2,13,12,07,010,27,14,19,050,29,17,29,298,32,19,24,223,31*7E
35: $GPGSV,4,3,13,23,29,216,32,25,02,046,17,31,36,097,26,32,72,087,28*7F
35: $GPGSV,4,4,13,33,17,229,33*44
35: $GPGLL,5345.56321,N,02800.91942,E,143259.00,A,A*68
36: $GPRMC,143300.00,A,5345.56301,N,02800.94668,E,58.379,90.73,241015,,,A*6C
36: $GPVTG,90.73,T,,M,58.379,N,108.118,K,A*31
36: $GPGGA,143300.00,5345.56301,N,02800.94668,E,1,11,0.88,196.9,M,24.7,M,,*56
36: $GPGSA,A,3,32,01,03,04,11,19,17,14,23,31,12,,1.58,0.88,1.32*02
36: $GPGSV,4,1,13,01,66,189,33,03,66,277,36,04,40,160,34,11,40,191,31*74
36: $GPGSV,4,2,13,12,07,010,26,14,19,050,29,17,29,298,32,19,24,223,31*7F
36: $GPGSV,4,3,13,23,29,216,31,25,02,046,15,31,36,097,26,32,72,087,28*7E
36: $GPGSV,4,4,13,33,17,229,33*44
36: $GPGLL,5345.56301,N,02800.94668,E,143300.00,A,A*65
37: $GPRMC,143301.00,A,5345.56281,N,02800.97394,E,58.293,90.69,241015,,,A*6F
37: $GPVTG,90.69,T,,M,58.293,N,107.958,K,A*3C
37: $GPGGA,143301.00,5345.56281,N,02800.97394,E,1,11,0.88,196.7,M,24.7,M,,*55
37: $GPGSA,A,3,32,01,03,04,11,19,17,14,23,31,12,,1.58,0.88,1.32*02
37: $GPGSV,4,1,13,01,66,189,33,03,66,277,36,04,40,160,35,11,40,191,30*74
37: $GPGSV,4,2,13,12,07,010,26,14,18,050,29,17,29,298,33,19,24,223,33*7D
37: $GPGSV,4,3,13,23,29,216,33,25,02,046,17,31,36,097,26,32,72,087,29*7F
37: $GPGSV,4,4,13,33,17,229,33*44
37: $GPGLL,5345.56281,N,02800.97394,E,143301.00,A,A*68
37: $GPRMC,143302.00,A,5345.56265,N,02801.00109,E,58.011,90.53,241015,,,A*6E
38: $GPVTG,90.53,T,,M,58.011,N,107.437,K,A*39
38: $GPGGA,143302.00,5345.56265,N,02801.00109,E,1,11,0.88,196.5,M,24.7,M,,*57
38: $GPGSA,A,3,32,01,03,04,11,19,17,14,23,31,12,,1.58,0.88,1.32*02
38: $GPGSV,4,1,13,01,66,189,32,03,66,277,36,04,40,160,35,11,40,191,29*7D
38: $GPGSV,4,2,13,12,07,010,26,14,18,050,29,17,29,298,33,19,24,223,32*7C
38: $GPGSV,4,3,13,23,29,216,31,25,02,046,17,31,36,097,27,32,72,087,29*7C
38: $GPGSV,4,4,13,33,17,229,33*44
38: $GPGLL,5345.56265,N,02801.00109,E,143302.00,A,A*68
38: $GPRMC,143303.00,A,5345.56247,N,02801.02808,E,57.555,90.66,241015,,,A*69
39: $GPVTG,90.66,T,,M,57.555,N,106.591,K,A*39
39: $GPGGA,143303.00,5345.56247,N,02801.02808,E,1,11,0.88,196.5,M,24.7,M,,*5C
39: $GPGSA,A,3,32,01,03,04,11,19,17,14,23,31,12,,1.58,0.88,1.32*02
39: $GPGSV,4,1,13,01,66,189,32,03,66,277,36,04,40,160,35,11,40,191,30*75
39: $GPGSV,4,2,13,12,07,010,25,14,18,050,29,17,29,298,29,19,24,223,32*74
39: $GPGSV,4,3,13,23,29,216,30,25,02,046,18,31,36,097,27,32,72,087,29*72
39: $GPGSV,4,4,13,33,17,229,33*44
39: $GPGLL,5345.56247,N,02801.02808,E,143303.00,A,A*63
39: $GPRMC,143304.00,A,5345.56227,N,02801.05489,E,57.292,90.73,241015,,,A*62
39: $GPVTG,90.73,T,,M,57.292,N,106.104,K,A*39
40: $GPGGA,143304.00,5345.56227,N,02801.05489,E,1,11,0.88,196.4,M,24.7,M,,*5E
40: $GPGSA,A,3,32,01,03,04,11,19,17,14,23,31,12,,1.58,0.88,1.32*02
40: $GPGSV,4,1,13,01,66,189,32,03,66,277,36,04,40,160,34,11,40,191,31*75
40: $GPGSV,4,2,13,12,07,010,25,14,18,050,29,17,29,298,32,19,24,223,31*7D
40: $GPGSV,4,3,13,23,29,216,34,25,02,046,18,31,36,097,26,32,72,087,30*7F
40: $GPGSV,4,4,13,33,17,229,33*44
40: $GPGLL,5345.56227,N,02801.05489,E,143304.00,A,A*60
40: $GPRMC,143305.00,A,5345.56207,N,02801.08159,E,57.029,90.72,241015,,,A*67
40: $GPVTG,90.72,T,,M,57.029,N,105.617,K,A*3C
41: $GPGGA,143305.00,5345.56207,N,02801.08159,E,1,11,0.88,196.3,M,24.7,M,,*5F
41: $GPGSA,A,3,32,01,03,04,11,19,17,14,23,31,12,,1.58,0.88,1.32*02
41: $GPGSV,4,1,13,01,66,189,32,03,66,277,36,04,40,160,33,11,40,191,30*73
41: $GPGSV,4,2,13,12,07,010,25,14,18,050,30,17,29,298,32,19,24,223,31*75
41: $GPGSV,4,3,13,23,29,216,33,25,02,046,18,31,36,097,26,32,72,087,30*78
41: $GPGSV,4,4,13,33,17,229,33*44
41: $GPGLL,5345.56207,N,02801.08159,E,143305.00,A,A*66
41: $GPRMC,143306.00,A,5345.56190,N,02801.10819,E,56.929,90.52,241015,,,A*67
41: $GPVTG,90.52,T,,M,56.929,N,105.433,K,A*32
41: $GPGGA,143306.00,5345.56190,N,02801.10819,E,1,11,0.88,196.0,M,24.7,M,,*56
42: $GPGSA,A,3,32,01,03,04,11,19,17,14,23,31,12,,1.58,0.88,1.32*02
42: $GPGSV,4,1,13,01,66,189,32,03,66,277,36,04,40,160,33,11,40,191,30*73
42: $GPGSV,4,2,13,12,07,010,24,14,18,050,30,17,29,298,33,19,23,223,29*7B
42: $GPGSV,4,3,13,23,29,216,32,25,02,046,17,31,36,097,27,32,72,087,29*7F
42: $GPGSV,4,4,13,33,17,229,33*44
42: $GPGLL,5345.56190,N,02801.10819,E,143306.00,A,A*6C
42: $GPRMC,143307.00,A,5345.56171,N,02801.13476,E,56.613,90.84,241015,,,A*62
42: $GPVTG,90.84,T,,M,56.613,N,104.848,K,A*3E
42: $GPGGA,143307.00,5345.56171,N,02801.13476,E,1,11,0.88,195.9,M,24.7,M,,*54
43: $GPGSA,A,3,32,01,03,04,11,19,17,14,23,31,12,,1.58,0.88,1.32*02
43: $GPGSV,4,1,13,01,66,189,32,03,66,277,36,04,40,160,34,11,40,191,31*75
43: $GPGSV,4,2,13,12,07,010,22,14,18,050,29,17,29,298,32,19,23,223,29*74
43: $GPGSV,4,3,13,23,29,216,31,25,02,046,17,31,36,097,27,32,72,087,28*7D
43: $GPGSV,4,4,13,33,17,229,34*43
43: $GPGLL,5345.56171,N,02801.13476,E,143307.00,A,A*64
43: $GPRMC,143308.00,A,5345.56151,N,02801.16129,E,56.642,90.76,241015,,,A*6C
43: $GPVTG,90.76,T,,M,56.642,N,104.901,K,A*3B
43: $GPGGA,143308.00,5345.56151,N,02801.16129,E,1,11,0.88,195.5,M,24.7,M,,*5F
43: $GPGSA,A,3,32,01,03,04,11,19,17,14,23,31,12,,1.58,0.88,1.32*02
44: $GPGSV,4,1,13,01,66,189,32,03,66,277,36,04,40,160,34,11,40,191,31*75
44: $GPGSV,4,2,13,12,07,010,21,14,18,050,29,17,29,298,33,19,23,223,29*76
44: $GPGSV,4,3,13,23,29,216,31,25,02,046,17,31,36,097,25,32,72,087,27*70
44: $GPGSV,4,4,13,33,17,229,34*43
44: $GPGLL,5345.56151,N,02801.16129,E,143308.00,A,A*63
44: $GPRMC,143309.00,A,5345.56132,N,02801.18781,E,56.703,90.64,241015,,,A*65
44: $GPVTG,90.64,T,,M,56.703,N,105.014,K,A*30
44: $GPGGA,143309.00,5345.56132,N,02801.18781,E,1,11,0.88,195.0,M,24.7,M,,*54
44: $GPGSA,A,3,32,01,03,04,11,19,17,14,23,31,12,,1.58,0.88,1.32*02
45: $GPGSV,4,1,13,01,66,189,32,03,66,277,36,04,40,160,34,11,40,191,31*75
45: $GPGSV,4,2,13,12,07,010,22,14,18,050,30,17,29,298,32,19,23,223,29*7C
45: $GPGSV,4,3,13,23,29,216,31,25,02,046,16,31,36,097,26,32,72,087,27*72
45: $GPGSV,4,4,13,33,17,229,33*44
45: $GPGLL,5345.56132,N,02801.18781,E,143309.00,A,A*6D
45: $GPRMC,143310.00,A,5345.56116,N,02801.21441,E,56.931,90.46,241015,,,A*61
45: $GPVTG,90.46,T,,M,56.931,N,105.436,K,A*3B
45: $GPGGA,143310.00,5345.56116,N,02801.21441,E,1,11,0.88,194.5,M,24.7,M,,*5B
45: $GPGSA,A,3,32,01,03,04,11,19,17,14,23,31,12,,1.58,0.88,1.32*02
45: $GPGSV,4,1,13,01,66,189,32,03,66,277,36,04,40,160,34,11,40,191,31*75
46: $GPGSV,4,2,13,12,07,010,22,14,18,050,31,17,29,298,32,19,23,223,29*7D
46: $GPGSV,4,3,13,23,30,216,32,25,02,046,14,31,36,097,25,32,72,087,27*78
46: $GPGSV,4,4,13,33,17,229,34*43
46: $GPGLL,5345.56116,N,02801.21441,E,143310.00,A,A*66
46: $GPRMC,143311.00,A,5345.56100,N,02801.24099,E,56.630,90.62,241015,,,A*6B
46: $GPVTG,90.62,T,,M,56.630,N,104.879,K,A*35
46: $GPGGA,143311.00,5345.56100,N,02801.24099,E,1,11,0.88,194.1,M,24.7,M,,*5D
46: $GPGSA,A,3,32,01,03,04,11,19,17,14,23,31,12,,1.58,0.88,1.32*02
46: $GPGSV,4,1,13,01,66,189,32,03,66,277,36,04,40,160,34,11,40,191,30*74
47: $GPGSV,4,2,13,12,07,010,24,14,18,050,32,17,29,298,32,19,23,223,29*78
47: $GPGSV,4,3,13,23,30,216,33,25,02,046,15,31,36,097,28,32,72,087,28*7A
47: $GPGSV,4,4,13,33,17,229,33*44
47: $GPGLL,5345.56100,N,02801.24099,E,143311.00,A,A*64
47: $GPRMC,143312.00,A,5345.56083,N,02801.26747,E,56.663,90.49,241015,,,A*6B
47: $GPVTG,90.49,T,,M,56.663,N,104.940,K,A*31
47: $GPGGA,143312.00,5345.56083,N,02801.26747,E,1,11,0.88,193.5,M,24.7,M,,*51
47: $GPGSA,A,3,32,01,03,04,11,19,17,14,23,31,12,,1.58,0.88,1.32*02
47: $GPGSV,4,1,13,01,66,189,32,03,66,277,36,04,40,160,34,11,40,191,30*74
47: $GPGSV,4,2,13,12,07,010,25,14,18,050,31,17,29,298,32,19,23,223,29*7A
48: $GPGSV,4,3,13,23,30,216,33,25,03,046,15,31,36,097,27,32,72,087,27*7B
48: $GPGSV,4,4,13,33,17,229,34*43
48: $GPGLL,5345.56083,N,02801.26747,E,143312.00,A,A*6B
48: $GPRMC,143313.00,A,5345.56069,N,02801.29400,E,56.729,90.37,241015,,,A*67
48: $GPVTG,90.37,T,,M,56.729,N,105.063,K,A*3E
48: $GPGGA,143313.00,5345.56069,N,02801.29400,E,1,11,0.88,193.0,M,24.7,M,,*5E
48: $GPGSA,A,3,32,01,03,04,11,19,17,14,23,31,12,,1.58,0.88,1.32*02
48: $GPGSV,4,1,13,01,66,189,31,03,66,277,36,04,40,160,34,11,40,191,30*77
48: $GPGSV,4,2,13,12,07,010,26,14,18,050,27,17,29,298,31,19,23,223,28*7C
49: $GPGSV,4,3,13,23,30,216,29,25,03,046,14,31,36,097,25,32,72,087,27*73
49: $GPGSV,4,4,13,33,17,229,30*47
49: $GPGLL,5345.56069,N,02801.29400,E,143313.00,A,A*61
49: $GPRMC,143314.00,A,5345.56055,N,02801.32052,E,56.766,90.31,241015,,,A*6B
49: $GPVTG,90.31,T,,M,56.766,N,105.131,K,A*35
49: $GPGGA,143314.00,5345.56055,N,02801.32052,E,1,11,0.88,192.4,M,24.7,M,,*5A
49: $GPGSA,A,3,32,01,03,04,11,19,17,14,23,31,12,,1.58,0.88,1.32*02
49: $GPGSV,4,1,13,01,66,189,31,03,66,277,36,04,40,160,34,11,40,191,30*77
49: $GPGSV,4,2,13,12,07,010,26,14,18,050,29,17,29,298,32,19,23,223,29*70
49: $GPGSV,4,3,13,23,30,216,32,25,03,046,15,31,36,097,26,32,72,087,28*74
50: $GPGSV,4,4,13,33,17,229,29*4F
50: $GPGLL,5345.56055,N,02801.32052,E,143314.00,A,A*60
50: $GPRMC,143315.00,A,5345.56042,N,02801.34715,E,56.960,90.42,241015,,,A*62
50: $GPVTG,90.42,T,,M,56.960,N,105.489,K,A*3F
50: $GPGGA,143315.00,5345.56042,N,02801.34715,E,1,11,0.88,191.8,M,24.7,M,,*50
50: $GPGSA,A,3,32,01,03,04,11,19,17,14,23,31,12,,1.58,0.88,1.32*02
50: $GPGSV,4,1,13,01,66,189,31,03,66,277,36,04,40,160,33,11,40,191,30*70
50: $GPGSV,4,2,13,12,07,010,26,14,18,050,30,17,29,298,32,19,23,223,29*78
50: $GPGSV,4,3,13,23,30,216,32,25,03,046,15,31,36,097,27,32,72,087,28*75
51: $GPGSV,4,4,13,33,17,229,28*4E
51: $GPGLL,5345.56042,N,02801.34715,E,143315.00,A,A*65
51: $GPRMC,143316.00,A,5345.56025,N,02801.37383,E,57.009,90.60,241015,,,A*6F
51: $GPVTG,90.60,T,,M,57.009,N,105.580,K,A*30
51: $GPGGA,143316.00,5345.56025,N,02801.37383,E,1,11,0.88,191.2,M,24.7,M,,*50
51: $GPGSA,A,3,32,01,03,04,11,19,17,14,23,31,12,,1.58,0.88,1.32*02
51: $GPGSV,4,1,13,01,66,189,31,03,66,277,36,04,40,160,33,11,40,191,30*70
51: $GPGSV,4,2,13,12,07,010,27,14,18,050,30,17,29,298,32,19,23,223,28*78
51: $GPGSV,4,3,13,23,30,216,32,25,03,046,14,31,36,097,27,32,72,087,28*74
51: $GPGSV,4,4,13,33,17,229,28*4E
52: $GPGLL,5345.56025,N,02801.37383,E,143316.00,A,A*6F
52: $GPRMC,143317.00,A,5345.56002,N,02801.40055,E,57.044,90.81,241015,,,A*65
52: $GPVTG,90.81,T,,M,57.044,N,105.646,K,A*3F
52: $GPGGA,143317.00,5345.56002,N,02801.40055,E,1,11,0.88,190.7,M,24.7,M,,*58
52: $GPGSA,A,3,32,01,03,04,11,19,17,14,23,31,12,,1.58,0.88,1.32*02
52: $GPGSV,4,1,13,01,66,189,32,03,66,277,36,04,40,160,34,11,40,191,31*75
52: $GPGSV,4,2,13,12,07,010,28,14,18,050,30,17,29,298,32,19,23,223,28*77
52: $GPGSV,4,3,13,23,30,216,32,25,03,046,15,31,36,097,27,32,72,087,28*75
52: $GPGSV,4,4,13,33,17,229,28*4E
53: $GPGLL,5345.56002,N,02801.40055,E,143317.00,A,A*63
53: $GPRMC,143318.00,A,5345.55979,N,02801.42723,E,56.931,90.82,241015,,,A*61
53: $GPVTG,90.82,T,,M,56.931,N,105.437,K,A*32
53: $GPGGA,143318.00,5345.55979,N,02801.42723,E,1,11,0.88,190.3,M,24.7,M,,*51
53: $GPGSA,A,3,32,01,03,04,11,19,17,14,23,31,12,,1.58,0.88,1.32*02
53: $GPGSV,4,1,13,01,66,189,32,03,66,277,36,04,40,160,34,11,40,191,31*75
53: $GPGSV,4,2,13,12,07,010,28,14,18,050,30,17,29,298,31,19,23,223,29*75
53: $GPGSV,4,3,13,23,30,216,33,25,03,046,17,31,36,096,27,32,72,087,27*78
53: $GPGSV,4,4,13,33,17,229,32*45
53: $GPGLL,5345.55979,N,02801.42723,E,143318.00,A,A*6E
54: $GPRMC,143319.00,A,5345.55951,N,02801.45390,E,56.959,91.00,241015,,,A*64
54: $GPVTG,91.00,T,,M,56.959,N,105.488,K,A*33
54: $GPGGA,143319.00,5345.55951,N,02801.45390,E,1,11,0.88,189.9,M,24.7,M,,*53
54: $GPGSA,A,3,32,01,03,04,11,19,17,14,23,31,12,,1.58,0.88,1.32*02
54: $GPGSV,4,1,13,01,66,189,32,03,66,277,36,04,40,160,34,11,40,191,25*70
54: $GPGSV,4,2,13,12,07,010,29,14,18,050,30,17,29,298,32,19,23,223,28*76
54: $GPGSV,4,3,13,23,30,216,34,25,03,046,18,31,36,096,27,32,72,087,27*70
54: $GPGSV,4,4,13,33,17,229,31*46
54: $GPGLL,5345.55951,N,02801.45390,E,143319.00,A,A*6E
55: $GPRMC,143320.00,A,5345.55928,N,02801.48069,E,57.239,90.85,241015,,,A*68
55: $GPVTG,90.85,T,,M,57.239,N,106.007,K,A*33
55: $GPGGA,143320.00,5345.55928,N,02801.48069,E,1,11,0.88,189.6,M,24.7,M,,*50
55: $GPGSA,A,3,32,01,03,04,11,19,17,14,23,31,12,,1.58,0.88,1.32*02
55: $GPGSV,4,1,13,01,66,189,32,03,66,277,36,04,40,160,35,11,40,191,30*75
55: $GPGSV,4,2,13,12,07,010,29,14,18,050,31,17,29,298,32,19,23,223,27*78
55: $GPGSV,4,3,13,23,30,216,25,25,03,046,20,31,36,096,27,32,72,087,27*7B
55: $GPGSV,4,4,13,33,17,229,29*4F
55: $GPGLL,5345.55928,N,02801.48069,E,143320.00,A,A*62
55: $GPRMC,143321.00,A,5345.55901,N,02801.50750,E,57.361,91.02,241015,,,A*64
56: $GPVTG,91.02,T,,M,57.361,N,106.233,K,A*34
56: $GPGGA,143321.00,5345.55901,N,02801.50750,E,1,11,0.88,189.2,M,24.7,M,,*5A
56: $GPGSA,A,3,32,01,03,04,11,19,17,14,23,31,12,,1.58,0.88,1.32*02
56: $GPGSV,4,1,13,01,66,189,32,03,66,277,37,04,40,160,33,11,40,191,29*7A
56: $GPGSV,4,2,13,12,07,010,29,14,18,050,31,17,29,298,31,19,23,223,25*79
56: $GPGSV,4,3,13,23,30,216,27,25,03,046,19,31,36,096,27,32,72,087,27*73
56: $GPGSV,4,4,13,33,17,229,28*4E
56: $GPGLL,5345.55901,N,02801.50750,E,143321.00,A,A*6C
56: $GPRMC,143322.00,A,5345.55881,N,02801.53454,E,57.760,90.78,241015,,,A*63
56: $GPVTG,90.78,T,,M,57.760,N,106.972,K,A*33
57: $GPGGA,143322.00,5345.55881,N,02801.53454,E,1,11,0.88,189.1,M,24.7,M,,*57
57: $GPGSA,A,3,32,01,03,04,11,19,17,14,23,31,12,,1.58,0.88,1.32*02
57: $GPGSV,4,1,13,01,66,189,32,03,66,277,36,04,40,160,35,11,40,191,30*75
57: $GPGSV,4,2,13,12,07,010,27,14,18,050,31,17,29,298,32,19,23,223,26*77
57: $GPGSV,4,3,13,23,30,216,32,25,03,046,17,31,36,096,26,32,72,087,26*79
57: $GPGSV,4,4,13,33,17,229,28*4E
57: $GPGLL,5345.55881,N,02801.53454,E,143322.00,A,A*62
57: $GPRMC,143323.00,A,5345.55874,N,02801.56163,E,57.917,90.27,241015,,,A*68
57: $GPVTG,90.27,T,,M,57.917,N,107.263,K,A*3D
58: $GPGGA,143323.00,5345.55874,N,02801.56163,E,1,11,0.88,188.9,M,24.7,M,,*51
58: $GPGSA,A,3,32,01,03,04,11,19,17,14,23,31,12,,1.58,0.88,1.32*02
58: $GPGSV,4,1,13,01,66,189,33,03,66,277,36,04,40,160,31,11,40,191,30*70
58: $GPGSV,4,2,13,12,07,010,25,14,18,050,31,17,29,298,32,19,23,223,26*75
58: $GPGSV,4,3,13,23,30,216,32,25,03,046,17,31,36,096,26,32,72,087,26*79
58: $GPGSV,4,4,13,33,17,229,28*4E
58: $GPGLL,5345.55874,N,02801.56163,E,143323.00,A,A*6D
58: $GPRMC,143324.00,A,5345.55871,N,02801.58869,E,57.728,90.28,241015,,,A*6A
58: $GPVTG,90.28,T,,M,57.728,N,106.912,K,A*3C
59: $GPGGA,143324.00,5345.55871,N,02801.58869,E,1,11,0.88,188.8,M,24.7,M,,*5F
59: $GPGSA,A,3,32,01,03,04,11,19,17,14,23,31,12,,1.58,0.88,1.32*02
59: $GPGSV,4,1,13,01,66,189,32,03,66,277,36,04,40,160,33,11,40,191,28*7A
59: $GPGSV,4,2,13,12,07,010,23,14,18,050,31,17,29,298,33,19,23,223,26*72
59: $GPGSV,4,3,13,23,30,216,27,25,03,046,17,31,36,096,25,32,72,087,26*7E
59: $GPGSV,4,4,13,33,17,229,28*4E
59: $GPGLL,5345.55871,N,02801.58869,E,143324.00,A,A*62
59: $GPRMC,143325.00,A,5345.55858,N,02801.61568,E,57.603,90.63,241015,,,A*61
59: $GPVTG,90.63,T,,M,57.603,N,106.682,K,A*3D
60: $GPGGA,143325.00,5345.55858,N,02801.61568,E,1,11,0.88,188.8,M,24.7,M,,*53
60: $GPGSA,A,3,32,01,03,04,11,19,17,14,23,31,12,,1.58,0.88,1.32*02
60: $GPGSV,4,1,13,01,66,189,32,03,66,277,36,04,40,160,34,11,40,191,29*7C
60: $GPGSV,4,2,13,12,07,010,24,14,18,050,31,17,29,298,31,19,23,223,25*74
60: $GPGSV,4,3,13,23,30,216,32,25,03,046,18,31,36,096,25,32,72,087,26*75
60: $GPGSV,4,4,13,33,17,229,27*41
60: $GPGLL,5345.55858,N,02801.61568,E,143325.00,A,A*6E
60: $GPRMC,143326.00,A,5345.55831,N,02801.64241,E,57.129,90.89,241015,,,A*6F
60: $GPVTG,90.89,T,,M,57.129,N,105.803,K,A*32
60: $GPGGA,143326.00,5345.55831,N,02801.64241,E,1,11,0.88,188.7,M,24.7,M,,*59
61: $GPGSA,A,3,32,01,03,04,11,19,17,14,23,31,12,,1.58,0.88,1.32*02
61: $GPGSV,4,1,13,01,66,189,33,03,66,277,36,04,40,160,31,11,40,191,30*70
61: $GPGSV,4,2,13,12,07,010,30,14,18,050,32,17,29,298,31,19,23,223,27*70
61: $GPGSV,4,3,13,23,30,216,31,25,03,046,18,31,36,096,26,32,72,087,27*74
61: $GPGSV,4,4,13,33,17,229,27*41
61: $GPGLL,5345.55831,N,02801.64241,E,143326.00,A,A*6B
61: $GPRMC,143327.00,A,5345.55806,N,02801.66867,E,56.084,90.85,241015,,,A*6D
61: $GPVTG,90.85,T,,M,56.084,N,103.868,K,A*32
61: $GPGGA,143327.00,5345.55806,N,02801.66867,E,1,11,0.88,188.3,M,24.7,M,,*54
61: $GPGSA,A,3,32,01,03,04,11,19,17,14,23,31,12,,1.58,0.88,1.32*02
62: $GPGSV,3,1,12,01,66,189,33,03,66,277,36,04,40,160,34,11,40,191,29*7B
62: $GPGSV,3,2,12,12,07,010,29,14,18,050,31,17,29,298,32,19,23,223,28*71
62: $GPGSV,3,3,12,23,30,216,26,25,03,046,19,31,36,096,26,32,72,087,27*75
62: $GPGLL,5345.55806,N,02801.66867,E,143327.00,A,A*62
62: $GPRMC,143328.00,A,5345.55803,N,02801.69468,E,55.226,90.18,241015,,,A*66
62: $GPVTG,90.18,T,,M,55.226,N,102.279,K,A*34
62: $GPGGA,143328.00,5345.55803,N,02801.69468,E,1,11,0.88,188.5,M,24.7,M,,*54
62: $GPGSA,A,3,32,01,03,04,11,19,17,14,23,31,12,,1.58,0.88,1.32*02
62: $GPGSV,3,1,12,01,66,189,33,03,66,277,36,04,40,160,33,11,40,191,29*7C
63: $GPGSV,3,2,12,12,07,010,27,14,18,050,31,17,29,298,33,19,23,223,26*70
63: $GPGSV,3,3,12,23,30,216,28,25,03,046,19,31,36,096,26,32,72,087,27*7B
63: $GPGLL,5345.55803,N,02801.69468,E,143328.00,A,A*64
63: $GPRMC,143329.00,A,5345.55812,N,02801.72007,E,54.052,89.33,241015,,,A*61
63: $GPVTG,89.33,T,,M,54.052,N,100.104,K,A*3E
63: $GPGGA,143329.00,5345.55812,N,02801.72007,E,1,11,0.88,188.4,M,24.7,M,,*53
63: $GPGSA,A,3,32,01,03,04,11,19,17,14,23,31,12,,1.58,0.88,1.32*02
63: $GPGSV,3,1,12,01,66,189,32,03,66,277,36,04,40,160,33,11,40,191,30*75
64: $GPGSV,3,2,12,12,07,010,25,14,18,050,32,17,29,298,35,19,23,223,27*76
64: $GPGSV,3,3,12,23,30,216,33,25,03,046,18,31,36,096,26,32,72,087,27*70
64: $GPGLL,5345.55812,N,02801.72007,E,143329.00,A,A*62
64: $GPRMC,143330.00,A,5345.55852,N,02801.74505,E,53.006,88.17,241015,,,A*6D
64: $GPVTG,88.17,T,,M,53.006,N,98.167,K,A*0A
64: $GPGGA,143330.00,5345.55852,N,02801.74505,E,1,11,0.88,188.3,M,24.7,M,,*59
64: $GPGSA,A,3,32,01,03,04,11,19,17,14,23,31,12,,1.58,0.88,1.32*02
64: $GPGSV,3,1,12,01,66,189,31,03,66,277,36,04,40,160,32,11,40,191,30*77
64: $GPGSV,3,2,12,12,07,010,23,14,18,050,31,17,29,298,37,19,23,223,26*70
65: $GPGSV,3,3,12,23,30,216,32,25,03,046,18,31,36,096,27,32,72,087,27*70
65: $GPGLL,5345.55852,N,02801.74505,E,143330.00,A,A*6F
65: $GPRMC,143331.00,A,5345.55911,N,02801.76959,E,51.986,87.48,241015,,,A*6B
65: $GPVTG,87.48,T,,M,51.986,N,96.278,K,A*0F
65: $GPGGA,143331.00,5345.55911,N,02801.76959,E,1,11,0.88,188.3,M,24.7,M,,*59
65: $GPGSA,A,3,32,01,03,04,11,19,17,14,23,31,12,,1.58,0.88,1.32*02
65: $GPGSV,3,1,12,01,66,189,31,03,66,277,36,04,40,160,33,11,40,191,30*76
65: $GPGSV,3,2,12,12,07,010,23,14,18,050,31,17,29,298,38,19,23,223,26*7F
66: $GPGSV,3,3,12,23,30,216,33,25,03,046,17,31,36,096,28,32,72,087,27*71
66: $GPGLL,5345.55911,N,02801.76959,E,143331.00,A,A*6F
66: $GPRMC,143332.00,A,5345.55978,N,02801.79362,E,50.675,87.22,241015,,,A*64
66: $GPVTG,87.22,T,,M,50.675,N,93.851,K,A*05
66: $GPGGA,143332.00,5345.55978,N,02801.79362,E,1,11,0.88,188.4,M,24.7,M,,*5F
66: $GPGSA,A,3,32,01,03,04,11,19,17,14,23,31,12,,1.58,0.88,1.32*02
66: $GPGSV,3,1,12,01,66,189,30,03,66,277,36,04,40,160,33,11,40,191,30*77
66: $GPGSV,3,2,12,12,07,010,24,14,18,050,30,17,29,298,38,19,23,223,27*78
67: $GPGSV,3,3,12,23,30,216,33,25,03,046,17,31,36,096,28,32,72,087,27*71
67: $GPGLL,5345.55978,N,02801.79362,E,143332.00,A,A*6E
67: $GPRMC,143333.00,A,5345.56044,N,02801.81680,E,48.703,86.90,241015,,,A*6F
67: $GPVTG,86.90,T,,M,48.703,N,90.198,K,A*0B
67: $GPGGA,143333.00,5345.56044,N,02801.81680,E,1,11,0.88,188.3,M,24.7,M,,*52
67: $GPGSA,A,3,32,01,03,04,11,19,17,14,23,31,12,,1.58,0.88,1.32*02
67: $GPGSV,3,1,12,01,66,189,30,03,66,277,36,04,40,160,33,11,40,191,29*7F
67: $GPGSV,3,2,12,12,07,010,23,14,18,050,29,17,29,298,39,19,23,223,28*79
67: $GPGSV,3,3,12,23,30,216,33,25,03,046,17,31,36,096,29,32,72,087,27*70
68: $GPGLL,5345.56044,N,02801.81680,E,143333.00,A,A*64
68: $GPRMC,143334.00,A,5345.56120,N,02801.83948,E,47.814,86.42,241015,,,A*6B
68: $GPVTG,86.42,T,,M,47.814,N,88.552,K,A*09
68: $GPGGA,143334.00,5345.56120,N,02801.83948,E,1,11,0.88,188.5,M,24.7,M,,*59
68: $GPGSA,A,3,32,01,03,04,11,19,17,14,23,31,12,,1.58,0.88,1.32*02
68: $GPGSV,3,1,12,01,66,189,30,03,66,277,36,04,40,160,33,11,40,191,29*7F
68: $GPGSV,3,2,12,12,07,010,25,14,18,050,29,17,29,298,39,19,23,223,33*75
68: $GPGSV,3,3,12,23,30,216,34,25,03,046,17,31,36,096,33,32,72,087,27*7C
68: $GPGLL,5345.56120,N,02801.83948,E,143334.00,A,A*69
69: $GPRMC,143335.00,A,5345.56214,N,02801.86168,E,46.954,85.52,241015,,,A*67
69: $GPVTG,85.52,T,,M,46.954,N,86.958,K,A*07
69: $GPGGA,143335.00,5345.56214,N,02801.86168,E,1,11,0.88,188.8,M,24.7,M,,*5E
69: $GPGSA,A,3,32,01,03,04,11,19,17,14,23,31,12,,1.58,0.88,1.32*02
69: $GPGSV,3,1,12,01,66,189,22,03,66,277,36,04,40,160,33,11,40,191,30*74
69: $GPGSV,3,2,12,12,07,010,26,14,18,050,28,17,29,298,39,19,23,223,35*71
69: $GPGSV,3,3,12,23,30,216,34,25,03,046,17,31,36,096,33,32,72,087,27*7C
69: $GPGLL,5345.56214,N,02801.86168,E,143335.00,A,A*63
69: $GPRMC,143336.00,A,5345.56318,N,02801.88354,E,46.378,85.22,241015,,,A*69
70: $GPVTG,85.22,T,,M,46.378,N,85.891,K,A*03
70: $GPGGA,143336.00,5345.56318,N,02801.88354,E,1,11,0.88,189.1,M,24.7,M,,*5B
70: $GPGSA,A,3,32,01,03,04,11,19,17,14,23,31,12,,1.58,0.88,1.32*02
70: $GPGSV,3,1,12,01,66,189,24,03,66,277,36,04,40,160,33,11,40,191,30*72
70: $GPGSV,3,2,12,12,07,010,27,14,18,050,27,17,29,298,39,19,23,223,36*7C
70: $GPGSV,3,3,12,23,30,216,35,25,03,046,17,31,36,096,33,32,72,087,27*7D
70: $GPGLL,5345.56318,N,02801.88354,E,143336.00,A,A*6E
70: $GPRMC,143337.00,A,5345.56425,N,02801.90523,E,46.277,85.10,241015,,,A*61
71: $GPVTG,85.10,T,,M,46.277,N,85.705,K,A*0E
71: $GPGGA,143337.00,5345.56425,N,02801.90523,E,1,11,0.88,189.5,M,24.7,M,,*58
71: $GPGSA,A,3,32,01,03,04,11,19,17,14,23,31,12,,1.58,0.88,1.32*02
71: $GPGSV,3,1,12,01,66,189,25,03,66,277,36,04,40,160,33,11,40,191,30*73
71: $GPGSV,3,2,12,12,07,010,28,14,18,050,26,17,29,298,40,19,23,223,35*7F
71: $GPGSV,3,3,12,23,30,216,35,25,03,046,22,31,36,096,33,32,72,087,27*7B
71: $GPGLL,5345.56425,N,02801.90523,E,143337.00,A,A*69
71: $GPRMC,143338.00,A,5345.56530,N,02801.92686,E,46.220,85.09,241015,,,A*6F
71: $GPVTG,85.09,T,,M,46.220,N,85.599,K,A*03
72: $GPGGA,143338.00,5345.56530,N,02801.92686,E,1,11,0.88,189.8,M,24.7,M,,*51
72: $GPGSA,A,3,32,01,03,04,11,19,17,14,23,31,12,,1.67,0.88,1.42*09
72: $GPGSV,3,1,12,01,66,189,26,03,66,277,36,04,40,160,33,11,40,191,30*70
72: $GPGSV,3,2,12,12,07,010,28,14,18,050,26,17,29,298,40,19,23,223,32*78
72: $GPGSV,3,3,12,23,30,216,34,25,03,046,25,31,36,096,33,32,72,087,27*7D
72: $GPGLL,5345.56530,N,02801.92686,E,143338.00,A,A*6D
72: $GPRMC,143339.00,A,5345.56643,N,02801.94852,E,46.351,84.83,241015,,,A*6C
72: $GPVTG,84.83,T,,M,46.351,N,85.843,K,A*0D
73: $GPGGA,143339.00,5345.56643,N,02801.94852,E,1,11,0.88,190.1,M,24.7,M,,*57
73: $GPGSA,A,3,32,01,03,04,11,19,17,14,23,31,12,,1.67,0.88,1.42*09
73: $GPGSV,3,1,12,01,66,189,26,03,66,277,36,04,40,160,32,11,40,191,31*70
73: $GPGSV,3,2,12,12,07,010,28,14,18,050,27,17,29,298,40,19,23,223,36*7D
73: $GPGSV,3,3,12,23,30,216,35,25,03,046,25,31,36,096,32,32,72,087,27*7D
73: $GPGLL,5345.56643,N,02801.94852,E,143339.00,A,A*6A
73: $GPRMC,143340.00,A,5345.56762,N,02801.97019,E,46.362,84.40,241015,,,A*6B
73: $GPVTG,84.40,T,,M,46.362,N,85.862,K,A*01
73: $GPGGA,143340.00,5345.56762,N,02801.97019,E,1,11,0.88,190.3,M,24.7,M,,*5D
74: $GPGSA,A,3,32,01,03,04,11,19,17,14,23,31,12,,1.67,0.88,1.42*09
74: $GPGSV,3,1,12,01,66,189,25,03,66,277,36,04,40,160,32,11,40,191,31*73
74: $GPGSV,3,2,12,12,07,010,30,14,18,050,27,17,29,298,40,19,23,223,36*74
74: $GPGSV,3,3,12,23,30,216,36,25,03,046,25,31,36,096,33,32,72,087,27*7F
74: $GPGLL,5345.56762,N,02801.97019,E,143340.00,A,A*62
74: $GPRMC,143341.00,A,5345.56907,N,02801.99204,E,46.716,83.22,241015,,,A*63
74: $GPVTG,83.22,T,,M,46.716,N,86.517,K,A*09
74: $GPGGA,143341.00,5345.56907,N,02801.99204,E,1,11,0.88,190.6,M,24.7,M,,*54
74: $GPGSA,A,3,32,01,03,04,11,19,17,14,23,31,12,,1.67,0.88,1.42*09
75: $GPGSV,3,1,12,01,66,189,23,03,66,277,36,04,40,160,29,11,40,191,31*7F
75: $GPGSV,3,2,12,12,07,010,32,14,18,050,26,17,29,298,41,19,23,223,39*79
75: $GPGSV,3,3,12,23,30,216,37,25,03,046,25,31,36,096,33,32,72,087,27*7E
75: $GPGLL,5345.56907,N,02801.99204,E,143341.00,A,A*6E
75: $GPRMC,143342.00,A,5345.57069,N,02802.01406,E,47.563,82.49,241015,,,A*6B
75: $GPVTG,82.49,T,,M,47.563,N,88.087,K,A*06
75: $GPGGA,143342.00,5345.57069,N,02802.01406,E,1,11,0.88,190.9,M,24.7,M,,*5E
75: $GPGSA,A,3,32,01,03,04,11,19,17,14,23,31,12,,1.58,0.88,1.32*02
76: $GPGSV,3,1,12,01,66,189,20,03,66,277,36,04,40,160,28,11,40,191,33*7F
76: $GPGSV,3,2,12,12,07,010,32,14,18,050,25,17,29,298,41,19,23,223,40*74
76: $GPGSV,3,3,12,23,30,216,38,25,03,046,26,31,36,096,33,32,72,087,28*7D
76: $GPGLL,5345.57069,N,02802.01406,E,143342.00,A,A*6B
76: $GPRMC,143343.00,A,5345.57238,N,02802.03644,E,48.416,82.48,241015,,,A*67
76: $GPVTG,82.48,T,,M,48.416,N,89.666,K,A*03
76: $GPGGA,143343.00,5345.57238,N,02802.03644,E,1,10,0.88,191.3,M,24.7,M,,*55
76: $GPGSA,A,3,32,03,04,11,19,17,14,23,31,12,,,1.67,0.88,1.42*08
76: $GPGSV,3,1,12,01,66,189,,03,66,277,37,04,40,160,26,11,40,191,33*72
77: $GPGSV,3,2,12,12,07,010,32,14,18,050,25,17,29,298,41,19,23,223,40*74
77: $GPGSV,3,3,12,23,30,216,38,25,03,046,26,31,36,096,35,32,72,087,28*7B
77: $GPGLL,5345.57238,N,02802.03644,E,143343.00,A,A*6A
77: $GPRMC,143344.00,A,5345.57414,N,02802.05923,E,49.181,82.57,241015,,,A*64
77: $GPVTG,82.57,T,,M,49.181,N,91.082,K,A*02
77: $GPGGA,143344.00,5345.57414,N,02802.05923,E,1,11,0.88,191.7,M,24.7,M,,*57
77: $GPGSA,A,3,32,01,03,04,11,19,17,14,23,31,12,,1.67,0.88,1.42*09
77: $GPGSV,3,1,12,01,66,189,23,03,66,277,37,04,40,160,26,11,40,191,33*73
77: $GPGSV,3,2,12,12,07,010,32,14,18,050,22,17,29,298,41,19,23,223,40*73
78: $GPGSV,3,3,12,23,30,216,37,25,03,046,28,31,36,096,33,32,72,087,28*7C
78: $GPGLL,5345.57414,N,02802.05923,E,143344.00,A,A*6D
78: $GPRMC,143345.00,A,5345.57587,N,02802.08236,E,49.788,82.80,241015,,,A*69
78: $GPVTG,82.80,T,,M,49.788,N,92.207,K,A*0B
78: $GPGGA,143345.00,5345.57587,N,02802.08236,E,1,11,0.88,192.0,M,24.7,M,,*5B
78: $GPGSA,A,3,32,01,03,04,11,19,17,14,23,31,12,,1.67,0.88,1.42*09
78: $GPGSV,3,1,12,01,66,189,20,03,66,277,37,04,40,160,26,11,40,191,33*70
78: $GPGSV,3,2,12,12,07,010,33,14,18,050,22,17,29,298,41,19,23,223,40*72
79: $GPGSV,3,3,12,23,30,216,38,25,03,046,30,31,36,096,34,32,72,087,28*7D
79: $GPGLL,5345.57587,N,02802.08236,E,143345.00,A,A*65
79: $GPRMC,143346.00,A,5345.57758,N,02802.10581,E,50.471,83.01,241015,,,A*6D
79: $GPVTG,83.01,T,,M,50.471,N,93.473,K,A*0A
79: $GPGGA,143346.00,5345.57758,N,02802.10581,E,1,10,0.88,192.2,M,24.7,M,,*59
79: $GPGSA,A,3,32,03,04,11,19,17,14,23,31,12,,,1.67,0.88,1.42*08
79: $GPGSV,3,1,12,01,66,189,,03,66,277,37,04,40,160,26,11,40,191,33*72
79: $GPGSV,3,2,12,12,07,010,32,14,18,050,22,17,29,298,41,19,23,223,39*7D
79: $GPGSV,3,3,12,23,30,216,38,25,03,046,31,31,36,096,34,32,72,087,28*7C
80: $GPGLL,5345.57758,N,02802.10581,E,143346.00,A,A*64
80: $GPRMC,143347.00,A,5345.57932,N,02802.12961,E,51.294,82.98,241015,,,A*63
80: $GPVTG,82.98,T,,M,51.294,N,94.997,K,A*07
80: $GPGGA,143347.00,5345.57932,N,02802.12961,E,1,10,0.88,192.3,M,24.7,M,,*5B
80: $GPGSA,A,3,32,03,04,11,19,17,14,23,31,12,,,1.67,0.88,1.42*08
80: $GPGSV,3,1,12,01,66,189,,03,66,277,37,04,40,160,27,11,40,191,32*72
80: $GPGSV,3,2,12,12,07,010,31,14,18,050,23,17,29,298,41,19,23,223,40*71
80: $GPGSV,3,3,12,23,30,216,37,25,03,046,30,31,36,096,34,32,72,087,28*72
81: $GPGLL,5345.57932,N,02802.12961,E,143347.00,A,A*67
81: $GPRMC,143348.00,A,5345.58110,N,02802.15369,E,51.978,82.69,241015,,,A*69
81: $GPVTG,82.69,T,,M,51.978,N,96.264,K,A*05
81: $GPGGA,143348.00,5345.58110,N,02802.15369,E,1,10,0.88,192.5,M,24.7,M,,*50
81: $GPGSA,A,3,32,03,04,11,19,17,14,23,31,12,,,1.67,0.88,1.42*08
81: $GPGSV,3,1,12,01,66,189,,03,66,277,37,04,40,160,27,11,40,191,32*72
81: $GPGSV,3,2,12,12,07,010,31,14,18,050,23,17,29,298,41,19,23,223,40*71
81: $GPGSV,3,3,12,23,30,216,38,25,03,046,30,31,36,096,34,32,72,087,29*7C
82: $GPGLL,5345.58110,N,02802.15369,E,143348.00,A,A*6A
82: $GPRMC,143349.00,A,5345.58299,N,02802.17807,E,52.592,82.46,241015,,,A*6D
82: $GPVTG,82.46,T,,M,52.592,N,97.400,K,A*06
82: $GPGGA,143349.00,5345.58299,N,02802.17807,E,1,10,0.88,192.7,M,24.7,M,,*50
82: $GPGSA,A,3,32,03,04,11,19,17,14,23,31,12,,,1.67,0.88,1.42*08
82: $GPGSV,3,1,12,01,66,189,,03,66,277,37,04,40,160,26,11,40,191,32*73
82: $GPGSV,3,2,12,12,07,010,32,14,18,050,22,17,29,298,41,19,23,223,40*73
82: $GPGSV,3,3,12,23,30,216,38,25,03,046,31,31,36,096,33,32,72,087,29*7A
83: $GPGLL,5345.58299,N,02802.17807,E,143349.00,A,A*68
83: $GPRMC,143350.00,A,5345.58491,N,02802.20272,E,53.152,82.45,241015,,,A*6D
83: $GPVTG,82.45,T,,M,53.152,N,98.438,K,A*08
83: $GPGGA,143350.00,5345.58491,N,02802.20272,E,1,10,0.88,192.9,M,24.7,M,,*54
83: $GPGSA,A,3,32,03,04,11,19,17,14,23,31,12,,,1.67,0.88,1.42*08
83: $GPGSV,3,1,12,01,66,189,,03,66,277,36,04,40,160,25,11,40,191,33*70
83: $GPGSV,3,2,12,12,07,010,31,14,18,050,21,17,29,298,41,19,23,223,40*73
83: $GPGSV,3,3,12,23,30,216,38,25,03,046,31,31,36,096,33,32,72,087,29*7A
84: $GPGLL,5345.58491,N,02802.20272,E,143350.00,A,A*62
84: $GPRMC,143351.00,A,5345.58683,N,02802.22769,E,53.841,82.62,241015,,,A*6E
84: $GPVTG,82.62,T,,M,53.841,N,99.713,K,A*0D
84: $GPGGA,143351.00,5345.58683,N,02802.22769,E,1,10,0.88,193.2,M,24.7,M,,*53
84: $GPGSA,A,3,32,03,04,11,19,17,14,23,31,12,,,1.67,0.88,1.42*08
84: $GPGSV,3,1,12,01,66,189,,03,66,277,37,04,40,160,25,11,40,191,33*71
84: $GPGSV,3,2,12,12,07,010,31,14,18,050,21,17,29,298,41,19,23,223,40*73
84: $GPGSV,3,3,12,23,30,216,37,25,03,046,31,31,36,096,34,32,72,087,28*73
84: $GPGLL,5345.58683,N,02802.22769,E,143351.00,A,A*6F
85: $GPRMC,143352.00,A,5345.58872,N,02802.25290,E,54.314,82.82,241015,,,A*6B
85: $GPVTG,82.82,T,,M,54.314,N,100.589,K,A*3F
85: $GPGGA,143352.00,5345.58872,N,02802.25290,E,1,10,0.88,193.6,M,24.7,M,,*50
85: $GPGSA,A,3,32,03,04,11,19,17,14,23,31,12,,,1.67,0.88,1.42*08
85: $GPGSV,3,1,12,01,66,189,,03,66,277,37,04,40,160,26,11,40,191,33*72
85: $GPGSV,3,2,12,12,07,010,30,14,18,050,22,17,29,298,41,19,23,223,40*71
85: $GPGSV,3,3,12,23,30,216,37,25,03,046,31,31,36,096,34,32,72,087,28*73
85: $GPGLL,5345.58872,N,02802.25290,E,143352.00,A,A*68
85: $GPRMC,143353.00,A,5345.59059,N,02802.27824,E,54.594,82.86,241015,,,A*67
86: $GPVTG,82.86,T,,M,54.594,N,101.108,K,A*39
86: $GPGGA,143353.00,5345.59059,N,02802.27824,E,1,10,0.88,194.0,M,24.7,M,,*57
86: $GPGSA,A,3,32,03,04,11,19,17,14,23,31,12,,,1.67,0.88,1.42*08
86: $GPGSV,3,1,12,01,66,189,,03,66,277,38,04,40,160,27,11,40,191,33*7C
86: $GPGSV,3,2,12,12,07,010,31,14,18,050,23,17,29,298,41,19,23,223,40*71
86: $GPGSV,3,3,12,23,30,216,37,25,03,046,31,31,36,096,34,32,72,087,29*72
86: $GPGLL,5345.59059,N,02802.27824,E,143353.00,A,A*6E
86: $GPRMC,143354.00,A,5345.59247,N,02802.30366,E,54.593,82.83,241015,,,A*64
87: $GPVTG,82.83,T,,M,54.593,N,101.107,K,A*34
87: $GPGGA,143354.00,5345.59247,N,02802.30366,E,1,11,0.88,194.4,M,24.7,M,,*53
87: $GPGSA,A,3,32,01,03,04,11,19,17,14,23,31,12,,1.67,0.88,1.42*09
87: $GPGSV,3,1,12,01,66,189,23,03,66,277,38,04,40,160,28,11,40,191,33*72
87: $GPGSV,3,2,12,12,07,010,32,14,18,050,24,17,29,298,41,19,23,223,40*75
87: $GPGSV,3,3,12,23,30,216,37,25,03,046,32,31,36,096,34,32,72,087,29*71
87: $GPGLL,5345.59247,N,02802.30366,E,143354.00,A,A*6F
87: $GPRMC,143355.00,A,5345.59435,N,02802.32906,E,54.596,82.79,241015,,,A*68
88: $GPVTG,82.79,T,,M,54.596,N,101.113,K,A*31
88: $GPGGA,143355.00,5345.59435,N,02802.32906,E,1,11,0.88,194.8,M,24.7,M,,*53
88: $GPGSA,A,3,32,01,03,04,11,19,17,14,23,31,12,,1.67,0.88,1.42*09
88: $GPGSV,3,1,12,01,66,189,24,03,66,277,38,04,40,160,30,11,40,191,32*7D
88: $GPGSV,3,2,12,12,07,010,32,14,18,050,25,17,29,298,42,19,23,223,40*77
88: $GPGSV,3,3,12,23,30,216,37,25,03,046,32,31,36,096,33,32,72,087,30*7E
88: $GPGLL,5345.59435,N,02802.32906,E,143355.00,A,A*63
88: $GPRMC,143356.00,A,5345.59628,N,02802.35444,E,54.539,82.58,241015,,,A*6F
88: $GPVTG,82.58,T,,M,54.539,N,101.006,K,A*32
89: $GPGGA,143356.00,5345.59628,N,02802.35444,E,1,11,0.88,195.4,M,24.7,M,,*5F
89: $GPGSA,A,3,32,01,03,04,11,19,17,14,23,31,12,,1.67,0.88,1.42*09
89: $GPGSV,3,1,12,01,66,189,26,03,66,277,38,04,40,160,30,11,40,191,32*7F
89: $GPGSV,3,2,12,12,07,010,31,14,18,050,24,17,29,298,42,19,23,223,40*75
89: $GPGSV,3,3,12,23,30,216,37,25,03,046,32,31,36,096,33,32,72,087,30*7E
89: $GPGLL,5345.59628,N,02802.35444,E,143356.00,A,A*62
89: $GPRMC,143357.00,A,5345.59823,N,02802.37974,E,54.440,82.50,241015,,,A*60
89: $GPVTG,82.50,T,,M,54.440,N,100.822,K,A*3A
90: $GPGGA,143357.00,5345.59823,N,02802.37974,E,1,11,0.88,196.1,M,24.7,M,,*51
90: $GPGSA,A,3,32,01,03,04,11,19,17,14,23,31,12,,1.67,0.88,1.42*09
90: $GPGSV,3,1,12,01,66,189,27,03,66,277,38,04,40,160,31,11,40,191,32*7F
90: $GPGSV,3,2,12,12,07,010,30,14,18,050,25,17,29,298,42,19,23,223,40*75
90: $GPGSV,3,3,12,23,30,216,37,25,03,046,33,31,36,096,32,32,72,087,30*7E
90: $GPGLL,5345.59823,N,02802.37974,E,143357.00,A,A*6A
90: $GPRMC,143358.00,A,5345.60017,N,02802.40502,E,54.332,82.62,241015,,,A*64
90: $GPVTG,82.62,T,,M,54.332,N,100.623,K,A*36
90: $GPGGA,143358.00,5345.60017,N,02802.40502,E,1,11,0.88,196.8,M,24.7,M,,*5F
91: $GPGSA,A,3,32,01,03,04,11,19,17,14,23,31,12,,1.67,0.88,1.42*09
91: $GPGSV,3,1,12,01,66,189,29,03,66,277,38,04,40,160,32,11,40,191,32*72
91: $GPGSV,3,2,12,12,07,010,29,14,18,050,25,17,29,298,42,19,23,223,40*7D
91: $GPGSV,3,3,12,23,30,216,37,25,03,046,29,31,36,096,32,32,72,087,31*74
91: $GPGLL,5345.60017,N,02802.40502,E,143358.00,A,A*6D
91: $GPRMC,143359.00,A,5345.60209,N,02802.43024,E,54.268,82.70,241015,,,A*67
91: $GPVTG,82.70,T,,M,54.268,N,100.504,K,A*3D
91: $GPGGA,143359.00,5345.60209,N,02802.43024,E,1,11,0.88,197.5,M,24.7,M,,*5D
91: $GPGSA,A,3,32,01,03,04,11,19,17,14,23,31,12,,1.67,0.88,1.42*09
92: $GPGSV,3,1,12,01,65,189,30,03,66,277,38,04,40,160,32,11,40,191,32*79
92: $GPGSV,3,2,12,12,07,010,29,14,18,050,26,17,29,298,42,19,23,223,40*7E
92: $GPGSV,3,3,12,23,30,216,37,25,03,046,31,31,36,096,32,32,72,087,31*7D
92: $GPGLL,5345.60209,N,02802.43024,E,143359.00,A,A*63
92: $GPRMC,143400.00,A,5345.60400,N,02802.45547,E,54.288,82.70,241015,,,A*6B
92: $GPVTG,82.70,T,,M,54.288,N,100.541,K,A*32
92: $GPGGA,143400.00,5345.60400,N,02802.45547,E,1,11,0.88,198.2,M,24.7,M,,*57
92: $GPGSA,A,3,32,01,03,04,11,19,17,14,23,31,12,,1.67,0.88,1.42*09
93: $GPGSV,3,1,12,01,65,189,31,03,66,277,38,04,40,160,32,11,40,191,31*7B
93: $GPGSV,3,2,12,12,07,010,30,14,18,050,27,17,29,298,42,19,23,223,40*77
93: $GPGSV,3,3,12,23,30,216,37,25,03,046,32,31,36,096,31,32,72,087,31*7D
93: $GPGLL,5345.60400,N,02802.45547,E,143400.00,A,A*61
93: $GPRMC,143401.00,A,5345.60590,N,02802.48066,E,54.248,82.69,241015,,,A*6D
93: $GPVTG,82.69,T,,M,54.248,N,100.468,K,A*3C
93: $GPGGA,143401.00,5345.60590,N,02802.48066,E,1,11,0.88,198.8,M,24.7,M,,*5F
93: $GPGSA,A,3,32,01,03,04,11,19,17,14,23,31,12,,1.58,0.88,1.32*02
94: $GPGSV,3,1,12,01,65,189,31,03,66,277,38,04,40,160,32,11,40,191,31*7B
94: $GPGSV,3,2,12,12,07,010,31,14,18,050,26,17,29,298,42,19,23,223,40*77
94: $GPGSV,3,3,12,23,30,216,36,25,03,046,32,31,36,096,31,32,72,087,31*7C
94: $GPGLL,5345.60590,N,02802.48066,E,143401.00,A,A*63
94: $GPRMC,143402.00,A,5345.60784,N,02802.50581,E,54.050,82.48,241015,,,A*64
94: $GPVTG,82.48,T,,M,54.050,N,100.100,K,A*3F
94: $GPGGA,143402.00,5345.60784,N,02802.50581,E,1,11,0.88,199.5,M,24.7,M,,*52
94: $GPGSA,A,3,32,01,03,04,11,19,17,14,23,31,12,,1.67,0.88,1.42*09
94: $GPGSV,3,1,12,01,65,189,30,03,66,277,38,04,40,160,32,11,40,191,31*7A
95: $GPGSV,3,2,12,12,07,010,31,14,18,050,27,17,29,298,42,19,23,223,40*76
95: $GPGSV,3,3,12,23,30,216,37,25,03,046,33,31,36,096,31,32,72,087,31*7C
95: $GPGLL,5345.60784,N,02802.50581,E,143402.00,A,A*62
95: $GPRMC,143403.00,A,5345.60983,N,02802.53089,E,53.961,82.33,241015,,,A*62
95: $GPVTG,82.33,T,,M,53.961,N,99.936,K,A*03
95: $GPGGA,143403.00,5345.60983,N,02802.53089,E,1,11,0.88,199.9,M,24.7,M,,*58
95: $GPGSA,A,3,32,01,03,04,11,19,17,14,23,31,12,,1.58,0.88,1.32*02
95: $GPGSV,3,1,12,01,65,189,30,03,66,277,38,04,40,160,31,11,40,191,32*7A
96: $GPGSV,3,2,12,12,07,010,30,14,18,050,26,17,29,298,42,19,23,223,40*76
96: $GPGSV,3,3,12,23,30,216,37,25,03,046,33,31,36,096,32,32,72,087,31*7F
96: $GPGLL,5345.60983,N,02802.53089,E,143403.00,A,A*64
96: $GPRMC,143404.00,A,5345.61179,N,02802.55594,E,53.926,82.50,241015,,,A*60
96: $GPVTG,82.50,T,,M,53.926,N,99.871,K,A*07
96: $GPGGA,143404.00,5345.61179,N,02802.55594,E,1,11,0.88,200.4,M,24.7,M,,*52
96: $GPGSA,A,3,32,01,03,04,11,19,17,14,23,31,12,,1.58,0.88,1.32*02
96: $GPGSV,3,1,12,01,65,189,30,03,66,277,38,04,40,160,31,11,40,191,32*7A
96: $GPGSV,3,2,12,12,07,010,29,14,18,050,25,17,29,298,42,19,23,223,40*7D
97: $GPGSV,3,3,12,23,30,216,37,25,03,046,32,31,36,096,30,32,72,087,31*7C
97: $GPGLL,5345.61179,N,02802.55594,E,143404.00,A,A*60
97: $GPRMC,143405.00,A,5345.61368,N,02802.58101,E,53.946,82.82,241015,,,A*6F
97: $GPVTG,82.82,T,,M,53.946,N,99.907,K,A*0E
97: $GPGGA,143405.00,5345.61368,N,02802.58101,E,1,11,0.88,200.9,M,24.7,M,,*59
97: $GPGSA,A,3,32,01,03,04,11,19,17,14,23,31,12,,1.58,0.88,1.32*02
97: $GPGSV,3,1,12,01,65,189,30,03,66,277,38,04,40,160,32,11,40,191,32*79
97: $GPGSV,3,2,12,12,07,010,28,14,18,050,25,17,29,298,41,19,23,223,40*7F
98: $GPGSV,3,3,12,23,30,216,37,25,03,046,32,31,36,096,30,32,72,087,30*7D
98: $GPGLL,5345.61368,N,02802.58101,E,143405.00,A,A*66
98: $GPRMC,143406.00,A,5345.61550,N,02802.60602,E,53.711,83.00,241015,,,A*69
98: $GPVTG,83.00,T,,M,53.711,N,99.473,K,A*07
98: $GPGGA,143406.00,5345.61550,N,02802.60602,E,1,11,0.88,201.5,M,24.7,M,,*55
98: $GPGSA,A,3,32,01,03,04,11,19,17,14,23,31,12,,1.67,0.88,1.42*09
98: $GPGSV,3,1,12,01,65,189,30,03,66,277,38,04,40,160,32,11,40,191,32*79
98: $GPGSV,3,2,12,12,07,010,29,14,18,050,25,17,29,298,41,19,23,223,39*70
98: $GPGSV,3,3,12,23,30,216,36,25,03,046,33,31,36,096,30,32,72,087,30*7D
99: $GPGLL,5345.61550,N,02802.60602,E,143406.00,A,A*67
99: $GPRMC,143407.00,A,5345.61729,N,02802.63089,E,53.408,83.03,241015,,,A*6A
99: $GPVTG,83.03,T,,M,53.408,N,98.911,K,A*07
99: $GPGGA,143407.00,5345.61729,N,02802.63089,E,1,11,0.88,202.0,M,24.7,M,,*58
99: $GPGSA,A,3,32,01,03,04,11,19,17,14,23,31,12,,1.58,0.88,1.32*02
99: $GPGSV,3,1,12,01,65,189,29,03,66,277,38,04,40,160,32,11,40,191,32*71
99: $GPGSV,3,2,12,12,07,010,29,14,18,050,24,17,29,298,41,19,23,223,39*71
99: $GPGSV,3,3,12,23,30,216,36,25,03,046,32,31,36,096,31,32,72,087,30*7D
100: $GPGLL,5345.61729,N,02802.63089,E,143407.00,A,A*6C
100: $GPRMC,143408.00,A,5345.61908,N,02802.65564,E,53.232,82.99,241015,,,A*65
100: $GPVTG,82.99,T,,M,53.232,N,98.585,K,A*0B
100: $GPGGA,143408.00,5345.61908,N,02802.65564,E,1,11,0.88,202.5,M,24.7,M,,*5F
100: $GPGSA,A,3,32,01,03,04,11,19,17,14,23,31,12,,1.58,0.88,1.32*02
100: $GPGSV,3,1,12,01,65,189,29,03,66,277,38,04,40,160,32,11,40,191,32*71
100: $GPGSV,3,2,12,12,07,010,29,14,18,050,24,17,29,298,41,19,23,223,39*71
100: $GPGSV,3,3,12,23,30,216,36,25,03,046,28,31,36,096,32,32,72,087,30*75
100: $GPGLL,5345.61908,N,02802.65564,E,143408.00,A,A*6E
101: $GPRMC,143409.00,A,5345.62090,N,02802.68029,E,53.065,82.73,241015,,,A*6A
101: $GPVTG,82.73,T,,M,53.065,N,98.276,K,A*04
101: $GPGGA,143409.00,5345.62090,N,02802.68029,E,1,11,0.88,203.0,M,24.7,M,,*50
101: $GPGSA,A,3,32,01,03,04,11,19,17,14,23,31,12,,1.67,0.88,1.42*09
101: $GPGSV,3,1,12,01,65,189,28,03,66,277,38,04,40,160,32,11,40,191,32*70
101: $GPGSV,3,2,12,12,07,010,29,14,18,050,23,17,29,298,41,19,23,223,39*76
101: $GPGSV,3,3,12,23,30,216,37,25,03,046,31,31,36,096,32,32,72,087,30*7C
101: $GPGLL,5345.62090,N,02802.68029,E,143409.00,A,A*65
