0: $GPGGA,143222.00,5345.56943,N,02759.94574,E,1,11,0.88,197.8,M,24.7,M,,*56
1: $GPGGA,143223.00,5345.56915,N,02759.97100,E,1,11,0.88,197.7,M,24.7,M,,*5F
2: $GPGGA,143224.00,5345.56893,N,02759.99636,E,1,11,0.88,197.8,M,24.7,M,,*54
3: $GPGGA,143225.00,5345.56875,N,02800.02167,E,1,11,0.88,197.9,M,24.7,M,,*5E
4: $GPGGA,143226.00,5345.56859,N,02800.04694,E,1,11,0.88,198.0,M,24.7,M,,*58
5: $GPGGA,143227.00,5345.56841,N,02800.07225,E,1,11,0.88,198.2,M,24.7,M,,*5F
5: $GPGGA,143228.00,5345.56823,N,02800.09759,E,1,11,0.88,198.2,M,24.7,M,,*54
6: $GPGGA,143229.00,5345.56806,N,02800.12289,E,1,11,0.88,198.2,M,24.7,M,,*50
7: $GPGGA,143230.00,5345.56792,N,02800.14817,E,1,11,0.88,198.2,M,24.7,M,,*51
8: $GPGGA,143231.00,5345.56780,N,02800.17337,E,1,11,0.88,198.1,M,24.7,M,,*5A
9: $GPGGA,143232.00,5345.56768,N,02800.19860,E,1,11,0.88,198.1,M,24.7,M,,*58
10: $GPGGA,143233.00,5345.56755,N,02800.22382,E,1,11,0.88,198.2,M,24.7,M,,*5B
11: $GPGGA,143234.00,5345.56738,N,02800.24917,E,1,11,0.88,198.2,M,24.7,M,,*57
12: $GPGGA,143235.00,5345.56721,N,02800.27461,E,1,11,0.88,198.2,M,24.7,M,,*51
13: $GPGGA,143236.00,5345.56719,N,02800.30023,E,1,11,0.88,198.0,M,24.7,M,,*5F
14: $GPGGA,143237.00,5345.56714,N,02800.32599,E,1,11,0.94,198.0,M,24.7,M,,*58
15: $GPGGA,143238.00,5345.56700,N,02800.35186,E,1,10,0.94,198.1,M,24.7,M,,*5F
16: $GPGGA,143239.00,5345.56687,N,02800.37788,E,1,11,0.94,198.1,M,24.7,M,,*5B
17: $GPGGA,143240.00,5345.56669,N,02800.40408,E,1,11,0.94,198.2,M,24.7,M,,*5D
18: $GPGGA,143241.00,5345.56657,N,02800.43035,E,1,11,0.88,198.2,M,24.7,M,,*55
19: $GPGGA,143242.00,5345.56641,N,02800.45676,E,1,11,0.88,198.3,M,24.7,M,,*57
20: $GPGGA,143243.00,5345.56623,N,02800.48333,E,1,11,0.88,198.4,M,24.7,M,,*5C
21: $GPGGA,143244.00,5345.56607,N,02800.51000,E,1,11,0.88,198.4,M,24.7,M,,*56
21: $GPGGA,143245.00,5345.56593,N,02800.53689,E,1,11,0.88,198.5,M,24.7,M,,*5D
22: $GPGGA,143246.00,5345.56578,N,02800.56389,E,1,11,0.88,198.5,M,24.7,M,,*5B
23: $GPGGA,143247.00,5345.56557,N,02800.59097,E,1,11,0.88,198.5,M,24.7,M,,*54
24: $GPGGA,143248.00,5345.56534,N,02800.61819,E,1,11,0.88,198.5,M,24.7,M,,*5B
25: $GPGGA,143249.00,5345.56508,N,02800.64547,E,1,11,0.88,198.5,M,24.7,M,,*56
26: $GPGGA,143250.00,5345.56485,N,02800.67289,E,1,11,0.88,198.5,M,24.7,M,,*5C
27: $GPGGA,143251.00,5345.56461,N,02800.70032,E,1,11,0.88,198.4,M,24.7,M,,*52
28: $GPGGA,143252.00,5345.56437,N,02800.72772,E,1,11,0.88,198.4,M,24.7,M,,*53
29: $GPGGA,143253.00,5345.56417,N,02800.75515,E,1,11,0.88,198.2,M,24.7,M,,*52
30: $GPGGA,143254.00,5345.56400,N,02800.78258,E,1,11,0.88,198.1,M,24.7,M,,*53
31: $GPGGA,143255.00,5345.56386,N,02800.81002,E,1,11,0.88,198.0,M,24.7,M,,*51
32: $GPGGA,143256.00,5345.56371,N,02800.83734,E,1,11,0.88,197.8,M,24.7,M,,*5D
33: $GPGGA,143257.00,5345.56355,N,02800.86470,E,1,11,0.88,197.5,M,24.7,M,,*51
34: $GPGGA,143258.00,5345.56338,N,02800.89207,E,1,11,0.88,197.3,M,24.7,M,,*5A
35: $GPGGA,143259.00,5345.56321,N,02800.91942,E,1,11,0.88,197.1,M,24.7,M,,*52
36: $GPGGA,143300.00,5345.56301,N,02800.94668,E,1,11,0.88,196.9,M,24.7,M,,*56
37: $GPGGA,143301.00,5345.56281,N,02800.97394,E,1,11,0.88,196.7,M,24.7,M,,*55
38: $GPGGA,143302.00,5345.56265,N,02801.00109,E,1,11,0.88,196.5,M,24.7,M,,*57
39: $GPGGA,143303.00,5345.56247,N,02801.02808,E,1,11,0.88,196.5,M,24.7,M,,*5C
40: $GPGGA,143304.00,5345.56227,N,02801.05489,E,1,11,0.88,196.4,M,24.7,M,,*5E
41: $GPGGA,143305.00,5345.56207,N,02801.08159,E,1,11,0.88,196.3,M,24.7,M,,*5F
41: $GPGGA,143306.00,5345.56190,N,02801.10819,E,1,11,0.88,196.0,M,24.7,M,,*56
42: $GPGGA,143307.00,5345.56171,N,02801.13476,E,1,11,0.88,195.9,M,24.7,M,,*54
43: $GPGGA,143308.00,5345.56151,N,02801.16129,E,1,11,0.88,195.5,M,24.7,M,,*5F
44: $GPGGA,143309.00,5345.56132,N,02801.18781,E,1,11,0.88,195.0,M,24.7,M,,*54
45: $GPGGA,143310.00,5345.56116,N,02801.21441,E,1,11,0.88,194.5,M,24.7,M,,*5B
46: $GPGGA,143311.00,5345.56100,N,02801.24099,E,1,11,0.88,194.1,M,24.7,M,,*5D
47: $GPGGA,143312.00,5345.56083,N,02801.26747,E,1,11,0.88,193.5,M,24.7,M,,*51
48: $GPGGA,143313.00,5345.56069,N,02801.29400,E,1,11,0.88,193.0,M,24.7,M,,*5E
49: $GPGGA,143314.00,5345.56055,N,02801.32052,E,1,11,0.88,192.4,M,24.7,M,,*5A
50: $GPGGA,143315.00,5345.56042,N,02801.34715,E,1,11,0.88,191.8,M,24.7,M,,*50
51: $GPGGA,143316.00,5345.56025,N,02801.37383,E,1,11,0.88,191.2,M,24.7,M,,*50
52: $GPGGA,143317.00,5345.56002,N,02801.40055,E,1,11,0.88,190.7,M,24.7,M,,*58
53: $GPGGA,143318.00,5345.55979,N,02801.42723,E,1,11,0.88,190.3,M,24.7,M,,*51
54: $GPGGA,143319.00,5345.55951,N,02801.45390,E,1,11,0.88,189.9,M,24.7,M,,*53
55: $GPGGA,143320.00,5345.55928,N,02801.48069,E,1,11,0.88,189.6,M,24.7,M,,*50
56: $GPGGA,143321.00,5345.55901,N,02801.50750,E,1,11,0.88,189.2,M,24.7,M,,*5A
57: $GPGGA,143322.00,5345.55881,N,02801.53454,E,1,11,0.88,189.1,M,24.7,M,,*57
58: $GPGGA,143323.00,5345.55874,N,02801.56163,E,1,11,0.88,188.9,M,24.7,M,,*51
59: $GPGGA,143324.00,5345.55871,N,02801.58869,E,1,11,0.88,188.8,M,24.7,M,,*5F
60: $GPGGA,143325.00,5345.55858,N,02801.61568,E,1,11,0.88,188.8,M,24.7,M,,*53
60: $GPGGA,143326.00,5345.55831,N,02801.64241,E,1,11,0.88,188.7,M,24.7,M,,*59
61: $GPGGA,143327.00,5345.55806,N,02801.66867,E,1,11,0.88,188.3,M,24.7,M,,*54
62: $GPGGA,143328.00,5345.55803,N,02801.69468,E,1,11,0.88,188.5,M,24.7,M,,*54
63: $GPGGA,143329.00,5345.55812,N,02801.72007,E,1,11,0.88,188.4,M,24.7,M,,*53
64: $GPGGA,143330.00,5345.55852,N,02801.74505,E,1,11,0.88,188.3,M,24.7,M,,*59
65: $GPGGA,143331.00,5345.55911,N,02801.76959,E,1,11,0.88,188.3,M,24.7,M,,*59
66: $GPGGA,143332.00,5345.55978,N,02801.79362,E,1,11,0.88,188.4,M,24.7,M,,*5F
67: $GPGGA,143333.00,5345.56044,N,02801.81680,E,1,11,0.88,188.3,M,24.7,M,,*52
68: $GPGGA,143334.00,5345.56120,N,02801.83948,E,1,11,0.88,188.5,M,24.7,M,,*59
69: $GPGGA,143335.00,5345.56214,N,02801.86168,E,1,11,0.88,188.8,M,24.7,M,,*5E
70: $GPGGA,143336.00,5345.56318,N,02801.88354,E,1,11,0.88,189.1,M,24.7,M,,*5B
71: $GPGGA,143337.00,5345.56425,N,02801.90523,E,1,11,0.88,189.5,M,24.7,M,,*58
72: $GPGGA,143338.00,5345.56530,N,02801.92686,E,1,11,0.88,189.8,M,24.7,M,,*51
73: $GPGGA,143339.00,5345.56643,N,02801.94852,E,1,11,0.88,190.1,M,24.7,M,,*57
73: $GPGGA,143340.00,5345.56762,N,02801.97019,E,1,11,0.88,190.3,M,24.7,M,,*5D
74: $GPGGA,143341.00,5345.56907,N,02801.99204,E,1,11,0.88,190.6,M,24.7,M,,*54
75: $GPGGA,143342.00,5345.57069,N,02802.01406,E,1,11,0.88,190.9,M,24.7,M,,*5E
76: $GPGGA,143343.00,5345.57238,N,02802.03644,E,1,10,0.88,191.3,M,24.7,M,,*55
77: $GPGGA,143344.00,5345.57414,N,02802.05923,E,1,11,0.88,191.7,M,24.7,M,,*57
78: $GPGGA,143345.00,5345.57587,N,02802.08236,E,1,11,0.88,192.0,M,24.7,M,,*5B
79: $GPGGA,143346.00,5345.57758,N,02802.10581,E,1,10,0.88,192.2,M,24.7,M,,*59
80: $GPGGA,143347.00,5345.57932,N,02802.12961,E,1,10,0.88,192.3,M,24.7,M,,*5B
81: $GPGGA,143348.00,5345.58110,N,02802.15369,E,1,10,0.88,192.5,M,24.7,M,,*50
82: $GPGGA,143349.00,5345.58299,N,02802.17807,E,1,10,0.88,192.7,M,24.7,M,,*50
83: $GPGGA,143350.00,5345.58491,N,02802.20272,E,1,10,0.88,192.9,M,24.7,M,,*54
84: $GPGGA,143351.00,5345.58683,N,02802.22769,E,1,10,0.88,193.2,M,24.7,M,,*53
85: $GPGGA,143352.00,5345.58872,N,02802.25290,E,1,10,0.88,193.6,M,24.7,M,,*50
86: $GPGGA,143353.00,5345.59059,N,02802.27824,E,1,10,0.88,194.0,M,24.7,M,,*57
87: $GPGGA,143354.00,5345.59247,N,02802.30366,E,1,11,0.88,194.4,M,24.7,M,,*53
88: $GPGGA,143355.00,5345.59435,N,02802.32906,E,1,11,0.88,194.8,M,24.7,M,,*53
89: $GPGGA,143356.00,5345.59628,N,02802.35444,E,1,11,0.88,195.4,M,24.7,M,,*5F
90: $GPGGA,143357.00,5345.59823,N,02802.37974,E,1,11,0.88,196.1,M,24.7,M,,*51
90: $GPGGA,143358.00,5345.60017,N,02802.40502,E,1,11,0.88,196.8,M,24.7,M,,*5F
91: $GPGGA,143359.00,5345.60209,N,02802.43024,E,1,11,0.88,197.5,M,24.7,M,,*5D
92: $GPGGA,143400.00,5345.60400,N,02802.45547,E,1,11,0.88,198.2,M,24.7,M,,*57
93: $GPGGA,143401.00,5345.60590,N,02802.48066,E,1,11,0.88,198.8,M,24.7,M,,*5F
94: $GPGGA,143402.00,5345.60784,N,02802.50581,E,1,11,0.88,199.5,M,24.7,M,,*52
95: $GPGGA,143403.00,5345.60983,N,02802.53089,E,1,11,0.88,199.9,M,24.7,M,,*58
96: $GPGGA,143404.00,5345.61179,N,02802.55594,E,1,11,0.88,200.4,M,24.7,M,,*52
97: $GPGGA,143405.00,5345.61368,N,02802.58101,E,1,11,0.88,200.9,M,24.7,M,,*59
98: $GPGGA,143406.00,5345.61550,N,02802.60602,E,1,11,0.88,201.5,M,24.7,M,,*55
99: $GPGGA,143407.00,5345.61729,N,02802.63089,E,1,11,0.88,202.0,M,24.7,M,,*58
100: $GPGGA,143408.00,5345.61908,N,02802.65564,E,1,11,0.88,202.5,M,24.7,M,,*5F
101: $GPGGA,143409.00,5345.62090,N,02802.68029,E,1,11,0.88,203.0,M,24.7,M,,*50
102: $GPGGA,143410.00,5345.62278,N,02802.70486,E,1,11,0.88,203.5,M,24.7,M,,*51
103: $GPGGA,143411.00,5345.62467,N,02802.72941,E,1,11,0.88,204.0,M,24.7,M,,*5E
103: $GPGGA,143412.00,5345.62656,N,02802.75396,E,1,11,0.88,204.3,M,24.7,M,,*59
104: $GPGGA,143413.00,5345.62847,N,02802.77856,E,1,11,0.88,204.7,M,24.7,M,,*57
105: $GPGGA,143414.00,5345.63041,N,02802.80324,E,1,11,0.88,205.0,M,24.7,M,,*5F
106: $GPGGA,143415.00,5345.63236,N,02802.82795,E,1,11,0.88,205.3,M,24.7,M,,*53
107: $GPGGA,143416.00,5345.63426,N,02802.85268,E,1,11,0.88,205.6,M,24.7,M,,*52
108: $GPGGA,143417.00,5345.63617,N,02802.87741,E,1,11,0.88,205.9,M,24.7,M,,*50
109: $GPGGA,143418.00,5345.63805,N,02802.90222,E,1,11,0.88,206.2,M,24.7,M,,*5C
110: $GPGGA,143419.00,5345.63991,N,02802.92717,E,1,11,0.88,206.4,M,24.7,M,,*56
111: $GPGGA,143420.00,5345.64176,N,02802.95218,E,1,11,0.88,206.7,M,24.7,M,,*54
112: $GPGGA,143421.00,5345.64371,N,02802.97739,E,1,11,0.88,206.9,M,24.7,M,,*5A
113: $GPGGA,143422.00,5345.64570,N,02803.00279,E,1,11,0.88,207.2,M,24.7,M,,*5A
114: $GPGGA,143423.00,5345.64772,N,02803.02842,E,1,11,0.88,207.4,M,24.7,M,,*5D
115: $GPGGA,143424.00,5345.64971,N,02803.05424,E,1,11,0.88,207.6,M,24.7,M,,*5E
116: $GPGGA,143425.00,5345.65171,N,02803.08026,E,1,11,0.87,207.8,M,24.7,M,,*5C
117: $GPGGA,143426.00,5345.65374,N,02803.10651,E,1,11,0.87,208.1,M,24.7,M,,*51
118: $GPGGA,143427.00,5345.65574,N,02803.13294,E,1,11,0.87,208.2,M,24.7,M,,*5B
119: $GPGGA,143428.00,5345.65772,N,02803.15956,E,1,11,0.87,208.3,M,24.7,M,,*52
120: $GPGGA,143429.00,5345.65974,N,02803.18638,E,1,11,0.87,208.4,M,24.7,M,,*56
120: $GPGGA,143430.00,5345.66179,N,02803.21337,E,1,11,0.87,208.5,M,24.7,M,,*59
121: $GPGGA,143431.00,5345.66390,N,02803.24060,E,1,11,0.87,208.7,M,24.7,M,,*5B
122: $GPGGA,143432.00,5345.66604,N,02803.26799,E,1,10,0.87,208.9,M,24.7,M,,*5C
123: $GPGGA,143433.00,5345.66817,N,02803.29549,E,1,10,0.87,209.0,M,24.7,M,,*59
124: $GPGGA,143434.00,5345.67028,N,02803.32310,E,1,11,0.87,209.1,M,24.7,M,,*5B
125: $GPGGA,143435.00,5345.67235,N,02803.35076,E,1,11,0.87,209.3,M,24.7,M,,*52
126: $GPGGA,143436.00,5345.67438,N,02803.37839,E,1,11,0.87,209.3,M,24.7,M,,*5B
127: $GPGGA,143437.00,5345.67639,N,02803.40587,E,1,11,0.87,209.2,M,24.7,M,,*50
128: $GPGGA,143438.00,5345.67841,N,02803.43315,E,1,11,0.87,209.2,M,24.7,M,,*50
129: $GPGGA,143439.00,5345.68047,N,02803.46021,E,1,11,0.87,209.0,M,24.7,M,,*53
130: $GPGGA,143440.00,5345.68258,N,02803.48705,E,1,11,0.87,208.8,M,24.7,M,,*57
131: $GPGGA,143441.00,5345.68467,N,02803.51380,E,1,11,0.87,208.5,M,24.7,M,,*50
132: $GPGGA,143442.00,5345.68675,N,02803.54054,E,1,11,0.87,208.2,M,24.7,M,,*5A
133: $GPGGA,143443.00,5345.68882,N,02803.56734,E,1,11,0.87,207.8,M,24.7,M,,*5B
134: $GPGGA,143444.00,5345.69086,N,02803.59432,E,1,11,0.87,207.3,M,24.7,M,,*50
135: $GPGGA,143445.00,5345.69288,N,02803.62133,E,1,11,0.87,206.9,M,24.7,M,,*5A
136: $GPGGA,143446.00,5345.69490,N,02803.64840,E,1,11,0.87,206.5,M,24.7,M,,*51
137: $GPGGA,143447.00,5345.69694,N,02803.67555,E,1,11,0.87,206.1,M,24.7,M,,*58
138: $GPGGA,143448.00,5345.69902,N,02803.70279,E,1,11,0.87,205.8,M,24.7,M,,*52
139: $GPGGA,143449.00,5345.70111,N,02803.73010,E,1,11,0.87,205.5,M,24.7,M,,*52
140: $GPGGA,143450.00,5345.70319,N,02803.75745,E,1,11,0.87,205.3,M,24.7,M,,*57
140: $GPGGA,143451.00,5345.70526,N,02803.78486,E,1,11,0.87,205.1,M,24.7,M,,*5F
141: $GPGGA,143452.00,5345.70735,N,02803.81235,E,1,11,0.87,204.9,M,24.7,M,,*5D
142: $GPGGA,143453.00,5345.70943,N,02803.83984,E,1,11,0.87,204.8,M,24.7,M,,*51
143: $GPGGA,143454.00,5345.71149,N,02803.86732,E,1,11,0.87,204.7,M,24.7,M,,*5C
144: $GPGGA,143455.00,5345.71355,N,02803.89476,E,1,10,0.87,204.7,M,24.6,M,,*5E
145: $GPGGA,143456.00,5345.71559,N,02803.92219,E,1,10,0.87,204.7,M,24.6,M,,*52
146: $GPGGA,143457.00,5345.71765,N,02803.94957,E,1,11,0.87,204.7,M,24.6,M,,*58
147: $GPGGA,143458.00,5345.71972,N,02803.97691,E,1,11,0.87,204.8,M,24.6,M,,*56
148: $GPGGA,143459.00,5345.72179,N,02804.00420,E,1,11,0.87,204.9,M,24.6,M,,*57
149: $GPGGA,143500.00,5345.72386,N,02804.03146,E,1,11,0.87,204.8,M,24.6,M,,*5F
150: $GPGGA,143501.00,5345.72596,N,02804.05869,E,1,11,0.87,204.9,M,24.6,M,,*5A
151: $GPGGA,143502.00,5345.72807,N,02804.08590,E,1,11,0.87,204.9,M,24.6,M,,*5A
152: $GPGGA,143503.00,5345.73018,N,02804.11313,E,1,11,0.87,204.9,M,24.6,M,,*59
153: $GPGGA,143504.00,5345.73231,N,02804.14040,E,1,11,0.87,204.9,M,24.6,M,,*57
154: $GPGGA,143505.00,5345.73441,N,02804.16773,E,1,11,0.87,204.8,M,24.6,M,,*53
154: $GPGGA,143506.00,5345.73646,N,02804.19514,E,1,11,0.87,204.8,M,24.6,M,,*59
155: $GPGGA,143507.00,5345.73849,N,02804.22260,E,1,11,0.87,204.8,M,24.6,M,,*55
156: $GPGGA,143508.00,5345.74055,N,02804.25009,E,1,11,0.87,204.7,M,24.6,M,,*5D
157: $GPGGA,143509.00,5345.74265,N,02804.27764,E,1,11,0.87,204.7,M,24.6,M,,*53
158: $GPGGA,143510.00,5345.74477,N,02804.30525,E,1,11,0.87,204.6,M,24.6,M,,*5E
159: $GPGGA,143511.00,5345.74691,N,02804.33291,E,1,10,0.87,204.5,M,24.6,M,,*5C
160: $GPGGA,143512.00,5345.74906,N,02804.36066,E,1,11,0.87,204.3,M,24.6,M,,*56
161: $GPGGA,143513.00,5345.75119,N,02804.38847,E,1,10,0.87,204.1,M,24.6,M,,*56
162: $GPGGA,143514.00,5345.75332,N,02804.41638,E,1,11,0.87,203.9,M,24.6,M,,*5C
163: $GPGGA,143515.00,5345.75542,N,02804.44435,E,1,11,0.87,203.7,M,24.6,M,,*58
164: $GPGGA,143516.00,5345.75753,N,02804.47236,E,1,11,0.87,203.5,M,24.6,M,,*5D
165: $GPGGA,143517.00,5345.75965,N,02804.50038,E,1,11,0.87,203.2,M,24.6,M,,*5A
166: $GPGGA,143518.00,5345.76176,N,02804.52838,E,1,11,0.87,202.9,M,24.6,M,,*5C
167: $GPGGA,143519.00,5345.76385,N,02804.55640,E,1,11,0.87,202.5,M,24.6,M,,*59
168: $GPGGA,143520.00,5345.76592,N,02804.58441,E,1,11,0.87,201.9,M,24.6,M,,*52
168: $GPGGA,143521.00,5345.76797,N,02804.61241,E,1,11,0.87,201.2,M,24.6,M,,*53
169: $GPGGA,143522.00,5345.77004,N,02804.64037,E,1,11,0.87,200.6,M,24.6,M,,*5F
170: $GPGGA,143523.00,5345.77213,N,02804.66833,E,1,11,0.87,199.8,M,24.6,M,,*59
171: $GPGGA,143524.00,5345.77427,N,02804.69627,E,1,11,0.87,199.1,M,24.6,M,,*52
172: $GPGGA,143525.00,5345.77661,N,02804.72416,E,1,11,0.87,198.4,M,24.6,M,,*5D
173: $GPGGA,143526.00,5345.77911,N,02804.75203,E,1,11,0.87,197.8,M,24.6,M,,*50
174: $GPGGA,143527.00,5345.78163,N,02804.77987,E,1,11,0.87,197.2,M,24.6,M,,*5C
175: $GPGGA,143528.00,5345.78404,N,02804.80776,E,1,11,0.87,196.8,M,24.6,M,,*54
176: $GPGGA,143529.00,5345.78637,N,02804.83562,E,1,11,0.87,196.4,M,24.6,M,,*5F
177: $GPGGA,143530.00,5345.78866,N,02804.86340,E,1,11,0.87,196.3,M,24.6,M,,*59
178: $GPGGA,143531.00,5345.79088,N,02804.89106,E,1,11,0.87,196.2,M,24.6,M,,*5F
179: $GPGGA,143532.00,5345.79305,N,02804.91860,E,1,11,0.87,196.1,M,24.6,M,,*59
180: $GPGGA,143533.00,5345.79518,N,02804.94594,E,1,11,0.87,196.2,M,24.6,M,,*52
181: $GPGGA,143534.00,5345.79728,N,02804.97315,E,1,11,0.87,196.2,M,24.6,M,,*58
182: $GPGGA,143535.00,5345.79935,N,02805.00019,E,1,11,0.87,196.2,M,24.6,M,,*5B
182: $GPGGA,143536.00,5345.80141,N,02805.02712,E,1,11,0.87,196.2,M,24.6,M,,*5B
183: $GPGGA,143537.00,5345.80342,N,02805.05397,E,1,11,0.87,196.1,M,24.6,M,,*56
184: $GPGGA,143538.00,5345.80538,N,02805.08079,E,1,11,0.87,196.1,M,24.6,M,,*5C
185: $GPGGA,143539.00,5345.80732,N,02805.10756,E,1,11,0.87,196.0,M,24.6,M,,*57
186: $GPGGA,143540.00,5345.80922,N,02805.13426,E,1,11,0.87,195.9,M,24.6,M,,*5B
187: $GPGGA,143541.00,5345.81103,N,02805.16074,E,1,11,0.87,195.9,M,24.6,M,,*56
188: $GPGGA,143542.00,5345.81263,N,02805.18705,E,1,11,0.87,196.0,M,24.6,M,,*55
189: $GPGGA,143543.00,5345.81389,N,02805.21309,E,1,11,0.87,196.0,M,24.6,M,,*53
190: $GPGGA,143544.00,5345.81469,N,02805.23896,E,1,11,0.87,196.0,M,24.6,M,,*52
191: $GPGGA,143545.00,5345.81513,N,02805.26469,E,1,11,0.87,195.9,M,24.6,M,,*5C
192: $GPGGA,143546.00,5345.81541,N,02805.29024,E,1,11,0.87,195.9,M,24.6,M,,*5A
193: $GPGGA,143547.00,5345.81560,N,02805.31558,E,1,11,0.87,195.8,M,24.6,M,,*5E
194: $GPGGA,143548.00,5345.81585,N,02805.34068,E,1,11,0.87,195.6,M,24.6,M,,*57
195: $GPGGA,143549.00,5345.81618,N,02805.36548,E,1,11,0.87,195.4,M,24.6,M,,*56
196: $GPGGA,143550.00,5345.81649,N,02805.39004,E,1,11,0.87,195.3,M,24.6,M,,*5F
197: $GPGGA,143551.00,5345.81680,N,02805.41428,E,1,11,0.87,195.1,M,24.6,M,,*5C
198: $GPGGA,143552.00,5345.81714,N,02805.43821,E,1,11,0.87,195.0,M,24.6,M,,*55
199: $GPGGA,143553.00,5345.81748,N,02805.46212,E,1,11,0.87,195.0,M,24.6,M,,*52
200: $GPGGA,143554.00,5345.81782,N,02805.48598,E,1,11,0.87,195.0,M,24.6,M,,*58
201: $GPGGA,143555.00,5345.81817,N,02805.50993,E,1,11,0.87,194.9,M,24.6,M,,*5C
201: $GPGGA,143556.00,5345.81850,N,02805.53393,E,1,11,0.87,194.7,M,24.6,M,,*5B
202: $GPGGA,143557.00,5345.81867,N,02805.55790,E,1,11,0.87,194.7,M,24.6,M,,*5F
203: $GPGGA,143558.00,5345.81863,N,02805.58188,E,1,11,0.87,194.4,M,24.6,M,,*55
204: $GPGGA,143559.00,5345.81846,N,02805.60596,E,1,11,0.87,194.3,M,24.6,M,,*54
205: $GPGGA,143600.00,5345.81847,N,02805.63010,E,1,11,0.87,194.1,M,24.6,M,,*50
206: $GPGGA,143601.00,5345.81867,N,02805.65438,E,1,11,0.87,194.0,M,24.6,M,,*5A
207: $GPGGA,143602.00,5345.81901,N,02805.67895,E,1,11,0.87,193.9,M,24.6,M,,*5F
208: $GPGGA,143603.00,5345.81939,N,02805.70381,E,1,11,0.87,193.9,M,24.6,M,,*5D
209: $GPGGA,143604.00,5345.81989,N,02805.72908,E,1,11,0.87,194.3,M,24.6,M,,*55
210: $GPGGA,143605.00,5345.82024,N,02805.75459,E,1,11,0.87,194.3,M,24.6,M,,*57
211: $GPGGA,143606.00,5345.82052,N,02805.78048,E,1,11,0.87,194.3,M,24.6,M,,*5C
212: $GPGGA,143607.00,5345.82076,N,02805.80665,E,1,11,0.87,194.0,M,24.6,M,,*56
213: $GPGGA,143608.00,5345.82107,N,02805.83312,E,1,11,0.87,194.0,M,24.6,M,,*58
214: $GPGGA,143609.00,5345.82145,N,02805.85984,E,1,11,0.87,193.8,M,24.6,M,,*53
215: $GPGGA,143610.00,5345.82185,N,02805.88681,E,1,11,0.87,193.8,M,24.6,M,,*50
215: $GPGGA,143611.00,5345.82228,N,02805.91398,E,1,11,0.87,193.5,M,24.6,M,,*5D
216: $GPGGA,143612.00,5345.82269,N,02805.94130,E,1,11,0.87,193.5,M,24.6,M,,*5E
217: $GPGGA,143613.00,5345.82303,N,02805.96883,E,1,11,0.87,193.4,M,24.6,M,,*50
218: $GPGGA,143614.00,5345.82327,N,02805.99651,E,1,11,0.87,193.3,M,24.6,M,,*58
219: $GPGGA,143615.00,5345.82345,N,02806.02430,E,1,11,0.87,193.3,M,24.6,M,,*59
220: $GPGGA,143616.00,5345.82372,N,02806.05228,E,1,11,0.87,193.5,M,24.6,M,,*50
221: $GPGGA,143617.00,5345.82402,N,02806.08026,E,1,11,0.87,193.4,M,24.6,M,,*51
222: $GPGGA,143618.00,5345.82427,N,02806.10830,E,1,11,0.87,193.5,M,24.6,M,,*5E
223: $GPGGA,143619.00,5345.82447,N,02806.13641,E,1,11,0.87,193.8,M,24.6,M,,*5F
224: $GPGGA,143620.00,5345.82470,N,02806.16449,E,1,11,0.87,193.9,M,24.6,M,,*5F
225: $GPGGA,143621.00,5345.82498,N,02806.19259,E,1,11,0.87,194.2,M,24.6,M,,*5C
226: $GPGGA,143622.00,5345.82528,N,02806.22055,E,1,11,0.87,194.5,M,24.6,M,,*54
227: $GPGGA,143623.00,5345.82555,N,02806.24848,E,1,11,0.87,194.8,M,24.6,M,,*50
228: $GPGGA,143624.00,5345.82587,N,02806.27646,E,1,11,0.87,195.2,M,24.6,M,,*50
229: $GPGGA,143625.00,5345.82614,N,02806.30429,E,1,11,0.87,195.6,M,24.6,M,,*51
230: $GPGGA,143626.00,5345.82643,N,02806.33203,E,1,11,0.87,196.1,M,24.6,M,,*59
231: $GPGGA,143627.00,5345.82676,N,02806.35964,E,1,11,0.87,196.6,M,24.6,M,,*55
232: $GPGGA,143628.00,5345.82710,N,02806.38712,E,1,11,0.87,197.3,M,24.6,M,,*5D
232: $GPGGA,143629.00,5345.82744,N,02806.41463,E,1,11,0.87,197.9,M,24.6,M,,*5C
233: $GPGGA,143630.00,5345.82781,N,02806.44220,E,1,11,0.87,198.3,M,24.6,M,,*5C
234: $GPGGA,143631.00,5345.82807,N,02806.46975,E,1,11,0.87,198.9,M,24.6,M,,*5F
235: $GPGGA,143632.00,5345.82835,N,02806.49751,E,1,11,0.87,199.2,M,24.6,M,,*50
236: $GPGGA,143633.00,5345.82861,N,02806.52540,E,1,11,0.87,199.5,M,24.6,M,,*5F
237: $GPGGA,143634.00,5345.82884,N,02806.55335,E,1,11,0.87,199.8,M,24.6,M,,*5D
238: $GPGGA,143635.00,5345.82908,N,02806.58144,E,1,11,0.87,200.0,M,24.6,M,,*5B
239: $GPGGA,143636.00,5345.82939,N,02806.60972,E,1,11,0.87,200.1,M,24.6,M,,*5D
240: $GPGGA,143637.00,5345.82977,N,02806.63803,E,1,11,0.87,200.3,M,24.6,M,,*50
241: $GPGGA,143638.00,5345.83019,N,02806.66633,E,1,11,0.87,200.5,M,24.6,M,,*51
242: $GPGGA,143639.00,5345.83060,N,02806.69468,E,1,11,0.87,200.5,M,24.6,M,,*5D
243: $GPGGA,143640.00,5345.83101,N,02806.72318,E,1,11,0.87,200.6,M,24.6,M,,*5C
244: $GPGGA,143641.00,5345.83147,N,02806.75191,E,1,11,0.87,200.4,M,24.6,M,,*59
245: $GPGGA,143642.00,5345.83189,N,02806.78084,E,1,11,0.87,200.2,M,24.6,M,,*56
246: $GPGGA,143643.00,5345.83224,N,02806.80977,E,1,11,0.87,200.0,M,24.6,M,,*53
247: $GPGGA,143644.00,5345.83266,N,02806.83899,E,1,11,0.87,199.8,M,24.6,M,,*5B
247: $GPGGA,143645.00,5345.83307,N,02806.86826,E,1,11,0.87,199.7,M,24.6,M,,*52
248: $GPGGA,143646.00,5345.83347,N,02806.89769,E,1,11,0.87,199.6,M,24.6,M,,*5F
249: $GPGGA,143647.00,5345.83383,N,02806.92728,E,1,11,0.87,199.4,M,24.6,M,,*5B
250: $GPGGA,143648.00,5345.83424,N,02806.95705,E,1,11,0.87,199.0,M,24.6,M,,*52
251: $GPGGA,143649.00,5345.83469,N,02806.98691,E,1,11,0.87,198.6,M,24.6,M,,*5C
252: $GPGGA,143650.00,5345.83510,N,02807.01686,E,1,10,0.94,198.3,M,24.6,M,,*5A
253: $GPGGA,143651.00,5345.83551,N,02807.04699,E,1,11,0.87,197.7,M,24.6,M,,*5D
254: $GPGGA,143652.00,5345.83586,N,02807.07712,E,1,11,0.87,197.2,M,24.6,M,,*50
255: $GPGGA,143653.00,5345.83621,N,02807.10728,E,1,11,0.87,196.9,M,24.6,M,,*5A
256: $GPGGA,143654.00,5345.83654,N,02807.13740,E,1,11,0.87,196.7,M,24.6,M,,*5C
257: $GPGGA,143655.00,5345.83686,N,02807.16743,E,1,11,0.87,196.6,M,24.6,M,,*55
258: $GPGGA,143656.00,5345.83721,N,02807.19729,E,1,11,0.87,196.2,M,24.6,M,,*5D
259: $GPGGA,143657.00,5345.83773,N,02807.22697,E,1,11,0.87,196.1,M,24.6,M,,*54
260: $GPGGA,143658.00,5345.83847,N,02807.25651,E,1,11,0.87,195.9,M,24.6,M,,*55
261: $GPGGA,143659.00,5345.83925,N,02807.28596,E,1,11,0.87,195.6,M,24.6,M,,*5B
262: $GPGGA,143700.00,5345.83992,N,02807.31530,E,1,11,0.87,195.4,M,24.6,M,,*5C
263: $GPGGA,143701.00,5345.84047,N,02807.34457,E,1,11,0.87,195.3,M,24.6,M,,*59
263: $GPGGA,143702.00,5345.84095,N,02807.37379,E,1,11,0.87,195.3,M,24.6,M,,*5D
264: $GPGGA,143703.00,5345.84140,N,02807.40310,E,1,11,0.87,195.3,M,24.6,M,,*5A
265: $GPGGA,143704.00,5345.84187,N,02807.43203,E,1,11,0.87,195.0,M,24.6,M,,*55
266: $GPGGA,143705.00,5345.84233,N,02807.46038,E,1,11,0.87,194.8,M,24.6,M,,*5E
267: $GPGGA,143706.00,5345.84275,N,02807.48795,E,1,11,0.87,194.7,M,24.6,M,,*5E
268: $GPGGA,143707.00,5345.84311,N,02807.51433,E,1,11,0.87,194.6,M,24.6,M,,*5A
269: $GPGGA,143708.00,5345.84341,N,02807.53919,E,1,11,0.87,194.5,M,24.6,M,,*54
270: $GPGGA,143709.00,5345.84366,N,02807.56254,E,1,11,0.87,194.4,M,24.6,M,,*56
271: $GPGGA,143710.00,5345.84386,N,02807.58458,E,1,11,0.87,194.2,M,24.6,M,,*52
272: $GPGGA,143711.00,5345.84407,N,02807.60599,E,1,11,0.87,194.0,M,24.6,M,,*58
273: $GPGGA,143712.00,5345.84429,N,02807.62729,E,1,11,0.87,193.9,M,24.6,M,,*52
274: $GPGGA,143713.00,5345.84454,N,02807.64860,E,1,11,0.87,193.7,M,24.6,M,,*53
275: $GPGGA,143714.00,5345.84481,N,02807.66997,E,1,11,0.87,193.4,M,24.6,M,,*54
276: $GPGGA,143715.00,5345.84504,N,02807.69139,E,1,11,0.87,193.1,M,24.6,M,,*5F
277: $GPGGA,143716.00,5345.84524,N,02807.71288,E,1,11,0.87,192.8,M,24.6,M,,*56
278: $GPGGA,143717.00,5345.84543,N,02807.73454,E,1,11,0.87,192.6,M,24.6,M,,*5D
278: $GPGGA,143718.00,5345.84564,N,02807.75641,E,1,11,0.87,192.6,M,24.6,M,,*57
279: $GPGGA,143719.00,5345.84597,N,02807.77836,E,1,11,0.87,192.4,M,24.6,M,,*54
280: $GPGGA,143720.00,5345.84628,N,02807.80049,E,1,11,0.87,192.2,M,24.6,M,,*57
281: $GPGGA,143721.00,5345.84656,N,02807.82287,E,1,11,0.87,192.0,M,24.6,M,,*5F
282: $GPGGA,143722.00,5345.84683,N,02807.84547,E,1,11,0.87,191.8,M,24.6,M,,*52
283: $GPGGA,143723.00,5345.84698,N,02807.86829,E,1,11,0.87,191.8,M,24.6,M,,*5E
284: $GPGGA,143724.00,5345.84706,N,02807.89126,E,1,11,0.87,191.7,M,24.6,M,,*59
285: $GPGGA,143725.00,5345.84720,N,02807.91453,E,1,11,0.87,191.6,M,24.6,M,,*53
286: $GPGGA,143726.00,5345.84745,N,02807.93791,E,1,11,0.87,191.4,M,24.6,M,,*5E
287: $GPGGA,143727.00,5345.84775,N,02807.96142,E,1,11,0.87,191.1,M,24.6,M,,*54
288: $GPGGA,143728.00,5345.84796,N,02807.98508,E,1,11,0.87,191.0,M,24.6,M,,*53
289: $GPGGA,143729.00,5345.84815,N,02808.00895,E,1,11,0.87,190.9,M,24.6,M,,*59
290: $GPGGA,143730.00,5345.84832,N,02808.03304,E,1,11,0.87,190.7,M,24.6,M,,*5A
291: $GPGGA,143731.00,5345.84848,N,02808.05736,E,1,11,0.87,190.6,M,24.6,M,,*54
292: $GPGGA,143732.00,5345.84861,N,02808.08190,E,1,11,0.87,190.2,M,24.6,M,,*5F
293: $GPGGA,143733.00,5345.84855,N,02808.10670,E,1,11,0.87,190.1,M,24.6,M,,*5A
294: $GPGGA,143734.00,5345.84821,N,02808.13174,E,1,11,0.87,190.4,M,24.6,M,,*5B
295: $GPGGA,143735.00,5345.84778,N,02808.15702,E,1,11,0.87,190.7,M,24.6,M,,*5B
296: $GPGGA,143736.00,5345.84757,N,02808.18247,E,1,11,0.87,190.6,M,24.6,M,,*5D
297: $GPGGA,143737.00,5345.84766,N,02808.20805,E,1,11,0.87,190.5,M,24.6,M,,*5A
297: $GPGGA,143738.00,5345.84794,N,02808.23394,E,1,11,0.87,190.2,M,24.6,M,,*5F
298: $GPGGA,143739.00,5345.84822,N,02808.26007,E,1,11,0.87,190.0,M,24.6,M,,*52
299: $GPGGA,143740.00,5345.84841,N,02808.28645,E,1,11,0.87,190.0,M,24.6,M,,*57
300: $GPGGA,143741.00,5345.84861,N,02808.31310,E,1,11,0.87,189.8,M,24.6,M,,*59
301: $GPGGA,143742.00,5345.84882,N,02808.33995,E,1,11,0.87,189.6,M,24.6,M,,*5C
302: $GPGGA,143743.00,5345.84906,N,02808.36712,E,1,11,0.87,189.3,M,24.6,M,,*51
303: $GPGGA,143744.00,5345.84927,N,02808.39452,E,1,11,0.87,189.1,M,24.6,M,,*5F
304: $GPGGA,143745.00,5345.84954,N,02808.42209,E,1,10,0.90,188.7,M,24.6,M,,*5E
305: $GPGGA,143746.00,5345.84983,N,02808.44981,E,1,11,0.90,188.4,M,24.6,M,,*58
306: $GPGGA,143747.00,5345.85014,N,02808.47765,E,1,11,0.87,188.2,M,24.6,M,,*58
307: $GPGGA,143748.00,5345.85043,N,02808.50567,E,1,11,0.87,187.8,M,24.6,M,,*56
308: $GPGGA,143749.00,5345.85070,N,02808.53388,E,1,11,0.87,187.4,M,24.6,M,,*5F
309: $GPGGA,143750.00,5345.85096,N,02808.56225,E,1,11,0.87,186.9,M,24.6,M,,*50
310: $GPGGA,143751.00,5345.85124,N,02808.59053,E,1,11,0.87,186.3,M,24.6,M,,*5F
310: $GPGGA,143752.00,5345.85150,N,02808.61853,E,1,11,0.87,185.8,M,24.6,M,,*54
311: $GPGGA,143753.00,5345.85174,N,02808.64620,E,1,11,0.87,185.4,M,24.6,M,,*50
312: $GPGGA,143754.00,5345.85199,N,02808.67345,E,1,11,0.87,185.0,M,24.6,M,,*55
313: $GPGGA,143755.00,5345.85228,N,02808.70026,E,1,11,0.87,184.5,M,24.6,M,,*59
314: $GPGGA,143756.00,5345.85254,N,02808.72663,E,1,11,0.87,184.1,M,24.6,M,,*50
315: $GPGGA,143757.00,5345.85279,N,02808.75255,E,1,11,0.87,183.8,M,24.6,M,,*56
316: $GPGGA,143758.00,5345.85301,N,02808.77802,E,1,11,0.87,183.4,M,24.6,M,,*51
317: $GPGGA,143759.00,5345.85325,N,02808.80305,E,1,11,0.87,183.1,M,24.6,M,,*57
318: $GPGGA,143800.00,5345.85348,N,02808.82771,E,1,11,0.87,182.8,M,24.6,M,,*52
319: $GPGGA,143801.00,5345.85372,N,02808.85223,E,1,11,0.87,182.6,M,24.6,M,,*51
320: $GPGGA,143802.00,5345.85398,N,02808.87674,E,1,11,0.87,182.3,M,24.6,M,,*57
321: $GPGGA,143803.00,5345.85421,N,02808.90136,E,1,11,0.87,182.2,M,24.6,M,,*55
322: $GPGGA,143804.00,5345.85442,N,02808.92607,E,1,11,0.87,182.0,M,24.6,M,,*52
323: $GPGGA,143805.00,5345.85461,N,02808.95047,E,1,11,0.87,182.0,M,24.6,M,,*57
324: $GPGGA,143806.00,5345.85486,N,02808.97441,E,1,11,0.93,181.7,M,24.6,M,,*5C
325: $GPGGA,143807.00,5345.85515,N,02808.99783,E,1,11,0.87,181.5,M,24.6,M,,*52
326: $GPGGA,143808.00,5345.85540,N,02809.02077,E,1,11,0.87,181.3,M,24.6,M,,*54
326: $GPGGA,143809.00,5345.85568,N,02809.04332,E,1,11,0.87,181.0,M,24.6,M,,*58
327: $GPGGA,143810.00,5345.85586,N,02809.06540,E,1,11,0.87,180.9,M,24.6,M,,*59
328: $GPGGA,143811.00,5345.85598,N,02809.08710,E,1,11,0.87,180.8,M,24.6,M,,*5F
329: $GPGGA,143812.00,5345.85613,N,02809.10842,E,1,11,0.87,180.7,M,24.6,M,,*52
330: $GPGGA,143813.00,5345.85632,N,02809.12921,E,1,11,0.87,180.6,M,24.6,M,,*57
331: $GPGGA,143814.00,5345.85649,N,02809.14935,E,1,11,0.87,180.6,M,24.6,M,,*5F
332: $GPGGA,143815.00,5345.85666,N,02809.16875,E,1,11,0.87,180.6,M,24.6,M,,*54
333: $GPGGA,143816.00,5345.85679,N,02809.18734,E,1,11,0.87,180.6,M,24.6,M,,*5D
334: $GPGGA,143817.00,5345.85689,N,02809.20540,E,1,11,0.87,180.5,M,24.6,M,,*5A
335: $GPGGA,143818.00,5345.85694,N,02809.22317,E,1,11,0.87,180.5,M,24.6,M,,*5F
336: $GPGGA,143819.00,5345.85708,N,02809.24086,E,1,11,0.87,180.5,M,24.6,M,,*57
337: $GPGGA,143820.00,5345.85733,N,02809.25862,E,1,11,0.87,180.5,M,24.6,M,,*56
338: $GPGGA,143821.00,5345.85760,N,02809.27649,E,1,11,0.87,180.5,M,24.6,M,,*54
338: $GPGGA,143822.00,5345.85776,N,02809.29450,E,1,11,0.87,180.5,M,24.6,M,,*54
339: $GPGGA,143823.00,5345.85797,N,02809.31263,E,1,11,0.87,180.6,M,24.6,M,,*56
340: $GPGGA,143824.00,5345.85820,N,02809.33082,E,1,11,0.87,180.6,M,24.6,M,,*5D
341: $GPGGA,143825.00,5345.85840,N,02809.34904,E,1,11,0.87,180.6,M,24.6,M,,*5A
342: $GPGGA,143826.00,5345.85855,N,02809.36725,E,1,11,0.87,180.6,M,24.6,M,,*52
343: $GPGGA,143827.00,5345.85869,N,02809.38538,E,1,11,0.87,180.6,M,24.6,M,,*5C
344: $GPGGA,143828.00,5345.85886,N,02809.40345,E,1,11,0.87,180.7,M,24.6,M,,*50
345: $GPGGA,143829.00,5345.85900,N,02809.42148,E,1,11,0.87,180.7,M,24.6,M,,*53
346: $GPGGA,143830.00,5345.85913,N,02809.43949,E,1,11,0.87,180.7,M,24.6,M,,*51
347: $GPGGA,143831.00,5345.85928,N,02809.45742,E,1,11,0.87,180.6,M,24.6,M,,*5A
348: $GPGGA,143832.00,5345.85946,N,02809.47537,E,1,11,0.87,180.4,M,24.6,M,,*51
349: $GPGGA,143833.00,5345.85970,N,02809.49325,E,1,11,0.87,180.1,M,24.6,M,,*5B
350: $GPGGA,143834.00,5345.85990,N,02809.51144,E,1,11,0.87,180.0,M,24.6,M,,*5F
351: $GPGGA,143835.00,5345.86011,N,02809.52998,E,1,11,0.87,179.9,M,24.6,M,,*58
352: $GPGGA,143836.00,5345.86037,N,02809.54878,E,1,11,0.87,179.7,M,24.6,M,,*58
352: $GPGGA,143837.00,5345.86064,N,02809.56789,E,1,11,0.87,179.6,M,24.6,M,,*5D
353: $GPGGA,143838.00,5345.86090,N,02809.58727,E,1,11,0.87,179.5,M,24.6,M,,*50
354: $GPGGA,143839.00,5345.86113,N,02809.60696,E,1,11,0.87,179.3,M,24.6,M,,*5D
355: $GPGGA,143840.00,5345.86134,N,02809.62696,E,1,11,0.87,179.1,M,24.6,M,,*56
356: $GPGGA,143841.00,5345.86149,N,02809.64724,E,1,11,0.87,178.9,M,24.6,M,,*5A
357: $GPGGA,143842.00,5345.86163,N,02809.66778,E,1,11,0.87,178.7,M,24.6,M,,*54
358: $GPGGA,143843.00,5345.86179,N,02809.68858,E,1,11,0.87,178.5,M,24.6,M,,*5F
359: $GPGGA,143844.00,5345.86199,N,02809.70952,E,1,11,0.87,178.3,M,24.6,M,,*52
360: $GPGGA,143845.00,5345.86222,N,02809.73048,E,1,11,0.87,178.1,M,24.6,M,,*53
361: $GPGGA,143846.00,5345.86245,N,02809.75144,E,1,11,0.87,177.8,M,24.6,M,,*5C
362: $GPGGA,143847.00,5345.86259,N,02809.77238,E,1,11,0.87,177.6,M,24.6,M,,*54
363: $GPGGA,143848.00,5345.86254,N,02809.79330,E,1,11,0.87,177.6,M,24.6,M,,*51
364: $GPGGA,143849.00,5345.86236,N,02809.81416,E,1,11,0.87,177.6,M,24.6,M,,*50
365: $GPGGA,143850.00,5345.86197,N,02809.83503,E,1,11,0.87,177.7,M,24.6,M,,*56
366: $GPGGA,143851.00,5345.86126,N,02809.85604,E,1,11,0.87,178.2,M,24.6,M,,*55
367: $GPGGA,143852.00,5345.86050,N,02809.87697,E,1,11,0.87,178.5,M,24.6,M,,*59
367: $GPGGA,143853.00,5345.85967,N,02809.89798,E,1,11,0.87,178.6,M,24.6,M,,*55
368: $GPGGA,143854.00,5345.85879,N,02809.91900,E,1,11,0.87,178.7,M,24.6,M,,*5B
369: $GPGGA,143855.00,5345.85786,N,02809.94017,E,1,11,0.87,178.8,M,24.6,M,,*50
370: $GPGGA,143856.00,5345.85685,N,02809.96140,E,1,11,0.87,178.8,M,24.6,M,,*50
371: $GPGGA,143857.00,5345.85578,N,02809.98263,E,1,11,0.87,178.8,M,24.6,M,,*5C
372: $GPGGA,143858.00,5345.85475,N,02810.00389,E,1,11,0.87,178.9,M,24.6,M,,*52
373: $GPGGA,143859.00,5345.85387,N,02810.02516,E,1,11,0.87,178.8,M,24.6,M,,*5A
374: $GPGGA,143900.00,5345.85317,N,02810.04648,E,1,11,0.87,178.7,M,24.6,M,,*5F
375: $GPGGA,143901.00,5345.85259,N,02810.06802,E,1,11,0.87,178.8,M,24.6,M,,*58
376: $GPGGA,143902.00,5345.85218,N,02810.08988,E,1,11,0.87,178.7,M,24.6,M,,*5C
377: $GPGGA,143903.00,5345.85190,N,02810.11203,E,1,11,0.87,178.6,M,24.6,M,,*5F
378: $GPGGA,143904.00,5345.85170,N,02810.13448,E,1,11,0.87,178.3,M,24.6,M,,*58
379: $GPGGA,143905.00,5345.85147,N,02810.15719,E,1,11,0.87,178.2,M,24.6,M,,*5D
380: $GPGGA,143906.00,5345.85128,N,02810.18020,E,1,11,0.87,177.9,M,24.5,M,,*50
381: $GPGGA,143907.00,5345.85105,N,02810.20357,E,1,11,0.87,177.7,M,24.5,M,,*58
382: $GPGGA,143908.00,5345.85086,N,02810.22716,E,1,11,0.87,177.5,M,24.5,M,,*5C
383: $GPGGA,143909.00,5345.85074,N,02810.25106,E,1,11,0.87,177.1,M,24.5,M,,*54
383: $GPGGA,143910.00,5345.85065,N,02810.27525,E,1,11,0.87,176.8,M,24.5,M,,*53
384: $GPGGA,143911.00,5345.85063,N,02810.29972,E,1,11,0.87,176.4,M,24.5,M,,*58
385: $GPGGA,143912.00,5345.85064,N,02810.32440,E,1,11,0.87,176.1,M,24.5,M,,*5F
386: $GPGGA,143913.00,5345.85074,N,02810.34923,E,1,11,0.87,175.8,M,24.5,M,,*5B
387: $GPGGA,143914.00,5345.85107,N,02810.37414,E,1,11,0.87,175.6,M,24.5,M,,*5D
388: $GPGGA,143915.00,5345.85164,N,02810.39922,E,1,11,0.87,175.4,M,24.5,M,,*5D
389: $GPGGA,143916.00,5345.85240,N,02810.42439,E,1,11,0.87,175.2,M,24.5,M,,*56
390: $GPGGA,143917.00,5345.85327,N,02810.44951,E,1,11,0.87,175.0,M,24.5,M,,*50
391: $GPGGA,143918.00,5345.85427,N,02810.47468,E,1,11,0.87,174.9,M,24.5,M,,*54
392: $GPGGA,143919.00,5345.85535,N,02810.49999,E,1,11,0.87,175.0,M,24.5,M,,*52
393: $GPGGA,143920.00,5345.85670,N,02810.52507,E,1,11,0.87,174.9,M,24.5,M,,*53
394: $GPGGA,143921.00,5345.85815,N,02810.55030,E,1,11,0.87,174.9,M,24.5,M,,*59
395: $GPGGA,143922.00,5345.85983,N,02810.57558,E,1,11,0.87,175.0,M,24.5,M,,*55
396: $GPGGA,143923.00,5345.86187,N,02810.60098,E,1,11,0.87,175.0,M,24.5,M,,*56
397: $GPGGA,143924.00,5345.86428,N,02810.62645,E,1,11,0.90,175.4,M,24.5,M,,*57
397: $GPGGA,143925.00,5345.86694,N,02810.65202,E,1,10,0.90,175.7,M,24.5,M,,*51
398: $GPGGA,143926.00,5345.86966,N,02810.67782,E,1,11,0.87,175.9,M,24.5,M,,*56
399: $GPGGA,143927.00,5345.87247,N,02810.70383,E,1,11,0.87,176.2,M,24.5,M,,*55
400: $GPGGA,143928.00,5345.87531,N,02810.72994,E,1,11,0.87,176.8,M,24.5,M,,*58
401: $GPGGA,143929.00,5345.87821,N,02810.75616,E,1,11,0.87,177.2,M,24.5,M,,*5C
402: $GPGGA,143930.00,5345.88115,N,02810.78255,E,1,11,0.87,177.7,M,24.5,M,,*5E
403: $GPGGA,143931.00,5345.88412,N,02810.80893,E,1,10,0.94,178.2,M,24.5,M,,*53
404: $GPGGA,143932.00,5345.88707,N,02810.83541,E,1,11,0.94,178.6,M,24.5,M,,*53
405: $GPGGA,143933.00,5345.89004,N,02810.86201,E,1,11,0.94,179.0,M,24.5,M,,*56
406: $GPGGA,143934.00,5345.89298,N,02810.88871,E,1,11,0.94,179.4,M,24.5,M,,*51
407: $GPGGA,143935.00,5345.89590,N,02810.91548,E,1,11,0.94,179.9,M,24.5,M,,*5D
408: $GPGGA,143936.00,5345.89876,N,02810.94231,E,1,10,0.94,180.4,M,24.5,M,,*5D
409: $GPGGA,143937.00,5345.90157,N,02810.96917,E,1,10,0.94,180.9,M,24.5,M,,*5E
410: $GPGGA,143938.00,5345.90432,N,02810.99613,E,1,10,0.94,181.4,M,24.5,M,,*5F
411: $GPGGA,143939.00,5345.90697,N,02811.02323,E,1,10,0.94,181.8,M,24.5,M,,*5A
411: $GPGGA,143940.00,5345.90951,N,02811.05048,E,1,10,0.94,182.2,M,24.5,M,,*51
412: $GPGGA,143941.00,5345.91188,N,02811.07781,E,1,11,0.87,182.5,M,24.5,M,,*59
413: $GPGGA,143942.00,5345.91398,N,02811.10532,E,1,10,0.90,182.6,M,24.5,M,,*51
414: $GPGGA,143943.00,5345.91566,N,02811.13293,E,1,11,0.90,182.9,M,24.5,M,,*56
415: $GPGGA,143944.00,5345.91705,N,02811.16076,E,1,11,0.90,183.0,M,24.5,M,,*52
416: $GPGGA,143945.00,5345.91825,N,02811.18861,E,1,11,0.87,183.1,M,24.5,M,,*59
417: $GPGGA,143946.00,5345.91926,N,02811.21635,E,1,11,0.90,183.5,M,24.5,M,,*5F
418: $GPGGA,143947.00,5345.92019,N,02811.24424,E,1,11,0.87,183.6,M,24.5,M,,*5A
419: $GPGGA,143948.00,5345.92103,N,02811.27218,E,1,11,0.87,183.7,M,24.5,M,,*54
420: $GPGGA,143949.00,5345.92177,N,02811.30034,E,1,11,0.87,183.6,M,24.5,M,,*5D
421: $GPGGA,143950.00,5345.92231,N,02811.32845,E,1,11,0.87,183.7,M,24.5,M,,*59
422: $GPGGA,143951.00,5345.92273,N,02811.35660,E,1,11,0.87,183.9,M,24.5,M,,*5E
423: $GPGGA,143952.00,5345.92308,N,02811.38453,E,1,11,0.87,184.3,M,24.5,M,,*52
424: $GPGGA,143953.00,5345.92315,N,02811.41249,E,1,11,0.87,184.5,M,24.5,M,,*5A
425: $GPGGA,143954.00,5345.92293,N,02811.44063,E,1,11,0.87,184.7,M,24.5,M,,*5F
426: $GPGGA,143955.00,5345.92249,N,02811.46887,E,1,11,0.87,185.6,M,24.5,M,,*59
427: $GPGGA,143956.00,5345.92190,N,02811.49711,E,1,11,0.87,186.2,M,24.5,M,,*55
428: $GPGGA,143957.00,5345.92114,N,02811.52526,E,1,11,0.87,186.6,M,24.5,M,,*50
429: $GPGGA,143958.00,5345.92016,N,02811.55326,E,1,11,0.87,187.2,M,24.5,M,,*58
430: $GPGGA,143959.00,5345.91912,N,02811.58126,E,1,11,0.87,187.6,M,24.5,M,,*5C
430: $GPGGA,144000.00,5345.91791,N,02811.60905,E,1,11,0.87,188.0,M,24.5,M,,*50
431: $GPGGA,144001.00,5345.91659,N,02811.63667,E,1,11,0.87,188.4,M,24.5,M,,*58
432: $GPGGA,144002.00,5345.91512,N,02811.66411,E,1,11,0.87,188.6,M,24.5,M,,*53
433: $GPGGA,144003.00,5345.91346,N,02811.69132,E,1,11,0.87,188.8,M,24.5,M,,*50
434: $GPGGA,144004.00,5345.91185,N,02811.71844,E,1,11,0.87,189.0,M,24.5,M,,*52
435: $GPGGA,144005.00,5345.91036,N,02811.74556,E,1,11,0.87,189.4,M,24.5,M,,*55
436: $GPGGA,144006.00,5345.90887,N,02811.77261,E,1,11,0.87,189.5,M,24.5,M,,*54
437: $GPGGA,144007.00,5345.90730,N,02811.79965,E,1,11,0.87,189.7,M,24.5,M,,*55
438: $GPGGA,144008.00,5345.90572,N,02811.82673,E,1,11,0.87,189.9,M,24.5,M,,*5C
439: $GPGGA,144009.00,5345.90417,N,02811.85383,E,1,11,0.87,190.2,M,24.5,M,,*51
440: $GPGGA,144010.00,5345.90269,N,02811.88109,E,1,11,0.87,190.6,M,24.5,M,,*5F
441: $GPGGA,144011.00,5345.90112,N,02811.90847,E,1,11,0.87,190.8,M,24.5,M,,*55
442: $GPGGA,144012.00,5345.89953,N,02811.93587,E,1,11,0.87,191.0,M,24.5,M,,*58
443: $GPGGA,144013.00,5345.89794,N,02811.96336,E,1,11,0.87,191.3,M,24.5,M,,*56
443: $GPGGA,144014.00,5345.89648,N,02811.99103,E,1,11,0.87,191.5,M,24.5,M,,*5C
444: $GPGGA,144015.00,5345.89523,N,02812.01897,E,1,11,0.87,191.8,M,24.5,M,,*58
445: $GPGGA,144016.00,5345.89407,N,02812.04707,E,1,11,0.87,192.2,M,24.5,M,,*56
446: $GPGGA,144017.00,5345.89276,N,02812.07527,E,1,11,0.87,192.4,M,24.5,M,,*52
447: $GPGGA,144018.00,5345.89129,N,02812.10355,E,1,11,0.87,192.7,M,24.5,M,,*52
448: $GPGGA,144019.00,5345.88972,N,02812.13203,E,1,11,0.87,192.9,M,24.5,M,,*5B
449: $GPGGA,144020.00,5345.88811,N,02812.16060,E,1,11,0.87,193.1,M,24.5,M,,*5E
450: $GPGGA,144021.00,5345.88650,N,02812.18920,E,1,11,0.87,193.3,M,24.5,M,,*55
451: $GPGGA,144022.00,5345.88487,N,02812.21780,E,1,11,0.87,193.4,M,24.5,M,,*57
452: $GPGGA,144023.00,5345.88321,N,02812.24639,E,1,11,0.87,193.5,M,24.5,M,,*5A
453: $GPGGA,144024.00,5345.88156,N,02812.27491,E,1,11,0.87,193.6,M,24.5,M,,*5F
454: $GPGGA,144025.00,5345.87989,N,02812.30346,E,1,11,0.87,193.6,M,24.5,M,,*50
455: $GPGGA,144026.00,5345.87818,N,02812.33187,E,1,11,0.87,193.6,M,24.5,M,,*56
456: $GPGGA,144027.00,5345.87644,N,02812.36007,E,1,11,0.87,193.5,M,24.5,M,,*5F
457: $GPGGA,144028.00,5345.87476,N,02812.38779,E,1,11,0.87,193.5,M,24.5,M,,*53
458: $GPGGA,144029.00,5345.87329,N,02812.41485,E,1,11,0.87,192.9,M,24.5,M,,*5C
458: $GPGGA,144030.00,5345.87189,N,02812.44110,E,1,11,0.87,192.4,M,24.5,M,,*5D
459: $GPGGA,144031.00,5345.87051,N,02812.46650,E,1,11,0.87,192.1,M,24.5,M,,*5C
460: $GPGGA,144032.00,5345.86908,N,02812.49130,E,1,11,0.87,192.0,M,24.5,M,,*54
461: $GPGGA,144033.00,5345.86758,N,02812.51536,E,1,11,0.87,192.1,M,24.5,M,,*54
462: $GPGGA,144034.00,5345.86574,N,02812.53946,E,1,11,0.94,193.4,M,24.5,M,,*50
463: $GPGGA,144035.00,5345.86430,N,02812.56275,E,1,11,0.94,193.3,M,24.5,M,,*59
464: $GPGGA,144036.00,5345.86294,N,02812.58567,E,1,11,0.94,193.1,M,24.5,M,,*5A
465: $GPGGA,144037.00,5345.86158,N,02812.60876,E,1,11,0.87,192.9,M,24.5,M,,*55
466: $GPGGA,144038.00,5345.86028,N,02812.63192,E,1,11,0.87,192.5,M,24.5,M,,*50
467: $GPGGA,144039.00,5345.85906,N,02812.65520,E,1,11,0.87,192.4,M,24.5,M,,*5D
468: $GPGGA,144040.00,5345.85786,N,02812.67868,E,1,11,0.87,191.9,M,24.5,M,,*58
469: $GPGGA,144041.00,5345.85656,N,02812.70213,E,1,11,0.87,191.5,M,24.5,M,,*59
470: $GPGGA,144042.00,5345.85513,N,02812.72569,E,1,11,0.87,191.0,M,24.5,M,,*55
471: $GPGGA,144043.00,5345.85371,N,02812.74932,E,1,11,0.87,190.7,M,24.5,M,,*54
471: $GPGGA,144044.00,5345.85222,N,02812.77306,E,1,11,0.87,190.4,M,24.5,M,,*59
472: $GPGGA,144045.00,5345.85071,N,02812.79693,E,1,11,0.87,189.9,M,24.5,M,,*5E
473: $GPGGA,144046.00,5345.84921,N,02812.82061,E,1,11,0.87,189.4,M,24.5,M,,*52
474: $GPGGA,144047.00,5345.84780,N,02812.84386,E,1,11,0.87,189.0,M,24.5,M,,*5E
475: $GPGGA,144048.00,5345.84647,N,02812.86664,E,1,11,0.87,188.8,M,24.5,M,,*59
476: $GPGGA,144049.00,5345.84510,N,02812.88896,E,1,11,0.87,188.3,M,24.5,M,,*5F
477: $GPGGA,144050.00,5345.84389,N,02812.91123,E,1,11,0.87,188.1,M,24.5,M,,*5C
478: $GPGGA,144051.00,5345.84263,N,02812.93347,E,1,11,0.87,187.9,M,24.5,M,,*5D
479: $GPGGA,144052.00,5345.84129,N,02812.95579,E,1,11,0.87,187.5,M,24.5,M,,*52
480: $GPGGA,144053.00,5345.83985,N,02812.97823,E,1,11,0.87,186.9,M,24.5,M,,*57
481: $GPGGA,144054.00,5345.83823,N,02813.00077,E,1,11,0.87,186.4,M,24.5,M,,*56
482: $GPGGA,144055.00,5345.83649,N,02813.02332,E,1,11,0.87,186.1,M,24.5,M,,*50
483: $GPGGA,144056.00,5345.83476,N,02813.04572,E,1,11,0.87,185.8,M,24.5,M,,*53
484: $GPGGA,144057.00,5345.83279,N,02813.06826,E,1,11,0.87,185.6,M,24.5,M,,*5B
484: $GPGGA,144058.00,5345.83047,N,02813.09051,E,1,11,0.87,185.3,M,24.5,M,,*59
485: $GPGGA,144059.00,5345.82793,N,02813.11261,E,1,11,0.87,185.1,M,24.5,M,,*5D
486: $GPGGA,144100.00,5345.82512,N,02813.13490,E,1,11,0.87,185.0,M,24.5,M,,*50
487: $GPGGA,144101.00,5345.82232,N,02813.15692,E,1,11,0.87,184.6,M,24.5,M,,*55
488: $GPGGA,144102.00,5345.81923,N,02813.17873,E,1,11,0.87,183.8,M,24.5,M,,*54
489: $GPGGA,144103.00,5345.81561,N,02813.20063,E,1,11,0.87,183.5,M,24.5,M,,*5F
490: $GPGGA,144104.00,5345.81158,N,02813.22233,E,1,11,0.87,183.1,M,24.5,M,,*57
491: $GPGGA,144105.00,5345.80758,N,02813.24420,E,1,11,0.87,182.9,M,24.5,M,,*5A
492: $GPGGA,144106.00,5345.80359,N,02813.26619,E,1,11,0.87,182.9,M,24.5,M,,*56
493: $GPGGA,144107.00,5345.79959,N,02813.28806,E,1,11,0.87,182.8,M,24.5,M,,*54
494: $GPGGA,144108.00,5345.79567,N,02813.30978,E,1,11,0.87,182.5,M,24.5,M,,*56
495: $GPGGA,144109.00,5345.79163,N,02813.33131,E,1,11,0.87,181.9,M,24.5,M,,*5E
496: $GPGGA,144110.00,5345.78740,N,02813.35287,E,1,11,0.87,182.0,M,24.5,M,,*52
497: $GPGGA,144111.00,5345.78306,N,02813.37429,E,1,11,0.87,181.9,M,24.5,M,,*5F
498: $GPGGA,144112.00,5345.77871,N,02813.39564,E,1,11,0.87,182.2,M,24.5,M,,*56
499: $GPGGA,144113.00,5345.77418,N,02813.41668,E,1,11,0.86,182.1,M,24.5,M,,*56
499: $GPGGA,144114.00,5345.76968,N,02813.43800,E,1,11,0.86,182.1,M,24.5,M,,*58
500: $GPGGA,144115.00,5345.76489,N,02813.45906,E,1,11,0.86,182.5,M,24.5,M,,*5E
501: $GPGGA,144116.00,5345.75998,N,02813.48043,E,1,11,0.86,182.9,M,24.5,M,,*5A
502: $GPGGA,144117.00,5345.75503,N,02813.50220,E,1,11,0.86,182.5,M,24.5,M,,*57
503: $GPGGA,144118.00,5345.74963,N,02813.52377,E,1,11,0.86,182.6,M,24.5,M,,*51
504: $GPGGA,144119.00,5345.74377,N,02813.54508,E,1,11,0.86,182.4,M,24.5,M,,*55
505: $GPGGA,144120.00,5345.73760,N,02813.56658,E,1,11,0.86,182.5,M,24.5,M,,*5F
506: $GPGGA,144121.00,5345.73115,N,02813.58817,E,1,11,0.86,182.4,M,24.5,M,,*50
507: $GPGGA,144122.00,5345.72445,N,02813.60992,E,1,11,0.86,182.3,M,24.5,M,,*52
508: $GPGGA,144123.00,5345.71755,N,02813.63170,E,1,11,0.86,181.6,M,24.5,M,,*53
509: $GPGGA,144124.00,5345.71043,N,02813.65404,E,1,11,0.86,181.5,M,24.5,M,,*57
510: $GPGGA,144125.00,5345.70299,N,02813.67640,E,1,10,0.94,181.4,M,24.5,M,,*51
511: $GPGGA,144126.00,5345.69533,N,02813.69890,E,1,10,0.94,181.1,M,24.5,M,,*55
512: $GPGGA,144127.00,5345.68724,N,02813.72134,E,1,10,0.94,181.1,M,24.5,M,,*5C
513: $GPGGA,144128.00,5345.67893,N,02813.74359,E,1,10,0.94,180.8,M,24.5,M,,*58
514: $GPGGA,144129.00,5345.67029,N,02813.76592,E,1,10,0.94,180.6,M,24.5,M,,*5D
514: $GPGGA,144130.00,5345.66140,N,02813.78812,E,1,10,0.94,180.5,M,24.5,M,,*52
515: $GPGGA,144131.00,5345.65231,N,02813.81018,E,1,10,0.94,180.5,M,24.5,M,,*51
516: $GPGGA,144132.00,5345.64291,N,02813.83193,E,1,10,0.94,180.0,M,24.5,M,,*5C
517: $GPGGA,144133.00,5345.63327,N,02813.85351,E,1,10,0.94,179.3,M,24.5,M,,*59
518: $GPGGA,144134.00,5345.62351,N,02813.87503,E,1,10,0.94,179.2,M,24.5,M,,*5C
519: $GPGGA,144135.00,5345.61368,N,02813.89648,E,1,10,0.94,179.1,M,24.5,M,,*55
520: $GPGGA,144136.00,5345.60352,N,02813.91771,E,1,10,0.94,178.6,M,24.5,M,,*5A
521: $GPGGA,144137.00,5345.59318,N,02813.93888,E,1,10,0.94,177.7,M,24.5,M,,*5A
522: $GPGGA,144138.00,5345.58254,N,02813.96003,E,1,10,0.94,177.4,M,24.5,M,,*50
523: $GPGGA,144139.00,5345.57188,N,02813.98098,E,1,09,0.95,177.0,M,24.5,M,,*5D
524: $GPGGA,144140.00,5345.56117,N,02814.00195,E,1,09,0.95,176.2,M,24.5,M,,*5D
525: $GPGGA,144141.00,5345.55032,N,02814.02296,E,1,08,1.03,175.5,M,24.5,M,,*50
526: $GPGGA,144142.00,5345.53952,N,02814.04397,E,1,09,1.03,174.8,M,24.5,M,,*51
527: $GPGGA,144143.00,5345.52891,N,02814.06532,E,1,09,1.03,173.8,M,24.5,M,,*53
528: $GPGGA,144144.00,5345.51838,N,02814.08657,E,1,10,0.95,173.0,M,24.5,M,,*54
529: $GPGGA,144145.00,5345.50775,N,02814.10757,E,1,10,0.95,172.4,M,24.5,M,,*5F
530: $GPGGA,144146.00,5345.49693,N,02814.12848,E,1,10,0.89,171.9,M,24.5,M,,*5D
530: $GPGGA,144147.00,5345.48627,N,02814.14931,E,1,10,0.89,171.6,M,24.5,M,,*54
531: $GPGGA,144148.00,5345.47571,N,02814.17006,E,1,10,0.89,171.6,M,24.5,M,,*5A
532: $GPGGA,144149.00,5345.46514,N,02814.19075,E,1,10,0.89,171.2,M,24.5,M,,*57
533: $GPGGA,144150.00,5345.45450,N,02814.21137,E,1,11,0.89,170.9,M,24.5,M,,*5A
534: $GPGGA,144151.00,5345.44387,N,02814.23192,E,1,11,0.89,170.8,M,24.5,M,,*5B
535: $GPGGA,144152.00,5345.43321,N,02814.25258,E,1,11,0.89,171.0,M,24.5,M,,*59
536: $GPGGA,144153.00,5345.42256,N,02814.27324,E,1,11,0.86,171.3,M,24.5,M,,*5C
537: $GPGGA,144154.00,5345.41190,N,02814.29390,E,1,11,0.86,171.3,M,24.5,M,,*50
538: $GPGGA,144155.00,5345.40127,N,02814.31470,E,1,11,0.86,171.5,M,24.5,M,,*5A
539: $GPGGA,144156.00,5345.39064,N,02814.33558,E,1,11,0.86,171.8,M,24.5,M,,*55
540: $GPGGA,144157.00,5345.38008,N,02814.35652,E,1,11,0.86,171.9,M,24.5,M,,*51
541: $GPGGA,144158.00,5345.36948,N,02814.37749,E,1,11,0.86,172.0,M,24.5,M,,*5E
542: $GPGGA,144159.00,5345.35888,N,02814.39842,E,1,11,0.86,172.0,M,24.5,M,,*5B
543: $GPGGA,144200.00,5345.34832,N,02814.41937,E,1,11,0.86,172.5,M,24.5,M,,*5D
544: $GPGGA,144201.00,5345.33773,N,02814.44039,E,1,11,0.86,172.5,M,24.5,M,,*53
544: $GPGGA,144202.00,5345.32720,N,02814.46146,E,1,10,0.94,172.7,M,24.5,M,,*5C
545: $GPGGA,144203.00,5345.31662,N,02814.48254,E,1,10,0.94,172.9,M,24.5,M,,*59
546: $GPGGA,144204.00,5345.30590,N,02814.50353,E,1,10,0.94,172.8,M,24.5,M,,*5F
547: $GPGGA,144205.00,5345.29531,N,02814.52470,E,1,10,0.94,172.8,M,24.5,M,,*59
548: $GPGGA,144206.00,5345.28460,N,02814.54565,E,1,10,0.94,172.7,M,24.5,M,,*52
549: $GPGGA,144207.00,5345.27431,N,02814.56703,E,1,10,0.94,173.1,M,24.5,M,,*5F
550: $GPGGA,144208.00,5345.26419,N,02814.58862,E,1,10,0.94,173.2,M,24.5,M,,*5E
551: $GPGGA,144209.00,5345.25421,N,02814.61043,E,1,11,0.94,173.7,M,24.5,M,,*52
552: $GPGGA,144210.00,5345.24455,N,02814.63237,E,1,11,0.94,173.8,M,24.5,M,,*54
553: $GPGGA,144211.00,5345.23506,N,02814.65455,E,1,11,0.94,174.6,M,24.5,M,,*58
554: $GPGGA,144212.00,5345.22588,N,02814.67698,E,1,11,0.94,175.6,M,24.5,M,,*5C
555: $GPGGA,144213.00,5345.21671,N,02814.69958,E,1,11,0.94,176.2,M,24.5,M,,*51
556: $GPGGA,144214.00,5345.20748,N,02814.72220,E,1,11,0.94,176.3,M,24.5,M,,*53
557: $GPGGA,144215.00,5345.19852,N,02814.74501,E,1,11,0.94,177.1,M,24.5,M,,*5D
558: $GPGGA,144216.00,5345.18947,N,02814.76789,E,1,11,0.86,177.9,M,24.5,M,,*51
559: $GPGGA,144217.00,5345.18066,N,02814.79092,E,1,11,0.86,178.4,M,24.5,M,,*5A
560: $GPGGA,144218.00,5345.17216,N,02814.81434,E,1,11,0.86,178.6,M,24.5,M,,*52
561: $GPGGA,144219.00,5345.16385,N,02814.83799,E,1,11,0.86,178.7,M,24.5,M,,*5E
562: $GPGGA,144220.00,5345.15550,N,02814.86165,E,1,11,0.86,178.8,M,24.5,M,,*56
563: $GPGGA,144221.00,5345.14721,N,02814.88531,E,1,11,0.86,178.5,M,24.5,M,,*54
