0: $GPGLL,5345.56943,N,02759.94574,E,143222.00,A,A*65
1: $GPGLL,5345.56915,N,02759.97100,E,143223.00,A,A*63
2: $GPGLL,5345.56893,N,02759.99636,E,143224.00,A,A*67
3: $GPGLL,5345.56875,N,02800.02167,E,143225.00,A,A*6C
4: $GPGLL,5345.56859,N,02800.04694,E,143226.00,A,A*6C
5: $GPGLL,5345.56841,N,02800.07225,E,143227.00,A,A*69
6: $GPGLL,5345.56823,N,02800.09759,E,143228.00,A,A*62
7: $GPGLL,5345.56806,N,02800.12289,E,143229.00,A,A*66
8: $GPGLL,5345.56792,N,02800.14817,E,143230.00,A,A*67
9: $GPGLL,5345.56780,N,02800.17337,E,143231.00,A,A*6F
10: $GPGLL,5345.56768,N,02800.19860,E,143232.00,A,A*6D
11: $GPGLL,5345.56755,N,02800.22382,E,143233.00,A,A*6D
12: $GPGLL,5345.56738,N,02800.24917,E,143234.00,A,A*61
12: $GPGLL,5345.56721,N,02800.27461,E,143235.00,A,A*67
13: $GPGLL,5345.56719,N,02800.30023,E,143236.00,A,A*6B
14: $GPGLL,5345.56714,N,02800.32599,E,143237.00,A,A*61
15: $GPGLL,5345.56700,N,02800.35186,E,143238.00,A,A*66
16: $GPGLL,5345.56687,N,02800.37788,E,143239.00,A,A*63
17: $GPGLL,5345.56669,N,02800.40408,E,143240.00,A,A*66
18: $GPGLL,5345.56657,N,02800.43035,E,143241.00,A,A*63
19: $GPGLL,5345.56641,N,02800.45676,E,143242.00,A,A*60
20: $GPGLL,5345.56623,N,02800.48333,E,143243.00,A,A*6C
21: $GPGLL,5345.56607,N,02800.51000,E,143244.00,A,A*66
22: $GPGLL,5345.56593,N,02800.53689,E,143245.00,A,A*6C
23: $GPGLL,5345.56578,N,02800.56389,E,143246.00,A,A*6A
24: $GPGLL,5345.56557,N,02800.59097,E,143247.00,A,A*65
25: $GPGLL,5345.56534,N,02800.61819,E,143248.00,A,A*6A
26: $GPGLL,5345.56508,N,02800.64547,E,143249.00,A,A*67
27: $GPGLL,5345.56485,N,02800.67289,E,143250.00,A,A*6D
28: $GPGLL,5345.56461,N,02800.70032,E,143251.00,A,A*62
29: $GPGLL,5345.56437,N,02800.72772,E,143252.00,A,A*63
30: $GPGLL,5345.56417,N,02800.75515,E,143253.00,A,A*64
31: $GPGLL,5345.56400,N,02800.78258,E,143254.00,A,A*66
32: $GPGLL,5345.56386,N,02800.81002,E,143255.00,A,A*65
33: $GPGLL,5345.56371,N,02800.83734,E,143256.00,A,A*6E
33: $GPGLL,5345.56355,N,02800.86470,E,143257.00,A,A*6F
34: $GPGLL,5345.56338,N,02800.89207,E,143258.00,A,A*62
35: $GPGLL,5345.56321,N,02800.91942,E,143259.00,A,A*68
36: $GPGLL,5345.56301,N,02800.94668,E,143300.00,A,A*65
37: $GPGLL,5345.56281,N,02800.97394,E,143301.00,A,A*68
38: $GPGLL,5345.56265,N,02801.00109,E,143302.00,A,A*68
39: $GPGLL,5345.56247,N,02801.02808,E,143303.00,A,A*63
40: $GPGLL,5345.56227,N,02801.05489,E,143304.00,A,A*60
41: $GPGLL,5345.56207,N,02801.08159,E,143305.00,A,A*66
42: $GPGLL,5345.56190,N,02801.10819,E,143306.00,A,A*6C
43: $GPGLL,5345.56171,N,02801.13476,E,143307.00,A,A*64
44: $GPGLL,5345.56151,N,02801.16129,E,143308.00,A,A*63
45: $GPGLL,5345.56132,N,02801.18781,E,143309.00,A,A*6D
46: $GPGLL,5345.56116,N,02801.21441,E,143310.00,A,A*66
47: $GPGLL,5345.56100,N,02801.24099,E,143311.00,A,A*64
48: $GPGLL,5345.56083,N,02801.26747,E,143312.00,A,A*6B
49: $GPGLL,5345.56069,N,02801.29400,E,143313.00,A,A*61
50: $GPGLL,5345.56055,N,02801.32052,E,143314.00,A,A*60
51: $GPGLL,5345.56042,N,02801.34715,E,143315.00,A,A*65
52: $GPGLL,5345.56025,N,02801.37383,E,143316.00,A,A*6F
53: $GPGLL,5345.56002,N,02801.40055,E,143317.00,A,A*63
53: $GPGLL,5345.55979,N,02801.42723,E,143318.00,A,A*6E
54: $GPGLL,5345.55951,N,02801.45390,E,143319.00,A,A*6E
55: $GPGLL,5345.55928,N,02801.48069,E,143320.00,A,A*62
56: $GPGLL,5345.55901,N,02801.50750,E,143321.00,A,A*6C
57: $GPGLL,5345.55881,N,02801.53454,E,143322.00,A,A*62
58: $GPGLL,5345.55874,N,02801.56163,E,143323.00,A,A*6D
59: $GPGLL,5345.55871,N,02801.58869,E,143324.00,A,A*62
60: $GPGLL,5345.55858,N,02801.61568,E,143325.00,A,A*6E
61: $GPGLL,5345.55831,N,02801.64241,E,143326.00,A,A*6B
62: $GPGLL,5345.55806,N,02801.66867,E,143327.00,A,A*62
63: $GPGLL,5345.55803,N,02801.69468,E,143328.00,A,A*64
64: $GPGLL,5345.55812,N,02801.72007,E,143329.00,A,A*62
65: $GPGLL,5345.55852,N,02801.74505,E,143330.00,A,A*6F
66: $GPGLL,5345.55911,N,02801.76959,E,143331.00,A,A*6F
67: $GPGLL,5345.55978,N,02801.79362,E,143332.00,A,A*6E
68: $GPGLL,5345.56044,N,02801.81680,E,143333.00,A,A*64
68: $GPGLL,5345.56120,N,02801.83948,E,143334.00,A,A*69
69: $GPGLL,5345.56214,N,02801.86168,E,143335.00,A,A*63
70: $GPGLL,5345.56318,N,02801.88354,E,143336.00,A,A*6E
71: $GPGLL,5345.56425,N,02801.90523,E,143337.00,A,A*69
72: $GPGLL,5345.56530,N,02801.92686,E,143338.00,A,A*6D
73: $GPGLL,5345.56643,N,02801.94852,E,143339.00,A,A*6A
74: $GPGLL,5345.56762,N,02801.97019,E,143340.00,A,A*62
75: $GPGLL,5345.56907,N,02801.99204,E,143341.00,A,A*6E
76: $GPGLL,5345.57069,N,02802.01406,E,143342.00,A,A*6B
77: $GPGLL,5345.57238,N,02802.03644,E,143343.00,A,A*6A
78: $GPGLL,5345.57414,N,02802.05923,E,143344.00,A,A*6D
79: $GPGLL,5345.57587,N,02802.08236,E,143345.00,A,A*65
80: $GPGLL,5345.57758,N,02802.10581,E,143346.00,A,A*64
81: $GPGLL,5345.57932,N,02802.12961,E,143347.00,A,A*67
82: $GPGLL,5345.58110,N,02802.15369,E,143348.00,A,A*6A
83: $GPGLL,5345.58299,N,02802.17807,E,143349.00,A,A*68
84: $GPGLL,5345.58491,N,02802.20272,E,143350.00,A,A*62
84: $GPGLL,5345.58683,N,02802.22769,E,143351.00,A,A*6F
85: $GPGLL,5345.58872,N,02802.25290,E,143352.00,A,A*68
86: $GPGLL,5345.59059,N,02802.27824,E,143353.00,A,A*6E
87: $GPGLL,5345.59247,N,02802.30366,E,143354.00,A,A*6F
88: $GPGLL,5345.59435,N,02802.32906,E,143355.00,A,A*63
89: $GPGLL,5345.59628,N,02802.35444,E,143356.00,A,A*62
90: $GPGLL,5345.59823,N,02802.37974,E,143357.00,A,A*6A
91: $GPGLL,5345.60017,N,02802.40502,E,143358.00,A,A*6D
92: $GPGLL,5345.60209,N,02802.43024,E,143359.00,A,A*63
93: $GPGLL,5345.60400,N,02802.45547,E,143400.00,A,A*61
94: $GPGLL,5345.60590,N,02802.48066,E,143401.00,A,A*63
95: $GPGLL,5345.60784,N,02802.50581,E,143402.00,A,A*62
96: $GPGLL,5345.60983,N,02802.53089,E,143403.00,A,A*64
97: $GPGLL,5345.61179,N,02802.55594,E,143404.00,A,A*60
98: $GPGLL,5345.61368,N,02802.58101,E,143405.00,A,A*66
99: $GPGLL,5345.61550,N,02802.60602,E,143406.00,A,A*67
100: $GPGLL,5345.61729,N,02802.63089,E,143407.00,A,A*6C
100: $GPGLL,5345.61908,N,02802.65564,E,143408.00,A,A*6E
101: $GPGLL,5345.62090,N,02802.68029,E,143409.00,A,A*65
102: $GPGLL,5345.62278,N,02802.70486,E,143410.00,A,A*61
103: $GPGLL,5345.62467,N,02802.72941,E,143411.00,A,A*6C
104: $GPGLL,5345.62656,N,02802.75396,E,143412.00,A,A*68
105: $GPGLL,5345.62847,N,02802.77856,E,143413.00,A,A*62
106: $GPGLL,5345.63041,N,02802.80324,E,143414.00,A,A*6C
107: $GPGLL,5345.63236,N,02802.82795,E,143415.00,A,A*63
108: $GPGLL,5345.63426,N,02802.85268,E,143416.00,A,A*67
109: $GPGLL,5345.63617,N,02802.87741,E,143417.00,A,A*6A
110: $GPGLL,5345.63805,N,02802.90222,E,143418.00,A,A*6E
111: $GPGLL,5345.63991,N,02802.92717,E,143419.00,A,A*62
112: $GPGLL,5345.64176,N,02802.95218,E,143420.00,A,A*63
113: $GPGLL,5345.64371,N,02802.97739,E,143421.00,A,A*63
114: $GPGLL,5345.64570,N,02803.00279,E,143422.00,A,A*69
114: $GPGLL,5345.64772,N,02803.02842,E,143423.00,A,A*68
115: $GPGLL,5345.64971,N,02803.05424,E,143424.00,A,A*69
116: $GPGLL,5345.65171,N,02803.08026,E,143425.00,A,A*6A
117: $GPGLL,5345.65374,N,02803.10651,E,143426.00,A,A*61
118: $GPGLL,5345.65574,N,02803.13294,E,143427.00,A,A*68
119: $GPGLL,5345.65772,N,02803.15956,E,143428.00,A,A*60
120: $GPGLL,5345.65974,N,02803.18638,E,143429.00,A,A*63
121: $GPGLL,5345.66179,N,02803.21337,E,143430.00,A,A*6D
122: $GPGLL,5345.66390,N,02803.24060,E,143431.00,A,A*6D
123: $GPGLL,5345.66604,N,02803.26799,E,143432.00,A,A*65
124: $GPGLL,5345.66817,N,02803.29549,E,143433.00,A,A*68
125: $GPGLL,5345.67028,N,02803.32310,E,143434.00,A,A*6A
126: $GPGLL,5345.67235,N,02803.35076,E,143435.00,A,A*61
127: $GPGLL,5345.67438,N,02803.37839,E,143436.00,A,A*68
128: $GPGLL,5345.67639,N,02803.40587,E,143437.00,A,A*62
129: $GPGLL,5345.67841,N,02803.43315,E,143438.00,A,A*62
130: $GPGLL,5345.68047,N,02803.46021,E,143439.00,A,A*63
130: $GPGLL,5345.68258,N,02803.48705,E,143440.00,A,A*6E
131: $GPGLL,5345.68467,N,02803.51380,E,143441.00,A,A*64
132: $GPGLL,5345.68675,N,02803.54054,E,143442.00,A,A*69
133: $GPGLL,5345.68882,N,02803.56734,E,143443.00,A,A*6D
134: $GPGLL,5345.69086,N,02803.59432,E,143444.00,A,A*6D
135: $GPGLL,5345.69288,N,02803.62133,E,143445.00,A,A*6C
136: $GPGLL,5345.69490,N,02803.64840,E,143446.00,A,A*6B
137: $GPGLL,5345.69694,N,02803.67555,E,143447.00,A,A*66
138: $GPGLL,5345.69902,N,02803.70279,E,143448.00,A,A*66
139: $GPGLL,5345.70111,N,02803.73010,E,143449.00,A,A*6B
140: $GPGLL,5345.70319,N,02803.75745,E,143450.00,A,A*68
141: $GPGLL,5345.70526,N,02803.78486,E,143451.00,A,A*62
142: $GPGLL,5345.70735,N,02803.81235,E,143452.00,A,A*69
143: $GPGLL,5345.70943,N,02803.83984,E,143453.00,A,A*64
144: $GPGLL,5345.71149,N,02803.86732,E,143454.00,A,A*66
145: $GPGLL,5345.71355,N,02803.89476,E,143455.00,A,A*64
146: $GPGLL,5345.71559,N,02803.92219,E,143456.00,A,A*68
147: $GPGLL,5345.71765,N,02803.94957,E,143457.00,A,A*63
148: $GPGLL,5345.71972,N,02803.97691,E,143458.00,A,A*62
149: $GPGLL,5345.72179,N,02804.00420,E,143459.00,A,A*62
150: $GPGLL,5345.72386,N,02804.03146,E,143500.00,A,A*6B
150: $GPGLL,5345.72596,N,02804.05869,E,143501.00,A,A*6F
151: $GPGLL,5345.72807,N,02804.08590,E,143502.00,A,A*6F
152: $GPGLL,5345.73018,N,02804.11313,E,143503.00,A,A*6C
153: $GPGLL,5345.73231,N,02804.14040,E,143504.00,A,A*62
154: $GPGLL,5345.73441,N,02804.16773,E,143505.00,A,A*67
155: $GPGLL,5345.73646,N,02804.19514,E,143506.00,A,A*6D
156: $GPGLL,5345.73849,N,02804.22260,E,143507.00,A,A*61
157: $GPGLL,5345.74055,N,02804.25009,E,143508.00,A,A*66
158: $GPGLL,5345.74265,N,02804.27764,E,143509.00,A,A*68
159: $GPGLL,5345.74477,N,02804.30525,E,143510.00,A,A*64
160: $GPGLL,5345.74691,N,02804.33291,E,143511.00,A,A*64
161: $GPGLL,5345.74906,N,02804.36066,E,143512.00,A,A*69
162: $GPGLL,5345.75119,N,02804.38847,E,143513.00,A,A*6A
163: $GPGLL,5345.75332,N,02804.41638,E,143514.00,A,A*6E
164: $GPGLL,5345.75542,N,02804.44435,E,143515.00,A,A*64
164: $GPGLL,5345.75753,N,02804.47236,E,143516.00,A,A*63
165: $GPGLL,5345.75965,N,02804.50038,E,143517.00,A,A*63
166: $GPGLL,5345.76176,N,02804.52838,E,143518.00,A,A*6F
167: $GPGLL,5345.76385,N,02804.55640,E,143519.00,A,A*66
168: $GPGLL,5345.76592,N,02804.58441,E,143520.00,A,A*62
169: $GPGLL,5345.76797,N,02804.61241,E,143521.00,A,A*68
170: $GPGLL,5345.77004,N,02804.64037,E,143522.00,A,A*61
171: $GPGLL,5345.77213,N,02804.66833,E,143523.00,A,A*6A
172: $GPGLL,5345.77427,N,02804.69627,E,143524.00,A,A*68
173: $GPGLL,5345.77661,N,02804.72416,E,143525.00,A,A*63
174: $GPGLL,5345.77911,N,02804.75203,E,143526.00,A,A*6D
175: $GPGLL,5345.78163,N,02804.77987,E,143527.00,A,A*6B
176: $GPGLL,5345.78404,N,02804.80776,E,143528.00,A,A*68
177: $GPGLL,5345.78637,N,02804.83562,E,143529.00,A,A*6F
177: $GPGLL,5345.78866,N,02804.86340,E,143530.00,A,A*6E
178: $GPGLL,5345.79088,N,02804.89106,E,143531.00,A,A*69
179: $GPGLL,5345.79305,N,02804.91860,E,143532.00,A,A*6C
180: $GPGLL,5345.79518,N,02804.94594,E,143533.00,A,A*64
181: $GPGLL,5345.79728,N,02804.97315,E,143534.00,A,A*6E
182: $GPGLL,5345.79935,N,02805.00019,E,143535.00,A,A*6D
183: $GPGLL,5345.80141,N,02805.02712,E,143536.00,A,A*6D
184: $GPGLL,5345.80342,N,02805.05397,E,143537.00,A,A*63
185: $GPGLL,5345.80538,N,02805.08079,E,143538.00,A,A*69
186: $GPGLL,5345.80732,N,02805.10756,E,143539.00,A,A*63
187: $GPGLL,5345.80922,N,02805.13426,E,143540.00,A,A*65
188: $GPGLL,5345.81103,N,02805.16074,E,143541.00,A,A*68
189: $GPGLL,5345.81263,N,02805.18705,E,143542.00,A,A*61
190: $GPGLL,5345.81389,N,02805.21309,E,143543.00,A,A*67
191: $GPGLL,5345.81469,N,02805.23896,E,143544.00,A,A*66
192: $GPGLL,5345.81513,N,02805.26469,E,143545.00,A,A*62
193: $GPGLL,5345.81541,N,02805.29024,E,143546.00,A,A*64
194: $GPGLL,5345.81560,N,02805.31558,E,143547.00,A,A*61
195: $GPGLL,5345.81585,N,02805.34068,E,143548.00,A,A*66
196: $GPGLL,5345.81618,N,02805.36548,E,143549.00,A,A*65
197: $GPGLL,5345.81649,N,02805.39004,E,143550.00,A,A*6B
197: $GPGLL,5345.81680,N,02805.41428,E,143551.00,A,A*6A
198: $GPGLL,5345.81714,N,02805.43821,E,143552.00,A,A*62
199: $GPGLL,5345.81748,N,02805.46212,E,143553.00,A,A*65
200: $GPGLL,5345.81782,N,02805.48598,E,143554.00,A,A*6F
201: $GPGLL,5345.81817,N,02805.50993,E,143555.00,A,A*63
202: $GPGLL,5345.81850,N,02805.53393,E,143556.00,A,A*6A
203: $GPGLL,5345.81867,N,02805.55790,E,143557.00,A,A*6E
204: $GPGLL,5345.81863,N,02805.58188,E,143558.00,A,A*67
205: $GPGLL,5345.81846,N,02805.60596,E,143559.00,A,A*61
206: $GPGLL,5345.81847,N,02805.63010,E,143600.00,A,A*67
207: $GPGLL,5345.81867,N,02805.65438,E,143601.00,A,A*6C
208: $GPGLL,5345.81901,N,02805.67895,E,143602.00,A,A*67
209: $GPGLL,5345.81939,N,02805.70381,E,143603.00,A,A*65
210: $GPGLL,5345.81989,N,02805.72908,E,143604.00,A,A*60
211: $GPGLL,5345.82024,N,02805.75459,E,143605.00,A,A*62
211: $GPGLL,5345.82052,N,02805.78048,E,143606.00,A,A*69
212: $GPGLL,5345.82076,N,02805.80665,E,143607.00,A,A*60
213: $GPGLL,5345.82107,N,02805.83312,E,143608.00,A,A*6E
214: $GPGLL,5345.82145,N,02805.85984,E,143609.00,A,A*6A
215: $GPGLL,5345.82185,N,02805.88681,E,143610.00,A,A*69
216: $GPGLL,5345.82228,N,02805.91398,E,143611.00,A,A*69
217: $GPGLL,5345.82269,N,02805.94130,E,143612.00,A,A*6A
218: $GPGLL,5345.82303,N,02805.96883,E,143613.00,A,A*65
219: $GPGLL,5345.82327,N,02805.99651,E,143614.00,A,A*6A
220: $GPGLL,5345.82345,N,02806.02430,E,143615.00,A,A*6B
221: $GPGLL,5345.82372,N,02806.05228,E,143616.00,A,A*64
222: $GPGLL,5345.82402,N,02806.08026,E,143617.00,A,A*64
223: $GPGLL,5345.82427,N,02806.10830,E,143618.00,A,A*6A
224: $GPGLL,5345.82447,N,02806.13641,E,143619.00,A,A*66
225: $GPGLL,5345.82470,N,02806.16449,E,143620.00,A,A*67
226: $GPGLL,5345.82498,N,02806.19259,E,143621.00,A,A*68
227: $GPGLL,5345.82528,N,02806.22055,E,143622.00,A,A*67
227: $GPGLL,5345.82555,N,02806.24848,E,143623.00,A,A*6E
228: $GPGLL,5345.82587,N,02806.27646,E,143624.00,A,A*65
229: $GPGLL,5345.82614,N,02806.30429,E,143625.00,A,A*60
230: $GPGLL,5345.82643,N,02806.33203,E,143626.00,A,A*6C
231: $GPGLL,5345.82676,N,02806.35964,E,143627.00,A,A*67
232: $GPGLL,5345.82710,N,02806.38712,E,143628.00,A,A*6B
233: $GPGLL,5345.82744,N,02806.41463,E,143629.00,A,A*60
234: $GPGLL,5345.82781,N,02806.44220,E,143630.00,A,A*65
235: $GPGLL,5345.82807,N,02806.46975,E,143631.00,A,A*6C
236: $GPGLL,5345.82835,N,02806.49751,E,143632.00,A,A*69
237: $GPGLL,5345.82861,N,02806.52540,E,143633.00,A,A*61
238: $GPGLL,5345.82884,N,02806.55335,E,143634.00,A,A*6E
239: $GPGLL,5345.82908,N,02806.58144,E,143635.00,A,A*63
240: $GPGLL,5345.82939,N,02806.60972,E,143636.00,A,A*64
241: $GPGLL,5345.82977,N,02806.63803,E,143637.00,A,A*6B
241: $GPGLL,5345.83019,N,02806.66633,E,143638.00,A,A*6C
242: $GPGLL,5345.83060,N,02806.69468,E,143639.00,A,A*60
243: $GPGLL,5345.83101,N,02806.72318,E,143640.00,A,A*62
244: $GPGLL,5345.83147,N,02806.75191,E,143641.00,A,A*65
245: $GPGLL,5345.83189,N,02806.78084,E,143642.00,A,A*6C
246: $GPGLL,5345.83224,N,02806.80977,E,143643.00,A,A*6B
247: $GPGLL,5345.83266,N,02806.83899,E,143644.00,A,A*68
248: $GPGLL,5345.83307,N,02806.86826,E,143645.00,A,A*6E
249: $GPGLL,5345.83347,N,02806.89769,E,143646.00,A,A*62
250: $GPGLL,5345.83383,N,02806.92728,E,143647.00,A,A*64
251: $GPGLL,5345.83424,N,02806.95705,E,143648.00,A,A*69
252: $GPGLL,5345.83469,N,02806.98691,E,143649.00,A,A*60
253: $GPGLL,5345.83510,N,02807.01686,E,143650.00,A,A*60
254: $GPGLL,5345.83551,N,02807.04699,E,143651.00,A,A*6F
255: $GPGLL,5345.83586,N,02807.07712,E,143652.00,A,A*67
256: $GPGLL,5345.83621,N,02807.10728,E,143653.00,A,A*67
257: $GPGLL,5345.83654,N,02807.13740,E,143654.00,A,A*6F
258: $GPGLL,5345.83686,N,02807.16743,E,143655.00,A,A*67
258: $GPGLL,5345.83721,N,02807.19729,E,143656.00,A,A*6B
259: $GPGLL,5345.83773,N,02807.22697,E,143657.00,A,A*61
260: $GPGLL,5345.83847,N,02807.25651,E,143658.00,A,A*6B
261: $GPGLL,5345.83925,N,02807.28596,E,143659.00,A,A*6A
262: $GPGLL,5345.83992,N,02807.31530,E,143700.00,A,A*6F
263: $GPGLL,5345.84047,N,02807.34457,E,143701.00,A,A*6D
264: $GPGLL,5345.84095,N,02807.37379,E,143702.00,A,A*69
265: $GPGLL,5345.84140,N,02807.40310,E,143703.00,A,A*6E
266: $GPGLL,5345.84187,N,02807.43203,E,143704.00,A,A*62
267: $GPGLL,5345.84233,N,02807.46038,E,143705.00,A,A*60
268: $GPGLL,5345.84275,N,02807.48795,E,143706.00,A,A*6F
269: $GPGLL,5345.84311,N,02807.51433,E,143707.00,A,A*6A
270: $GPGLL,5345.84341,N,02807.53919,E,143708.00,A,A*67
271: $GPGLL,5345.84366,N,02807.56254,E,143709.00,A,A*64
272: $GPGLL,5345.84386,N,02807.58458,E,143710.00,A,A*66
273: $GPGLL,5345.84407,N,02807.60599,E,143711.00,A,A*6E
273: $GPGLL,5345.84429,N,02807.62729,E,143712.00,A,A*6A
274: $GPGLL,5345.84454,N,02807.64860,E,143713.00,A,A*65
275: $GPGLL,5345.84481,N,02807.66997,E,143714.00,A,A*61
276: $GPGLL,5345.84504,N,02807.69139,E,143715.00,A,A*6F
277: $GPGLL,5345.84524,N,02807.71288,E,143716.00,A,A*6E
278: $GPGLL,5345.84543,N,02807.73454,E,143717.00,A,A*6B
279: $GPGLL,5345.84564,N,02807.75641,E,143718.00,A,A*61
280: $GPGLL,5345.84597,N,02807.77836,E,143719.00,A,A*60
281: $GPGLL,5345.84628,N,02807.80049,E,143720.00,A,A*65
282: $GPGLL,5345.84656,N,02807.82287,E,143721.00,A,A*6F
283: $GPGLL,5345.84683,N,02807.84547,E,143722.00,A,A*69
284: $GPGLL,5345.84698,N,02807.86829,E,143723.00,A,A*65
285: $GPGLL,5345.84706,N,02807.89126,E,143724.00,A,A*6D
286: $GPGLL,5345.84720,N,02807.91453,E,143725.00,A,A*66
287: $GPGLL,5345.84745,N,02807.93791,E,143726.00,A,A*69
288: $GPGLL,5345.84775,N,02807.96142,E,143727.00,A,A*66
289: $GPGLL,5345.84796,N,02807.98508,E,143728.00,A,A*60
289: $GPGLL,5345.84815,N,02808.00895,E,143729.00,A,A*62
290: $GPGLL,5345.84832,N,02808.03304,E,143730.00,A,A*6F
291: $GPGLL,5345.84848,N,02808.05736,E,143731.00,A,A*60
292: $GPGLL,5345.84861,N,02808.08190,E,143732.00,A,A*6F
293: $GPGLL,5345.84855,N,02808.10670,E,143733.00,A,A*69
294: $GPGLL,5345.84821,N,02808.13174,E,143734.00,A,A*6D
295: $GPGLL,5345.84778,N,02808.15702,E,143735.00,A,A*6E
296: $GPGLL,5345.84757,N,02808.18247,E,143736.00,A,A*69
297: $GPGLL,5345.84766,N,02808.20805,E,143737.00,A,A*6D
298: $GPGLL,5345.84794,N,02808.23394,E,143738.00,A,A*6F
299: $GPGLL,5345.84822,N,02808.26007,E,143739.00,A,A*60
300: $GPGLL,5345.84841,N,02808.28645,E,143740.00,A,A*65
301: $GPGLL,5345.84861,N,02808.31310,E,143741.00,A,A*6B
302: $GPGLL,5345.84882,N,02808.33995,E,143742.00,A,A*60
303: $GPGLL,5345.84906,N,02808.36712,E,143743.00,A,A*68
304: $GPGLL,5345.84927,N,02808.39452,E,143744.00,A,A*64
305: $GPGLL,5345.84954,N,02808.42209,E,143745.00,A,A*65
306: $GPGLL,5345.84983,N,02808.44981,E,143746.00,A,A*61
306: $GPGLL,5345.85014,N,02808.47765,E,143747.00,A,A*61
307: $GPGLL,5345.85043,N,02808.50567,E,143748.00,A,A*6A
308: $GPGLL,5345.85070,N,02808.53388,E,143749.00,A,A*6F
309: $GPGLL,5345.85096,N,02808.56225,E,143750.00,A,A*6C
310: $GPGLL,5345.85124,N,02808.59053,E,143751.00,A,A*69
311: $GPGLL,5345.85150,N,02808.61853,E,143752.00,A,A*6A
312: $GPGLL,5345.85174,N,02808.64620,E,143753.00,A,A*62
313: $GPGLL,5345.85199,N,02808.67345,E,143754.00,A,A*63
314: $GPGLL,5345.85228,N,02808.70026,E,143755.00,A,A*6B
315: $GPGLL,5345.85254,N,02808.72663,E,143756.00,A,A*66
316: $GPGLL,5345.85279,N,02808.75255,E,143757.00,A,A*6E
317: $GPGLL,5345.85301,N,02808.77802,E,143758.00,A,A*65
318: $GPGLL,5345.85325,N,02808.80305,E,143759.00,A,A*66
319: $GPGLL,5345.85348,N,02808.82771,E,143800.00,A,A*6B
320: $GPGLL,5345.85372,N,02808.85223,E,143801.00,A,A*66
320: $GPGLL,5345.85398,N,02808.87674,E,143802.00,A,A*65
321: $GPGLL,5345.85421,N,02808.90136,E,143803.00,A,A*66
322: $GPGLL,5345.85442,N,02808.92607,E,143804.00,A,A*63
323: $GPGLL,5345.85461,N,02808.95047,E,143805.00,A,A*66
324: $GPGLL,5345.85486,N,02808.97441,E,143806.00,A,A*6C
325: $GPGLL,5345.85515,N,02808.99783,E,143807.00,A,A*65
326: $GPGLL,5345.85540,N,02809.02077,E,143808.00,A,A*65
327: $GPGLL,5345.85568,N,02809.04332,E,143809.00,A,A*6A
328: $GPGLL,5345.85586,N,02809.06540,E,143810.00,A,A*63
329: $GPGLL,5345.85598,N,02809.08710,E,143811.00,A,A*64
330: $GPGLL,5345.85613,N,02809.10842,E,143812.00,A,A*66
331: $GPGLL,5345.85632,N,02809.12921,E,143813.00,A,A*62
332: $GPGLL,5345.85649,N,02809.14935,E,143814.00,A,A*6A
333: $GPGLL,5345.85666,N,02809.16875,E,143815.00,A,A*61
333: $GPGLL,5345.85679,N,02809.18734,E,143816.00,A,A*68
334: $GPGLL,5345.85689,N,02809.20540,E,143817.00,A,A*6C
335: $GPGLL,5345.85694,N,02809.22317,E,143818.00,A,A*69
336: $GPGLL,5345.85708,N,02809.24086,E,143819.00,A,A*61
337: $GPGLL,5345.85733,N,02809.25862,E,143820.00,A,A*60
338: $GPGLL,5345.85760,N,02809.27649,E,143821.00,A,A*62
339: $GPGLL,5345.85776,N,02809.29450,E,143822.00,A,A*62
340: $GPGLL,5345.85797,N,02809.31263,E,143823.00,A,A*63
341: $GPGLL,5345.85820,N,02809.33082,E,143824.00,A,A*68
342: $GPGLL,5345.85840,N,02809.34904,E,143825.00,A,A*6F
343: $GPGLL,5345.85855,N,02809.36725,E,143826.00,A,A*67
344: $GPGLL,5345.85869,N,02809.38538,E,143827.00,A,A*69
345: $GPGLL,5345.85886,N,02809.40345,E,143828.00,A,A*64
346: $GPGLL,5345.85900,N,02809.42148,E,143829.00,A,A*67
347: $GPGLL,5345.85913,N,02809.43949,E,143830.00,A,A*65
348: $GPGLL,5345.85928,N,02809.45742,E,143831.00,A,A*6F
348: $GPGLL,5345.85946,N,02809.47537,E,143832.00,A,A*66
349: $GPGLL,5345.85970,N,02809.49325,E,143833.00,A,A*69
350: $GPGLL,5345.85990,N,02809.51144,E,143834.00,A,A*6C
351: $GPGLL,5345.86011,N,02809.52998,E,143835.00,A,A*64
352: $GPGLL,5345.86037,N,02809.54878,E,143836.00,A,A*6A
353: $GPGLL,5345.86064,N,02809.56789,E,143837.00,A,A*6E
354: $GPGLL,5345.86090,N,02809.58727,E,143838.00,A,A*60
355: $GPGLL,5345.86113,N,02809.60696,E,143839.00,A,A*6B
356: $GPGLL,5345.86134,N,02809.62696,E,143840.00,A,A*62
357: $GPGLL,5345.86149,N,02809.64724,E,143841.00,A,A*67
358: $GPGLL,5345.86163,N,02809.66778,E,143842.00,A,A*67
359: $GPGLL,5345.86179,N,02809.68858,E,143843.00,A,A*6E
360: $GPGLL,5345.86199,N,02809.70952,E,143844.00,A,A*65
361: $GPGLL,5345.86222,N,02809.73048,E,143845.00,A,A*66
362: $GPGLL,5345.86245,N,02809.75144,E,143846.00,A,A*6F
362: $GPGLL,5345.86259,N,02809.77238,E,143847.00,A,A*69
363: $GPGLL,5345.86254,N,02809.79330,E,143848.00,A,A*6C
364: $GPGLL,5345.86236,N,02809.81416,E,143849.00,A,A*6D
365: $GPGLL,5345.86197,N,02809.83503,E,143850.00,A,A*6A
366: $GPGLL,5345.86126,N,02809.85604,E,143851.00,A,A*63
367: $GPGLL,5345.86050,N,02809.87697,E,143852.00,A,A*68
368: $GPGLL,5345.85967,N,02809.89798,E,143853.00,A,A*67
369: $GPGLL,5345.85879,N,02809.91900,E,143854.00,A,A*68
370: $GPGLL,5345.85786,N,02809.94017,E,143855.00,A,A*6C
371: $GPGLL,5345.85685,N,02809.96140,E,143856.00,A,A*6C
372: $GPGLL,5345.85578,N,02809.98263,E,143857.00,A,A*60
373: $GPGLL,5345.85475,N,02810.00389,E,143858.00,A,A*6F
374: $GPGLL,5345.85387,N,02810.02516,E,143859.00,A,A*66
375: $GPGLL,5345.85317,N,02810.04648,E,143900.00,A,A*6C
376: $GPGLL,5345.85259,N,02810.06802,E,143901.00,A,A*64
377: $GPGLL,5345.85218,N,02810.08988,E,143902.00,A,A*6F
378: $GPGLL,5345.85190,N,02810.11203,E,143903.00,A,A*6D
379: $GPGLL,5345.85170,N,02810.13448,E,143904.00,A,A*6F
379: $GPGLL,5345.85147,N,02810.15719,E,143905.00,A,A*6B
380: $GPGLL,5345.85128,N,02810.18020,E,143906.00,A,A*61
381: $GPGLL,5345.85105,N,02810.20357,E,143907.00,A,A*67
382: $GPGLL,5345.85086,N,02810.22716,E,143908.00,A,A*61
383: $GPGLL,5345.85074,N,02810.25106,E,143909.00,A,A*6D
384: $GPGLL,5345.85065,N,02810.27525,E,143910.00,A,A*62
385: $GPGLL,5345.85063,N,02810.29972,E,143911.00,A,A*65
386: $GPGLL,5345.85064,N,02810.32440,E,143912.00,A,A*67
387: $GPGLL,5345.85074,N,02810.34923,E,143913.00,A,A*69
388: $GPGLL,5345.85107,N,02810.37414,E,143914.00,A,A*61
389: $GPGLL,5345.85164,N,02810.39922,E,143915.00,A,A*63
390: $GPGLL,5345.85240,N,02810.42439,E,143916.00,A,A*6E
391: $GPGLL,5345.85327,N,02810.44951,E,143917.00,A,A*6A
392: $GPGLL,5345.85427,N,02810.47468,E,143918.00,A,A*66
393: $GPGLL,5345.85535,N,02810.49999,E,143919.00,A,A*68
394: $GPGLL,5345.85670,N,02810.52507,E,143920.00,A,A*61
394: $GPGLL,5345.85815,N,02810.55030,E,143921.00,A,A*6B
395: $GPGLL,5345.85983,N,02810.57558,E,143922.00,A,A*6F
396: $GPGLL,5345.86187,N,02810.60098,E,143923.00,A,A*6C
397: $GPGLL,5345.86428,N,02810.62645,E,143924.00,A,A*6F
398: $GPGLL,5345.86694,N,02810.65202,E,143925.00,A,A*6B
399: $GPGLL,5345.86966,N,02810.67782,E,143926.00,A,A*65
400: $GPGLL,5345.87247,N,02810.70383,E,143927.00,A,A*6E
401: $GPGLL,5345.87531,N,02810.72994,E,143928.00,A,A*69
402: $GPGLL,5345.87821,N,02810.75616,E,143929.00,A,A*66
403: $GPGLL,5345.88115,N,02810.78255,E,143930.00,A,A*61
404: $GPGLL,5345.88412,N,02810.80893,E,143931.00,A,A*65
405: $GPGLL,5345.88707,N,02810.83541,E,143932.00,A,A*60
406: $GPGLL,5345.89004,N,02810.86201,E,143933.00,A,A*62
406: $GPGLL,5345.89298,N,02810.88871,E,143934.00,A,A*61
407: $GPGLL,5345.89590,N,02810.91548,E,143935.00,A,A*60
408: $GPGLL,5345.89876,N,02810.94231,E,143936.00,A,A*6A
409: $GPGLL,5345.90157,N,02810.96917,E,143937.00,A,A*64
410: $GPGLL,5345.90432,N,02810.99613,E,143938.00,A,A*69
411: $GPGLL,5345.90697,N,02811.02323,E,143939.00,A,A*60
412: $GPGLL,5345.90951,N,02811.05048,E,143940.00,A,A*62
413: $GPGLL,5345.91188,N,02811.07781,E,143941.00,A,A*6E
414: $GPGLL,5345.91398,N,02811.10532,E,143942.00,A,A*62
415: $GPGLL,5345.91566,N,02811.13293,E,143943.00,A,A*6B
416: $GPGLL,5345.91705,N,02811.16076,E,143944.00,A,A*67
417: $GPGLL,5345.91825,N,02811.18861,E,143945.00,A,A*6B
418: $GPGLL,5345.91926,N,02811.21635,E,143946.00,A,A*6F
419: $GPGLL,5345.92019,N,02811.24424,E,143947.00,A,A*6F
420: $GPGLL,5345.92103,N,02811.27218,E,143948.00,A,A*60
421: $GPGLL,5345.92177,N,02811.30034,E,143949.00,A,A*68
422: $GPGLL,5345.92231,N,02811.32845,E,143950.00,A,A*6D
423: $GPGLL,5345.92273,N,02811.35660,E,143951.00,A,A*64
423: $GPGLL,5345.92308,N,02811.38453,E,143952.00,A,A*65
424: $GPGLL,5345.92315,N,02811.41249,E,143953.00,A,A*6B
425: $GPGLL,5345.92293,N,02811.44063,E,143954.00,A,A*6C
426: $GPGLL,5345.92249,N,02811.46887,E,143955.00,A,A*6A
427: $GPGLL,5345.92190,N,02811.49711,E,143956.00,A,A*61
428: $GPGLL,5345.92114,N,02811.52526,E,143957.00,A,A*60
429: $GPGLL,5345.92016,N,02811.55326,E,143958.00,A,A*6D
430: $GPGLL,5345.91912,N,02811.58126,E,143959.00,A,A*6D
431: $GPGLL,5345.91791,N,02811.60905,E,144000.00,A,A*68
432: $GPGLL,5345.91659,N,02811.63667,E,144001.00,A,A*64
433: $GPGLL,5345.91512,N,02811.66411,E,144002.00,A,A*6D
434: $GPGLL,5345.91346,N,02811.69132,E,144003.00,A,A*60
435: $GPGLL,5345.91185,N,02811.71844,E,144004.00,A,A*6B
436: $GPGLL,5345.91036,N,02811.74556,E,144005.00,A,A*68
437: $GPGLL,5345.90887,N,02811.77261,E,144006.00,A,A*68
438: $GPGLL,5345.90730,N,02811.79965,E,144007.00,A,A*6B
438: $GPGLL,5345.90572,N,02811.82673,E,144008.00,A,A*6C
439: $GPGLL,5345.90417,N,02811.85383,E,144009.00,A,A*62
440: $GPGLL,5345.90269,N,02811.88109,E,144010.00,A,A*68
441: $GPGLL,5345.90112,N,02811.90847,E,144011.00,A,A*6C
442: $GPGLL,5345.89953,N,02811.93587,E,144012.00,A,A*68
443: $GPGLL,5345.89794,N,02811.96336,E,144013.00,A,A*65
444: $GPGLL,5345.89648,N,02811.99103,E,144014.00,A,A*69
445: $GPGLL,5345.89523,N,02812.01897,E,144015.00,A,A*60
446: $GPGLL,5345.89407,N,02812.04707,E,144016.00,A,A*67
447: $GPGLL,5345.89276,N,02812.07527,E,144017.00,A,A*65
448: $GPGLL,5345.89129,N,02812.10355,E,144018.00,A,A*66
449: $GPGLL,5345.88972,N,02812.13203,E,144019.00,A,A*61
450: $GPGLL,5345.88811,N,02812.16060,E,144020.00,A,A*6D
451: $GPGLL,5345.88650,N,02812.18920,E,144021.00,A,A*64
452: $GPGLL,5345.88487,N,02812.21780,E,144022.00,A,A*61
453: $GPGLL,5345.88321,N,02812.24639,E,144023.00,A,A*6D
453: $GPGLL,5345.88156,N,02812.27491,E,144024.00,A,A*6B
454: $GPGLL,5345.87989,N,02812.30346,E,144025.00,A,A*64
455: $GPGLL,5345.87818,N,02812.33187,E,144026.00,A,A*62
456: $GPGLL,5345.87644,N,02812.36007,E,144027.00,A,A*68
457: $GPGLL,5345.87476,N,02812.38779,E,144028.00,A,A*64
458: $GPGLL,5345.87329,N,02812.41485,E,144029.00,A,A*66
459: $GPGLL,5345.87189,N,02812.44110,E,144030.00,A,A*6A
460: $GPGLL,5345.87051,N,02812.46650,E,144031.00,A,A*6E
461: $GPGLL,5345.86908,N,02812.49130,E,144032.00,A,A*67
462: $GPGLL,5345.86758,N,02812.51536,E,144033.00,A,A*66
463: $GPGLL,5345.86574,N,02812.53946,E,144034.00,A,A*64
464: $GPGLL,5345.86430,N,02812.56275,E,144035.00,A,A*6A
465: $GPGLL,5345.86294,N,02812.58567,E,144036.00,A,A*6B
466: $GPGLL,5345.86158,N,02812.60876,E,144037.00,A,A*6F
466: $GPGLL,5345.86028,N,02812.63192,E,144038.00,A,A*66
467: $GPGLL,5345.85906,N,02812.65520,E,144039.00,A,A*6A
468: $GPGLL,5345.85786,N,02812.67868,E,144040.00,A,A*61
469: $GPGLL,5345.85656,N,02812.70213,E,144041.00,A,A*6C
470: $GPGLL,5345.85513,N,02812.72569,E,144042.00,A,A*65
471: $GPGLL,5345.85371,N,02812.74932,E,144043.00,A,A*62
472: $GPGLL,5345.85222,N,02812.77306,E,144044.00,A,A*6C
473: $GPGLL,5345.85071,N,02812.79693,E,144045.00,A,A*6E
474: $GPGLL,5345.84921,N,02812.82061,E,144046.00,A,A*6F
475: $GPGLL,5345.84780,N,02812.84386,E,144047.00,A,A*67
476: $GPGLL,5345.84647,N,02812.86664,E,144048.00,A,A*69
477: $GPGLL,5345.84510,N,02812.88896,E,144049.00,A,A*64
478: $GPGLL,5345.84389,N,02812.91123,E,144050.00,A,A*65
479: $GPGLL,5345.84263,N,02812.93347,E,144051.00,A,A*63
479: $GPGLL,5345.84129,N,02812.95579,E,144052.00,A,A*60
480: $GPGLL,5345.83985,N,02812.97823,E,144053.00,A,A*68
481: $GPGLL,5345.83823,N,02813.00077,E,144054.00,A,A*64
482: $GPGLL,5345.83649,N,02813.02332,E,144055.00,A,A*67
483: $GPGLL,5345.83476,N,02813.04572,E,144056.00,A,A*6E
484: $GPGLL,5345.83279,N,02813.06826,E,144057.00,A,A*68
485: $GPGLL,5345.83047,N,02813.09051,E,144058.00,A,A*6F
486: $GPGLL,5345.82793,N,02813.11261,E,144059.00,A,A*69
487: $GPGLL,5345.82512,N,02813.13490,E,144100.00,A,A*65
488: $GPGLL,5345.82232,N,02813.15692,E,144101.00,A,A*67
489: $GPGLL,5345.81923,N,02813.17873,E,144102.00,A,A*6F
490: $GPGLL,5345.81561,N,02813.20063,E,144103.00,A,A*69
491: $GPGLL,5345.81158,N,02813.22233,E,144104.00,A,A*65
492: $GPGLL,5345.80758,N,02813.24420,E,144105.00,A,A*61
493: $GPGLL,5345.80359,N,02813.26619,E,144106.00,A,A*6D
494: $GPGLL,5345.79959,N,02813.28806,E,144107.00,A,A*6E
495: $GPGLL,5345.79567,N,02813.30978,E,144108.00,A,A*61
496: $GPGLL,5345.79163,N,02813.33131,E,144109.00,A,A*66
496: $GPGLL,5345.78740,N,02813.35287,E,144110.00,A,A*60
497: $GPGLL,5345.78306,N,02813.37429,E,144111.00,A,A*67
498: $GPGLL,5345.77871,N,02813.39564,E,144112.00,A,A*66
499: $GPGLL,5345.77418,N,02813.41668,E,144113.00,A,A*64
500: $GPGLL,5345.76968,N,02813.43800,E,144114.00,A,A*6A
501: $GPGLL,5345.76489,N,02813.45906,E,144115.00,A,A*68
502: $GPGLL,5345.75998,N,02813.48043,E,144116.00,A,A*60
503: $GPGLL,5345.75503,N,02813.50220,E,144117.00,A,A*61
504: $GPGLL,5345.74963,N,02813.52377,E,144118.00,A,A*64
505: $GPGLL,5345.74377,N,02813.54508,E,144119.00,A,A*62
506: $GPGLL,5345.73760,N,02813.56658,E,144120.00,A,A*69
507: $GPGLL,5345.73115,N,02813.58817,E,144121.00,A,A*67
508: $GPGLL,5345.72445,N,02813.60992,E,144122.00,A,A*62
509: $GPGLL,5345.71755,N,02813.63170,E,144123.00,A,A*65
510: $GPGLL,5345.71043,N,02813.65404,E,144124.00,A,A*62
510: $GPGLL,5345.70299,N,02813.67640,E,144125.00,A,A*67
511: $GPGLL,5345.69533,N,02813.69890,E,144126.00,A,A*66
512: $GPGLL,5345.68724,N,02813.72134,E,144127.00,A,A*6F
513: $GPGLL,5345.67893,N,02813.74359,E,144128.00,A,A*63
514: $GPGLL,5345.67029,N,02813.76592,E,144129.00,A,A*68
515: $GPGLL,5345.66140,N,02813.78812,E,144130.00,A,A*64
516: $GPGLL,5345.65231,N,02813.81018,E,144131.00,A,A*67
517: $GPGLL,5345.64291,N,02813.83193,E,144132.00,A,A*6F
518: $GPGLL,5345.63327,N,02813.85351,E,144133.00,A,A*6F
519: $GPGLL,5345.62351,N,02813.87503,E,144134.00,A,A*6B
520: $GPGLL,5345.61368,N,02813.89648,E,144135.00,A,A*61
521: $GPGLL,5345.60352,N,02813.91771,E,144136.00,A,A*68
522: $GPGLL,5345.59318,N,02813.93888,E,144137.00,A,A*66
523: $GPGLL,5345.58254,N,02813.96003,E,144138.00,A,A*6F
523: $GPGLL,5345.57188,N,02813.98098,E,144139.00,A,A*6F
524: $GPGLL,5345.56117,N,02814.00195,E,144140.00,A,A*6C
525: $GPGLL,5345.55032,N,02814.02296,E,144141.00,A,A*6A
526: $GPGLL,5345.53952,N,02814.04397,E,144142.00,A,A*66
527: $GPGLL,5345.52891,N,02814.06532,E,144143.00,A,A*63
528: $GPGLL,5345.51838,N,02814.08657,E,144144.00,A,A*6A
529: $GPGLL,5345.50775,N,02814.10757,E,144145.00,A,A*64
530: $GPGLL,5345.49693,N,02814.12848,E,144146.00,A,A*65
531: $GPGLL,5345.48627,N,02814.14931,E,144147.00,A,A*63
532: $GPGLL,5345.47571,N,02814.17006,E,144148.00,A,A*6D
533: $GPGLL,5345.46514,N,02814.19075,E,144149.00,A,A*64
534: $GPGLL,5345.45450,N,02814.21137,E,144150.00,A,A*62
535: $GPGLL,5345.44387,N,02814.23192,E,144151.00,A,A*62
536: $GPGLL,5345.43321,N,02814.25258,E,144152.00,A,A*69
537: $GPGLL,5345.42256,N,02814.27324,E,144153.00,A,A*60
538: $GPGLL,5345.41190,N,02814.29390,E,144154.00,A,A*6C
539: $GPGLL,5345.40127,N,02814.31470,E,144155.00,A,A*60
539: $GPGLL,5345.39064,N,02814.33558,E,144156.00,A,A*62
540: $GPGLL,5345.38008,N,02814.35652,E,144157.00,A,A*67
541: $GPGLL,5345.36948,N,02814.37749,E,144158.00,A,A*62
542: $GPGLL,5345.35888,N,02814.39842,E,144159.00,A,A*67
543: $GPGLL,5345.34832,N,02814.41937,E,144200.00,A,A*64
544: $GPGLL,5345.33773,N,02814.44039,E,144201.00,A,A*6A
545: $GPGLL,5345.32720,N,02814.46146,E,144202.00,A,A*65
546: $GPGLL,5345.31662,N,02814.48254,E,144203.00,A,A*6E
547: $GPGLL,5345.30590,N,02814.50353,E,144204.00,A,A*69
548: $GPGLL,5345.29531,N,02814.52470,E,144205.00,A,A*6F
549: $GPGLL,5345.28460,N,02814.54565,E,144206.00,A,A*6B
550: $GPGLL,5345.27431,N,02814.56703,E,144207.00,A,A*61
551: $GPGLL,5345.26419,N,02814.58862,E,144208.00,A,A*63
552: $GPGLL,5345.25421,N,02814.61043,E,144209.00,A,A*6B
553: $GPGLL,5345.24455,N,02814.63237,E,144210.00,A,A*62
554: $GPGLL,5345.23506,N,02814.65455,E,144211.00,A,A*67
555: $GPGLL,5345.22588,N,02814.67698,E,144212.00,A,A*62
556: $GPGLL,5345.21671,N,02814.69958,E,144213.00,A,A*68
557: $GPGLL,5345.20748,N,02814.72220,E,144214.00,A,A*6B
557: $GPGLL,5345.19852,N,02814.74501,E,144215.00,A,A*66
558: $GPGLL,5345.18947,N,02814.76789,E,144216.00,A,A*61
559: $GPGLL,5345.18066,N,02814.79092,E,144217.00,A,A*68
560: $GPGLL,5345.17216,N,02814.81434,E,144218.00,A,A*62
561: $GPGLL,5345.16385,N,02814.83799,E,144219.00,A,A*6F
562: $GPGLL,5345.15550,N,02814.86165,E,144220.00,A,A*68
563: $GPGLL,5345.14721,N,02814.88531,E,144221.00,A,A*67
