0: $GPRMC,143222.00,A,5345.56943,N,02759.94574,E,54.178,90.98,241015,,,A*66
1: $GPRMC,143223.00,A,5345.56915,N,02759.97100,E,54.283,91.16,241015,,,A*60
1: $GPRMC,143224.00,A,5345.56893,N,02759.99636,E,54.372,90.76,241015,,,A*6C
2: $GPRMC,143225.00,A,5345.56875,N,02800.02167,E,54.095,90.67,241015,,,A*6D
3: $GPRMC,143226.00,A,5345.56859,N,02800.04694,E,54.094,90.60,241015,,,A*6B
4: $GPRMC,143227.00,A,5345.56841,N,02800.07225,E,54.238,90.66,241015,,,A*6C
5: $GPRMC,143228.00,A,5345.56823,N,02800.09759,E,54.280,90.67,241015,,,A*65
6: $GPRMC,143229.00,A,5345.56806,N,02800.12289,E,54.171,90.59,241015,,,A*61
7: $GPRMC,143230.00,A,5345.56792,N,02800.14817,E,54.067,90.51,241015,,,A*6E
8: $GPRMC,143231.00,A,5345.56780,N,02800.17337,E,53.954,90.46,241015,,,A*6E
9: $GPRMC,143232.00,A,5345.56768,N,02800.19860,E,53.963,90.42,241015,,,A*6C
10: $GPRMC,143233.00,A,5345.56755,N,02800.22382,E,54.022,90.56,241015,,,A*62
11: $GPRMC,143234.00,A,5345.56738,N,02800.24917,E,54.321,90.76,241015,,,A*6C
12: $GPRMC,143235.00,A,5345.56721,N,02800.27461,E,54.470,90.59,241015,,,A*64
13: $GPRMC,143236.00,A,5345.56719,N,02800.30023,E,55.036,89.85,241015,,,A*66
14: $GPRMC,143237.00,A,5345.56714,N,02800.32599,E,55.237,90.20,241015,,,A*68
15: $GPRMC,143238.00,A,5345.56700,N,02800.35186,E,55.479,90.48,241015,,,A*6D
16: $GPRMC,143239.00,A,5345.56687,N,02800.37788,E,55.795,90.55,241015,,,A*65
16: $GPRMC,143240.00,A,5345.56669,N,02800.40408,E,56.078,90.63,241015,,,A*62
17: $GPRMC,143241.00,A,5345.56657,N,02800.43035,E,56.478,90.55,241015,,,A*66
18: $GPRMC,143242.00,A,5345.56641,N,02800.45676,E,56.626,90.65,241015,,,A*6F
19: $GPRMC,143243.00,A,5345.56623,N,02800.48333,E,56.957,90.70,241015,,,A*6E
20: $GPRMC,143244.00,A,5345.56607,N,02800.51000,E,57.279,90.42,241015,,,A*63
21: $GPRMC,143245.00,A,5345.56593,N,02800.53689,E,57.630,90.30,241015,,,A*65
22: $GPRMC,143246.00,A,5345.56578,N,02800.56389,E,57.890,90.59,241015,,,A*68
23: $GPRMC,143247.00,A,5345.56557,N,02800.59097,E,58.028,90.82,241015,,,A*65
24: $GPRMC,143248.00,A,5345.56534,N,02800.61819,E,58.415,90.70,241015,,,A*6D
25: $GPRMC,143249.00,A,5345.56508,N,02800.64547,E,58.575,90.75,241015,,,A*62
26: $GPRMC,143250.00,A,5345.56485,N,02800.67289,E,58.721,90.81,241015,,,A*60
27: $GPRMC,143251.00,A,5345.56461,N,02800.70032,E,58.770,90.85,241015,,,A*6F
28: $GPRMC,143252.00,A,5345.56437,N,02800.72772,E,58.659,90.60,241015,,,A*6F
29: $GPRMC,143253.00,A,5345.56417,N,02800.75515,E,58.709,90.58,241015,,,A*67
30: $GPRMC,143254.00,A,5345.56400,N,02800.78258,E,58.645,90.61,241015,,,A*66
31: $GPRMC,143255.00,A,5345.56386,N,02800.81002,E,58.673,90.47,241015,,,A*64
32: $GPRMC,143256.00,A,5345.56371,N,02800.83734,E,58.519,90.60,241015,,,A*65
33: $GPRMC,143257.00,A,5345.56355,N,02800.86470,E,58.676,90.63,241015,,,A*6D
34: $GPRMC,143258.00,A,5345.56338,N,02800.89207,E,58.550,90.58,241015,,,A*6F
35: $GPRMC,143259.00,A,5345.56321,N,02800.91942,E,58.574,90.66,241015,,,A*6E
36: $GPRMC,143300.00,A,5345.56301,N,02800.94668,E,58.379,90.73,241015,,,A*6C
37: $GPRMC,143301.00,A,5345.56281,N,02800.97394,E,58.293,90.69,241015,,,A*6F
37: $GPRMC,143302.00,A,5345.56265,N,02801.00109,E,58.011,90.53,241015,,,A*6E
38: $GPRMC,143303.00,A,5345.56247,N,02801.02808,E,57.555,90.66,241015,,,A*69
39: $GPRMC,143304.00,A,5345.56227,N,02801.05489,E,57.292,90.73,241015,,,A*62
40: $GPRMC,143305.00,A,5345.56207,N,02801.08159,E,57.029,90.72,241015,,,A*67
41: $GPRMC,143306.00,A,5345.56190,N,02801.10819,E,56.929,90.52,241015,,,A*67
42: $GPRMC,143307.00,A,5345.56171,N,02801.13476,E,56.613,90.84,241015,,,A*62
43: $GPRMC,143308.00,A,5345.56151,N,02801.16129,E,56.642,90.76,241015,,,A*6C
44: $GPRMC,143309.00,A,5345.56132,N,02801.18781,E,56.703,90.64,241015,,,A*65
45: $GPRMC,143310.00,A,5345.56116,N,02801.21441,E,56.931,90.46,241015,,,A*61
46: $GPRMC,143311.00,A,5345.56100,N,02801.24099,E,56.630,90.62,241015,,,A*6B
47: $GPRMC,143312.00,A,5345.56083,N,02801.26747,E,56.663,90.49,241015,,,A*6B
48: $GPRMC,143313.00,A,5345.56069,N,02801.29400,E,56.729,90.37,241015,,,A*67
49: $GPRMC,143314.00,A,5345.56055,N,02801.32052,E,56.766,90.31,241015,,,A*6B
50: $GPRMC,143315.00,A,5345.56042,N,02801.34715,E,56.960,90.42,241015,,,A*62
51: $GPRMC,143316.00,A,5345.56025,N,02801.37383,E,57.009,90.60,241015,,,A*6F
52: $GPRMC,143317.00,A,5345.56002,N,02801.40055,E,57.044,90.81,241015,,,A*65
53: $GPRMC,143318.00,A,5345.55979,N,02801.42723,E,56.931,90.82,241015,,,A*61
54: $GPRMC,143319.00,A,5345.55951,N,02801.45390,E,56.959,91.00,241015,,,A*64
55: $GPRMC,143320.00,A,5345.55928,N,02801.48069,E,57.239,90.85,241015,,,A*68
55: $GPRMC,143321.00,A,5345.55901,N,02801.50750,E,57.361,91.02,241015,,,A*64
56: $GPRMC,143322.00,A,5345.55881,N,02801.53454,E,57.760,90.78,241015,,,A*63
57: $GPRMC,143323.00,A,5345.55874,N,02801.56163,E,57.917,90.27,241015,,,A*68
58: $GPRMC,143324.00,A,5345.55871,N,02801.58869,E,57.728,90.28,241015,,,A*6A
59: $GPRMC,143325.00,A,5345.55858,N,02801.61568,E,57.603,90.63,241015,,,A*61
60: $GPRMC,143326.00,A,5345.55831,N,02801.64241,E,57.129,90.89,241015,,,A*6F
61: $GPRMC,143327.00,A,5345.55806,N,02801.66867,E,56.084,90.85,241015,,,A*6D
62: $GPRMC,143328.00,A,5345.55803,N,02801.69468,E,55.226,90.18,241015,,,A*66
63: $GPRMC,143329.00,A,5345.55812,N,02801.72007,E,54.052,89.33,241015,,,A*61
64: $GPRMC,143330.00,A,5345.55852,N,02801.74505,E,53.006,88.17,241015,,,A*6D
65: $GPRMC,143331.00,A,5345.55911,N,02801.76959,E,51.986,87.48,241015,,,A*6B
66: $GPRMC,143332.00,A,5345.55978,N,02801.79362,E,50.675,87.22,241015,,,A*64
67: $GPRMC,143333.00,A,5345.56044,N,02801.81680,E,48.703,86.90,241015,,,A*6F
68: $GPRMC,143334.00,A,5345.56120,N,02801.83948,E,47.814,86.42,241015,,,A*6B
69: $GPRMC,143335.00,A,5345.56214,N,02801.86168,E,46.954,85.52,241015,,,A*67
69: $GPRMC,143336.00,A,5345.56318,N,02801.88354,E,46.378,85.22,241015,,,A*69
70: $GPRMC,143337.00,A,5345.56425,N,02801.90523,E,46.277,85.10,241015,,,A*61
71: $GPRMC,143338.00,A,5345.56530,N,02801.92686,E,46.220,85.09,241015,,,A*6F
72: $GPRMC,143339.00,A,5345.56643,N,02801.94852,E,46.351,84.83,241015,,,A*6C
73: $GPRMC,143340.00,A,5345.56762,N,02801.97019,E,46.362,84.40,241015,,,A*6B
74: $GPRMC,143341.00,A,5345.56907,N,02801.99204,E,46.716,83.22,241015,,,A*63
75: $GPRMC,143342.00,A,5345.57069,N,02802.01406,E,47.563,82.49,241015,,,A*6B
76: $GPRMC,143343.00,A,5345.57238,N,02802.03644,E,48.416,82.48,241015,,,A*67
77: $GPRMC,143344.00,A,5345.57414,N,02802.05923,E,49.181,82.57,241015,,,A*64
78: $GPRMC,143345.00,A,5345.57587,N,02802.08236,E,49.788,82.80,241015,,,A*69
79: $GPRMC,143346.00,A,5345.57758,N,02802.10581,E,50.471,83.01,241015,,,A*6D
80: $GPRMC,143347.00,A,5345.57932,N,02802.12961,E,51.294,82.98,241015,,,A*63
81: $GPRMC,143348.00,A,5345.58110,N,02802.15369,E,51.978,82.69,241015,,,A*69
82: $GPRMC,143349.00,A,5345.58299,N,02802.17807,E,52.592,82.46,241015,,,A*6D
83: $GPRMC,143350.00,A,5345.58491,N,02802.20272,E,53.152,82.45,241015,,,A*6D
84: $GPRMC,143351.00,A,5345.58683,N,02802.22769,E,53.841,82.62,241015,,,A*6E
85: $GPRMC,143352.00,A,5345.58872,N,02802.25290,E,54.314,82.82,241015,,,A*6B
85: $GPRMC,143353.00,A,5345.59059,N,02802.27824,E,54.594,82.86,241015,,,A*67
86: $GPRMC,143354.00,A,5345.59247,N,02802.30366,E,54.593,82.83,241015,,,A*64
87: $GPRMC,143355.00,A,5345.59435,N,02802.32906,E,54.596,82.79,241015,,,A*68
88: $GPRMC,143356.00,A,5345.59628,N,02802.35444,E,54.539,82.58,241015,,,A*6F
89: $GPRMC,143357.00,A,5345.59823,N,02802.37974,E,54.440,82.50,241015,,,A*60
90: $GPRMC,143358.00,A,5345.60017,N,02802.40502,E,54.332,82.62,241015,,,A*64
91: $GPRMC,143359.00,A,5345.60209,N,02802.43024,E,54.268,82.70,241015,,,A*67
92: $GPRMC,143400.00,A,5345.60400,N,02802.45547,E,54.288,82.70,241015,,,A*6B
93: $GPRMC,143401.00,A,5345.60590,N,02802.48066,E,54.248,82.69,241015,,,A*6D
94: $GPRMC,143402.00,A,5345.60784,N,02802.50581,E,54.050,82.48,241015,,,A*64
95: $GPRMC,143403.00,A,5345.60983,N,02802.53089,E,53.961,82.33,241015,,,A*62
96: $GPRMC,143404.00,A,5345.61179,N,02802.55594,E,53.926,82.50,241015,,,A*60
97: $GPRMC,143405.00,A,5345.61368,N,02802.58101,E,53.946,82.82,241015,,,A*6F
98: $GPRMC,143406.00,A,5345.61550,N,02802.60602,E,53.711,83.00,241015,,,A*69
99: $GPRMC,143407.00,A,5345.61729,N,02802.63089,E,53.408,83.03,241015,,,A*6A
100: $GPRMC,143408.00,A,5345.61908,N,02802.65564,E,53.232,82.99,241015,,,A*65
101: $GPRMC,143409.00,A,5345.62090,N,02802.68029,E,53.065,82.73,241015,,,A*6A
101: $GPRMC,143410.00,A,5345.62278,N,02802.70486,E,52.919,82.49,241015,,,A*64
102: $GPRMC,143411.00,A,5345.62467,N,02802.72941,E,52.824,82.64,241015,,,A*69
103: $GPRMC,143412.00,A,5345.62656,N,02802.75396,E,52.896,82.57,241015,,,A*64
104: $GPRMC,143413.00,A,5345.62847,N,02802.77856,E,53.042,82.50,241015,,,A*69
105: $GPRMC,143414.00,A,5345.63041,N,02802.80324,E,53.154,82.40,241015,,,A*60
106: $GPRMC,143415.00,A,5345.63236,N,02802.82795,E,53.195,82.45,241015,,,A*67
107: $GPRMC,143416.00,A,5345.63426,N,02802.85268,E,53.284,82.64,241015,,,A*63
108: $GPRMC,143417.00,A,5345.63617,N,02802.87741,E,53.303,82.50,241015,,,A*67
109: $GPRMC,143418.00,A,5345.63805,N,02802.90222,E,53.574,82.64,241015,,,A*62
110: $GPRMC,143419.00,A,5345.63991,N,02802.92717,E,53.751,82.76,241015,,,A*68
111: $GPRMC,143420.00,A,5345.64176,N,02802.95218,E,53.963,82.69,241015,,,A*68
112: $GPRMC,143421.00,A,5345.64371,N,02802.97739,E,54.489,82.49,241015,,,A*64
113: $GPRMC,143422.00,A,5345.64570,N,02803.00279,E,54.958,82.42,241015,,,A*64
114: $GPRMC,143423.00,A,5345.64772,N,02803.02842,E,55.376,82.41,241015,,,A*61
115: $GPRMC,143424.00,A,5345.64971,N,02803.05424,E,55.730,82.58,241015,,,A*6E
116: $GPRMC,143425.00,A,5345.65171,N,02803.08026,E,56.222,82.61,241015,,,A*62
117: $GPRMC,143426.00,A,5345.65374,N,02803.10651,E,56.704,82.67,241015,,,A*6E
117: $GPRMC,143427.00,A,5345.65574,N,02803.13294,E,57.059,82.75,241015,,,A*6A
118: $GPRMC,143428.00,A,5345.65772,N,02803.15956,E,57.445,82.71,241015,,,A*6F
119: $GPRMC,143429.00,A,5345.65974,N,02803.18638,E,57.927,82.64,241015,,,A*61
120: $GPRMC,143430.00,A,5345.66179,N,02803.21337,E,58.296,82.63,241015,,,A*66
121: $GPRMC,143431.00,A,5345.66390,N,02803.24060,E,58.796,82.54,241015,,,A*67
122: $GPRMC,143432.00,A,5345.66604,N,02803.26799,E,59.073,82.54,241015,,,A*62
123: $GPRMC,143433.00,A,5345.66817,N,02803.29549,E,59.356,82.57,241015,,,A*68
124: $GPRMC,143434.00,A,5345.67028,N,02803.32310,E,59.624,82.69,241015,,,A*67
125: $GPRMC,143435.00,A,5345.67235,N,02803.35076,E,59.545,82.87,241015,,,A*68
126: $GPRMC,143436.00,A,5345.67438,N,02803.37839,E,59.447,82.98,241015,,,A*6C
127: $GPRMC,143437.00,A,5345.67639,N,02803.40587,E,59.139,82.96,241015,,,A*64
128: $GPRMC,143438.00,A,5345.67841,N,02803.43315,E,58.627,82.84,241015,,,A*6E
129: $GPRMC,143439.00,A,5345.68047,N,02803.46021,E,58.126,82.60,241015,,,A*63
130: $GPRMC,143440.00,A,5345.68258,N,02803.48705,E,57.670,82.38,241015,,,A*68
131: $GPRMC,143441.00,A,5345.68467,N,02803.51380,E,57.565,82.51,241015,,,A*6A
132: $GPRMC,143442.00,A,5345.68675,N,02803.54054,E,57.626,82.51,241015,,,A*63
133: $GPRMC,143443.00,A,5345.68882,N,02803.56734,E,57.790,82.54,241015,,,A*6E
133: $GPRMC,143444.00,A,5345.69086,N,02803.59432,E,57.836,82.69,241015,,,A*63
134: $GPRMC,143445.00,A,5345.69288,N,02803.62133,E,58.030,82.75,241015,,,A*6E
135: $GPRMC,143446.00,A,5345.69490,N,02803.64840,E,58.375,82.75,241015,,,A*6B
136: $GPRMC,143447.00,A,5345.69694,N,02803.67555,E,58.638,82.68,241015,,,A*66
137: $GPRMC,143448.00,A,5345.69902,N,02803.70279,E,58.749,82.58,241015,,,A*62
138: $GPRMC,143449.00,A,5345.70111,N,02803.73010,E,58.876,82.59,241015,,,A*6D
139: $GPRMC,143450.00,A,5345.70319,N,02803.75745,E,59.005,82.71,241015,,,A*69
140: $GPRMC,143451.00,A,5345.70526,N,02803.78486,E,59.153,82.75,241015,,,A*65
141: $GPRMC,143452.00,A,5345.70735,N,02803.81235,E,59.206,82.68,241015,,,A*61
142: $GPRMC,143453.00,A,5345.70943,N,02803.83984,E,59.214,82.70,241015,,,A*66
143: $GPRMC,143454.00,A,5345.71149,N,02803.86732,E,59.175,82.81,241015,,,A*6E
144: $GPRMC,143455.00,A,5345.71355,N,02803.89476,E,59.112,82.80,241015,,,A*6C
145: $GPRMC,143456.00,A,5345.71559,N,02803.92219,E,59.037,82.79,241015,,,A*60
146: $GPRMC,143457.00,A,5345.71765,N,02803.94957,E,58.879,82.74,241015,,,A*65
147: $GPRMC,143458.00,A,5345.71972,N,02803.97691,E,58.802,82.67,241015,,,A*6A
148: $GPRMC,143459.00,A,5345.72179,N,02804.00420,E,58.756,82.66,241015,,,A*65
149: $GPRMC,143500.00,A,5345.72386,N,02804.03146,E,58.684,82.67,241015,,,A*63
150: $GPRMC,143501.00,A,5345.72596,N,02804.05869,E,58.630,82.57,241015,,,A*6B
151: $GPRMC,143502.00,A,5345.72807,N,02804.08590,E,58.560,82.51,241015,,,A*6B
151: $GPRMC,143503.00,A,5345.73018,N,02804.11313,E,58.658,82.52,241015,,,A*63
152: $GPRMC,143504.00,A,5345.73231,N,02804.14040,E,58.840,82.44,241015,,,A*6D
153: $GPRMC,143505.00,A,5345.73441,N,02804.16773,E,58.869,82.63,241015,,,A*66
154: $GPRMC,143506.00,A,5345.73646,N,02804.19514,E,59.040,82.82,241015,,,A*61
155: $GPRMC,143507.00,A,5345.73849,N,02804.22260,E,59.136,82.87,241015,,,A*68
156: $GPRMC,143508.00,A,5345.74055,N,02804.25009,E,59.228,82.77,241015,,,A*6C
157: $GPRMC,143509.00,A,5345.74265,N,02804.27764,E,59.366,82.63,241015,,,A*6C
158: $GPRMC,143510.00,A,5345.74477,N,02804.30525,E,59.422,82.59,241015,,,A*6E
159: $GPRMC,143511.00,A,5345.74691,N,02804.33291,E,59.632,82.57,241015,,,A*63
160: $GPRMC,143512.00,A,5345.74906,N,02804.36066,E,59.839,82.55,241015,,,A*69
161: $GPRMC,143513.00,A,5345.75119,N,02804.38847,E,59.954,82.62,241015,,,A*64
162: $GPRMC,143514.00,A,5345.75332,N,02804.41638,E,60.111,82.69,241015,,,A*68
163: $GPRMC,143515.00,A,5345.75542,N,02804.44435,E,60.238,82.76,241015,,,A*64
164: $GPRMC,143516.00,A,5345.75753,N,02804.47236,E,60.328,82.74,241015,,,A*61
165: $GPRMC,143517.00,A,5345.75965,N,02804.50038,E,60.361,82.76,241015,,,A*6E
166: $GPRMC,143518.00,A,5345.76176,N,02804.52838,E,60.238,82.72,241015,,,A*6B
166: $GPRMC,143519.00,A,5345.76385,N,02804.55640,E,60.221,82.81,241015,,,A*66
167: $GPRMC,143520.00,A,5345.76592,N,02804.58441,E,60.323,82.88,241015,,,A*68
168: $GPRMC,143521.00,A,5345.76797,N,02804.61241,E,60.297,82.95,241015,,,A*60
169: $GPRMC,143522.00,A,5345.77004,N,02804.64037,E,60.150,82.79,241015,,,A*63
170: $GPRMC,143523.00,A,5345.77213,N,02804.66833,E,60.172,82.64,241015,,,A*64
171: $GPRMC,143524.00,A,5345.77427,N,02804.69627,E,60.203,82.55,241015,,,A*61
172: $GPRMC,143525.00,A,5345.77661,N,02804.72416,E,60.286,81.75,241015,,,A*66
173: $GPRMC,143526.00,A,5345.77911,N,02804.75203,E,60.115,81.26,241015,,,A*67
174: $GPRMC,143527.00,A,5345.78163,N,02804.77987,E,59.927,81.32,241015,,,A*67
175: $GPRMC,143528.00,A,5345.78404,N,02804.80776,E,60.175,81.85,241015,,,A*6D
176: $GPRMC,143529.00,A,5345.78637,N,02804.83562,E,60.166,81.99,241015,,,A*65
177: $GPRMC,143530.00,A,5345.78866,N,02804.86340,E,59.844,82.18,241015,,,A*6D
178: $GPRMC,143531.00,A,5345.79088,N,02804.89106,E,59.495,82.32,241015,,,A*62
179: $GPRMC,143532.00,A,5345.79305,N,02804.91860,E,59.170,82.46,241015,,,A*6A
179: $GPRMC,143533.00,A,5345.79518,N,02804.94594,E,58.788,82.55,241015,,,A*60
180: $GPRMC,143534.00,A,5345.79728,N,02804.97315,E,58.453,82.59,241015,,,A*63
181: $GPRMC,143535.00,A,5345.79935,N,02805.00019,E,58.052,82.57,241015,,,A*6B
182: $GPRMC,143536.00,A,5345.80141,N,02805.02712,E,57.816,82.67,241015,,,A*6F
183: $GPRMC,143537.00,A,5345.80342,N,02805.05397,E,57.791,82.84,241015,,,A*6C
184: $GPRMC,143538.00,A,5345.80538,N,02805.08079,E,57.776,82.99,241015,,,A*63
185: $GPRMC,143539.00,A,5345.80732,N,02805.10756,E,57.626,83.04,241015,,,A*68
186: $GPRMC,143540.00,A,5345.80922,N,02805.13426,E,57.372,83.16,241015,,,A*69
187: $GPRMC,143541.00,A,5345.81103,N,02805.16074,E,56.955,83.63,241015,,,A*68
188: $GPRMC,143542.00,A,5345.81263,N,02805.18705,E,56.415,84.38,241015,,,A*61
189: $GPRMC,143543.00,A,5345.81389,N,02805.21309,E,55.674,85.73,241015,,,A*6F
190: $GPRMC,143544.00,A,5345.81469,N,02805.23896,E,55.140,87.57,241015,,,A*6A
191: $GPRMC,143545.00,A,5345.81513,N,02805.26469,E,54.956,88.61,241015,,,A*6A
192: $GPRMC,143546.00,A,5345.81541,N,02805.29024,E,54.545,89.13,241015,,,A*66
193: $GPRMC,143547.00,A,5345.81560,N,02805.31558,E,54.093,89.34,241015,,,A*68
194: $GPRMC,143548.00,A,5345.81585,N,02805.34068,E,53.578,88.96,241015,,,A*61
195: $GPRMC,143549.00,A,5345.81618,N,02805.36548,E,53.013,88.77,241015,,,A*65
196: $GPRMC,143550.00,A,5345.81649,N,02805.39004,E,52.419,88.81,241015,,,A*6D
197: $GPRMC,143551.00,A,5345.81680,N,02805.41428,E,51.675,88.82,241015,,,A*64
198: $GPRMC,143552.00,A,5345.81714,N,02805.43821,E,51.152,88.79,241015,,,A*6A
198: $GPRMC,143553.00,A,5345.81748,N,02805.46212,E,51.093,88.83,241015,,,A*64
199: $GPRMC,143554.00,A,5345.81782,N,02805.48598,E,51.145,88.73,241015,,,A*6B
200: $GPRMC,143555.00,A,5345.81817,N,02805.50993,E,51.296,88.69,241015,,,A*61
201: $GPRMC,143556.00,A,5345.81850,N,02805.53393,E,51.350,88.87,241015,,,A*63
202: $GPRMC,143557.00,A,5345.81867,N,02805.55790,E,51.252,89.63,241015,,,A*6F
203: $GPRMC,143558.00,A,5345.81863,N,02805.58188,E,51.317,90.45,241015,,,A*6A
204: $GPRMC,143559.00,A,5345.81846,N,02805.60596,E,51.433,90.85,241015,,,A*61
205: $GPRMC,143600.00,A,5345.81847,N,02805.63010,E,51.635,89.78,241015,,,A*69
206: $GPRMC,143601.00,A,5345.81867,N,02805.65438,E,52.067,89.10,241015,,,A*6E
207: $GPRMC,143602.00,A,5345.81901,N,02805.67895,E,52.820,88.60,241015,,,A*68
208: $GPRMC,143603.00,A,5345.81939,N,02805.70381,E,53.471,88.58,241015,,,A*68
209: $GPRMC,143604.00,A,5345.81989,N,02805.72908,E,54.271,88.16,241015,,,A*66
210: $GPRMC,143605.00,A,5345.82024,N,02805.75459,E,54.730,88.88,241015,,,A*63
211: $GPRMC,143606.00,A,5345.82052,N,02805.78048,E,55.632,88.99,241015,,,A*6A
212: $GPRMC,143607.00,A,5345.82076,N,02805.80665,E,56.142,89.20,241015,,,A*63
212: $GPRMC,143608.00,A,5345.82107,N,02805.83312,E,56.877,88.80,241015,,,A*69
213: $GPRMC,143609.00,A,5345.82145,N,02805.85984,E,57.268,88.72,241015,,,A*65
214: $GPRMC,143610.00,A,5345.82185,N,02805.88681,E,57.735,88.56,241015,,,A*6D
215: $GPRMC,143611.00,A,5345.82228,N,02805.91398,E,58.309,88.40,241015,,,A*6E
216: $GPRMC,143612.00,A,5345.82269,N,02805.94130,E,58.646,88.75,241015,,,A*65
217: $GPRMC,143613.00,A,5345.82303,N,02805.96883,E,58.969,89.04,241015,,,A*6F
218: $GPRMC,143614.00,A,5345.82327,N,02805.99651,E,59.278,89.15,241015,,,A*6A
219: $GPRMC,143615.00,A,5345.82345,N,02806.02430,E,59.556,89.44,241015,,,A*64
220: $GPRMC,143616.00,A,5345.82372,N,02806.05228,E,59.897,89.01,241015,,,A*6A
221: $GPRMC,143617.00,A,5345.82402,N,02806.08026,E,59.863,88.87,241015,,,A*6E
222: $GPRMC,143618.00,A,5345.82427,N,02806.10830,E,59.919,89.25,241015,,,A*65
223: $GPRMC,143619.00,A,5345.82447,N,02806.13641,E,60.122,89.43,241015,,,A*63
224: $GPRMC,143620.00,A,5345.82470,N,02806.16449,E,60.100,89.26,241015,,,A*61
225: $GPRMC,143621.00,A,5345.82498,N,02806.19259,E,59.961,88.99,241015,,,A*6E
226: $GPRMC,143622.00,A,5345.82528,N,02806.22055,E,59.781,88.99,241015,,,A*61
227: $GPRMC,143623.00,A,5345.82555,N,02806.24848,E,59.760,89.07,241015,,,A*61
228: $GPRMC,143624.00,A,5345.82587,N,02806.27646,E,59.683,89.05,241015,,,A*64
229: $GPRMC,143625.00,A,5345.82614,N,02806.30429,E,59.404,89.10,241015,,,A*68
229: $GPRMC,143626.00,A,5345.82643,N,02806.33203,E,59.095,89.06,241015,,,A*6F
230: $GPRMC,143627.00,A,5345.82676,N,02806.35964,E,58.962,88.67,241015,,,A*62
231: $GPRMC,143628.00,A,5345.82710,N,02806.38712,E,58.731,88.71,241015,,,A*61
232: $GPRMC,143629.00,A,5345.82744,N,02806.41463,E,58.794,88.81,241015,,,A*6A
233: $GPRMC,143630.00,A,5345.82781,N,02806.44220,E,58.830,88.75,241015,,,A*65
234: $GPRMC,143631.00,A,5345.82807,N,02806.46975,E,58.918,89.19,241015,,,A*6C
235: $GPRMC,143632.00,A,5345.82835,N,02806.49751,E,59.315,89.04,241015,,,A*63
236: $GPRMC,143633.00,A,5345.82861,N,02806.52540,E,59.507,89.26,241015,,,A*6E
237: $GPRMC,143634.00,A,5345.82884,N,02806.55335,E,59.712,89.34,241015,,,A*64
238: $GPRMC,143635.00,A,5345.82908,N,02806.58144,E,60.092,89.18,241015,,,A*62
239: $GPRMC,143636.00,A,5345.82939,N,02806.60972,E,60.642,88.75,241015,,,A*64
240: $GPRMC,143637.00,A,5345.82977,N,02806.63803,E,60.593,88.67,241015,,,A*67
241: $GPRMC,143638.00,A,5345.83019,N,02806.66633,E,60.429,88.64,241015,,,A*63
242: $GPRMC,143639.00,A,5345.83060,N,02806.69468,E,60.746,88.58,241015,,,A*6A
242: $GPRMC,143640.00,A,5345.83101,N,02806.72318,E,61.067,88.72,241015,,,A*65
243: $GPRMC,143641.00,A,5345.83147,N,02806.75191,E,61.437,88.42,241015,,,A*60
244: $GPRMC,143642.00,A,5345.83189,N,02806.78084,E,61.765,88.74,241015,,,A*68
245: $GPRMC,143643.00,A,5345.83224,N,02806.80977,E,61.821,88.87,241015,,,A*6C
246: $GPRMC,143644.00,A,5345.83266,N,02806.83899,E,62.524,88.63,241015,,,A*6E
247: $GPRMC,143645.00,A,5345.83307,N,02806.86826,E,62.737,88.72,241015,,,A*68
248: $GPRMC,143646.00,A,5345.83347,N,02806.89769,E,63.171,88.77,241015,,,A*64
249: $GPRMC,143647.00,A,5345.83383,N,02806.92728,E,63.344,89.01,241015,,,A*66
250: $GPRMC,143648.00,A,5345.83424,N,02806.95705,E,63.720,88.79,241015,,,A*63
251: $GPRMC,143649.00,A,5345.83469,N,02806.98691,E,63.984,88.71,241015,,,A*62
252: $GPRMC,143650.00,A,5345.83510,N,02807.01686,E,64.093,88.86,241015,,,A*62
253: $GPRMC,143651.00,A,5345.83551,N,02807.04699,E,64.364,89.05,241015,,,A*6C
254: $GPRMC,143652.00,A,5345.83586,N,02807.07712,E,64.489,89.03,241015,,,A*66
255: $GPRMC,143653.00,A,5345.83621,N,02807.10728,E,64.524,89.00,241015,,,A*63
256: $GPRMC,143654.00,A,5345.83654,N,02807.13740,E,64.385,89.00,241015,,,A*66
257: $GPRMC,143655.00,A,5345.83686,N,02807.16743,E,64.108,89.06,241015,,,A*6F
258: $GPRMC,143656.00,A,5345.83721,N,02807.19729,E,63.817,89.00,241015,,,A*65
259: $GPRMC,143657.00,A,5345.83773,N,02807.22697,E,63.584,88.12,241015,,,A*6A
260: $GPRMC,143658.00,A,5345.83847,N,02807.25651,E,63.239,87.47,241015,,,A*6E
260: $GPRMC,143659.00,A,5345.83925,N,02807.28596,E,63.024,87.60,241015,,,A*64
261: $GPRMC,143700.00,A,5345.83992,N,02807.31530,E,62.737,88.00,241015,,,A*6C
262: $GPRMC,143701.00,A,5345.84047,N,02807.34457,E,62.749,88.35,241015,,,A*61
263: $GPRMC,143702.00,A,5345.84095,N,02807.37379,E,62.767,88.51,241015,,,A*6B
264: $GPRMC,143703.00,A,5345.84140,N,02807.40310,E,62.614,88.67,241015,,,A*6C
265: $GPRMC,143704.00,A,5345.84187,N,02807.43203,E,61.432,88.60,241015,,,A*62
266: $GPRMC,143705.00,A,5345.84233,N,02807.46038,E,60.161,88.68,241015,,,A*6A
267: $GPRMC,143706.00,A,5345.84275,N,02807.48795,E,58.402,88.74,241015,,,A*63
268: $GPRMC,143707.00,A,5345.84311,N,02807.51433,E,55.491,88.95,241015,,,A*6E
269: $GPRMC,143708.00,A,5345.84341,N,02807.53919,E,52.368,89.14,241015,,,A*6D
270: $GPRMC,143709.00,A,5345.84366,N,02807.56254,E,49.140,89.31,241015,,,A*6B
271: $GPRMC,143710.00,A,5345.84386,N,02807.58458,E,46.513,89.26,241015,,,A*62
272: $GPRMC,143711.00,A,5345.84407,N,02807.60599,E,45.658,89.13,241015,,,A*63
273: $GPRMC,143712.00,A,5345.84429,N,02807.62729,E,45.503,89.13,241015,,,A*6A
274: $GPRMC,143713.00,A,5345.84454,N,02807.64860,E,45.585,88.96,241015,,,A*67
275: $GPRMC,143714.00,A,5345.84481,N,02807.66997,E,45.771,88.89,241015,,,A*64
275: $GPRMC,143715.00,A,5345.84504,N,02807.69139,E,45.955,89.13,241015,,,A*60
276: $GPRMC,143716.00,A,5345.84524,N,02807.71288,E,46.160,89.28,241015,,,A*64
277: $GPRMC,143717.00,A,5345.84543,N,02807.73454,E,46.421,89.01,241015,,,A*6A
278: $GPRMC,143718.00,A,5345.84564,N,02807.75641,E,46.767,88.93,241015,,,A*6B
279: $GPRMC,143719.00,A,5345.84597,N,02807.77836,E,47.091,88.66,241015,,,A*6F
280: $GPRMC,143720.00,A,5345.84628,N,02807.80049,E,47.531,88.96,241015,,,A*6A
281: $GPRMC,143721.00,A,5345.84656,N,02807.82287,E,47.931,88.95,241015,,,A*6F
282: $GPRMC,143722.00,A,5345.84683,N,02807.84547,E,48.586,88.93,241015,,,A*60
283: $GPRMC,143723.00,A,5345.84698,N,02807.86829,E,49.028,89.32,241015,,,A*66
284: $GPRMC,143724.00,A,5345.84706,N,02807.89126,E,49.301,89.69,241015,,,A*68
285: $GPRMC,143725.00,A,5345.84720,N,02807.91453,E,49.680,89.31,241015,,,A*62
286: $GPRMC,143726.00,A,5345.84745,N,02807.93791,E,50.113,88.68,241015,,,A*65
287: $GPRMC,143727.00,A,5345.84775,N,02807.96142,E,50.529,88.87,241015,,,A*66
288: $GPRMC,143728.00,A,5345.84796,N,02807.98508,E,50.900,89.37,241015,,,A*6D
289: $GPRMC,143729.00,A,5345.84815,N,02808.00895,E,51.117,89.36,241015,,,A*61
290: $GPRMC,143730.00,A,5345.84832,N,02808.03304,E,51.662,89.23,241015,,,A*6D
290: $GPRMC,143731.00,A,5345.84848,N,02808.05736,E,52.087,89.18,241015,,,A*64
291: $GPRMC,143732.00,A,5345.84861,N,02808.08190,E,52.618,89.52,241015,,,A*65
292: $GPRMC,143733.00,A,5345.84855,N,02808.10670,E,53.047,90.22,241015,,,A*61
293: $GPRMC,143734.00,A,5345.84821,N,02808.13174,E,53.476,91.07,241015,,,A*65
294: $GPRMC,143735.00,A,5345.84778,N,02808.15702,E,53.909,91.13,241015,,,A*66
295: $GPRMC,143736.00,A,5345.84757,N,02808.18247,E,54.310,90.11,241015,,,A*67
296: $GPRMC,143737.00,A,5345.84766,N,02808.20805,E,54.849,89.45,241015,,,A*6D
297: $GPRMC,143738.00,A,5345.84794,N,02808.23394,E,55.441,88.74,241015,,,A*69
298: $GPRMC,143739.00,A,5345.84822,N,02808.26007,E,55.945,88.83,241015,,,A*67
299: $GPRMC,143740.00,A,5345.84841,N,02808.28645,E,56.469,89.24,241015,,,A*6E
300: $GPRMC,143741.00,A,5345.84861,N,02808.31310,E,57.087,89.27,241015,,,A*66
301: $GPRMC,143742.00,A,5345.84882,N,02808.33995,E,57.517,89.29,241015,,,A*6F
302: $GPRMC,143743.00,A,5345.84906,N,02808.36712,E,58.147,89.26,241015,,,A*66
303: $GPRMC,143744.00,A,5345.84927,N,02808.39452,E,58.652,89.29,241015,,,A*66
304: $GPRMC,143745.00,A,5345.84954,N,02808.42209,E,59.047,89.10,241015,,,A*6E
305: $GPRMC,143746.00,A,5345.84983,N,02808.44981,E,59.255,89.05,241015,,,A*6F
306: $GPRMC,143747.00,A,5345.85014,N,02808.47765,E,59.586,88.99,241015,,,A*62
307: $GPRMC,143748.00,A,5345.85043,N,02808.50567,E,60.032,89.07,241015,,,A*6F
308: $GPRMC,143749.00,A,5345.85070,N,02808.53388,E,60.410,89.11,241015,,,A*69
308: $GPRMC,143750.00,A,5345.85096,N,02808.56225,E,60.783,89.16,241015,,,A*64
309: $GPRMC,143751.00,A,5345.85124,N,02808.59053,E,60.362,89.16,241015,,,A*6A
310: $GPRMC,143752.00,A,5345.85150,N,02808.61853,E,59.636,89.15,241015,,,A*64
311: $GPRMC,143753.00,A,5345.85174,N,02808.64620,E,58.877,89.15,241015,,,A*66
312: $GPRMC,143754.00,A,5345.85199,N,02808.67345,E,57.932,89.04,241015,,,A*68
313: $GPRMC,143755.00,A,5345.85228,N,02808.70026,E,56.978,88.94,241015,,,A*67
314: $GPRMC,143756.00,A,5345.85254,N,02808.72663,E,56.060,89.00,241015,,,A*66
315: $GPRMC,143757.00,A,5345.85279,N,02808.75255,E,55.092,89.12,241015,,,A*63
316: $GPRMC,143758.00,A,5345.85301,N,02808.77802,E,54.186,89.19,241015,,,A*66
317: $GPRMC,143759.00,A,5345.85325,N,02808.80305,E,53.268,89.14,241015,,,A*6C
318: $GPRMC,143800.00,A,5345.85348,N,02808.82771,E,52.501,89.04,241015,,,A*69
319: $GPRMC,143801.00,A,5345.85372,N,02808.85223,E,52.384,89.08,241015,,,A*63
320: $GPRMC,143802.00,A,5345.85398,N,02808.87674,E,52.448,89.02,241015,,,A*6D
321: $GPRMC,143803.00,A,5345.85421,N,02808.90136,E,52.643,89.28,241015,,,A*6F
322: $GPRMC,143804.00,A,5345.85442,N,02808.92607,E,52.806,89.25,241015,,,A*68
322: $GPRMC,143805.00,A,5345.85461,N,02808.95047,E,51.872,89.25,241015,,,A*6D
323: $GPRMC,143806.00,A,5345.85486,N,02808.97441,E,50.990,89.03,241015,,,A*6F
324: $GPRMC,143807.00,A,5345.85515,N,02808.99783,E,49.850,88.82,241015,,,A*6B
325: $GPRMC,143808.00,A,5345.85540,N,02809.02077,E,48.762,88.77,241015,,,A*6E
326: $GPRMC,143809.00,A,5345.85568,N,02809.04332,E,47.931,88.73,241015,,,A*62
327: $GPRMC,143810.00,A,5345.85586,N,02809.06540,E,46.904,89.20,241015,,,A*6B
328: $GPRMC,143811.00,A,5345.85598,N,02809.08710,E,46.113,89.41,241015,,,A*65
329: $GPRMC,143812.00,A,5345.85613,N,02809.10842,E,45.289,89.28,241015,,,A*6B
330: $GPRMC,143813.00,A,5345.85632,N,02809.12921,E,44.139,89.10,241015,,,A*6D
331: $GPRMC,143814.00,A,5345.85649,N,02809.14935,E,42.655,89.06,241015,,,A*69
332: $GPRMC,143815.00,A,5345.85666,N,02809.16875,E,40.975,89.21,241015,,,A*68
333: $GPRMC,143816.00,A,5345.85679,N,02809.18734,E,39.210,89.32,241015,,,A*65
334: $GPRMC,143817.00,A,5345.85689,N,02809.20540,E,38.294,89.34,241015,,,A*6A
335: $GPRMC,143818.00,A,5345.85694,N,02809.22317,E,37.701,89.51,241015,,,A*6A
335: $GPRMC,143819.00,A,5345.85708,N,02809.24086,E,37.716,89.00,241015,,,A*60
336: $GPRMC,143820.00,A,5345.85733,N,02809.25862,E,38.029,88.52,241015,,,A*63
337: $GPRMC,143821.00,A,5345.85760,N,02809.27649,E,38.302,88.66,241015,,,A*6C
338: $GPRMC,143822.00,A,5345.85776,N,02809.29450,E,38.598,89.17,241015,,,A*6E
339: $GPRMC,143823.00,A,5345.85797,N,02809.31263,E,38.821,88.80,241015,,,A*6F
340: $GPRMC,143824.00,A,5345.85820,N,02809.33082,E,38.932,88.82,241015,,,A*65
341: $GPRMC,143825.00,A,5345.85840,N,02809.34904,E,38.972,89.05,241015,,,A*68
342: $GPRMC,143826.00,A,5345.85855,N,02809.36725,E,38.915,89.15,241015,,,A*60
343: $GPRMC,143827.00,A,5345.85869,N,02809.38538,E,38.754,89.11,241015,,,A*61
344: $GPRMC,143828.00,A,5345.85886,N,02809.40345,E,38.539,89.12,241015,,,A*66
345: $GPRMC,143829.00,A,5345.85900,N,02809.42148,E,38.410,89.34,241015,,,A*6B
346: $GPRMC,143830.00,A,5345.85913,N,02809.43949,E,38.338,89.28,241015,,,A*69
347: $GPRMC,143831.00,A,5345.85928,N,02809.45742,E,38.206,89.08,241015,,,A*6D
348: $GPRMC,143832.00,A,5345.85946,N,02809.47537,E,38.212,89.16,241015,,,A*6E
349: $GPRMC,143833.00,A,5345.85970,N,02809.49325,E,38.145,88.78,241015,,,A*69
349: $GPRMC,143834.00,A,5345.85990,N,02809.51144,E,39.011,88.89,241015,,,A*63
350: $GPRMC,143835.00,A,5345.86011,N,02809.52998,E,39.715,88.67,241015,,,A*68
351: $GPRMC,143836.00,A,5345.86037,N,02809.54878,E,40.356,88.66,241015,,,A*6A
352: $GPRMC,143837.00,A,5345.86064,N,02809.56789,E,41.006,88.73,241015,,,A*6D
353: $GPRMC,143838.00,A,5345.86090,N,02809.58727,E,41.624,88.75,241015,,,A*63
354: $GPRMC,143839.00,A,5345.86113,N,02809.60696,E,42.259,88.76,241015,,,A*66
355: $GPRMC,143840.00,A,5345.86134,N,02809.62696,E,42.852,89.00,241015,,,A*6E
356: $GPRMC,143841.00,A,5345.86149,N,02809.64724,E,43.436,89.18,241015,,,A*6D
357: $GPRMC,143842.00,A,5345.86163,N,02809.66778,E,44.014,89.27,241015,,,A*62
358: $GPRMC,143843.00,A,5345.86179,N,02809.68858,E,44.505,89.23,241015,,,A*6A
359: $GPRMC,143844.00,A,5345.86199,N,02809.70952,E,44.762,89.17,241015,,,A*65
360: $GPRMC,143845.00,A,5345.86222,N,02809.73048,E,44.795,89.24,241015,,,A*6E
361: $GPRMC,143846.00,A,5345.86245,N,02809.75144,E,44.802,89.35,241015,,,A*66
362: $GPRMC,143847.00,A,5345.86259,N,02809.77238,E,44.789,89.78,241015,,,A*65
363: $GPRMC,143848.00,A,5345.86254,N,02809.79330,E,44.649,90.14,241015,,,A*6F
364: $GPRMC,143849.00,A,5345.86236,N,02809.81416,E,44.658,90.76,241015,,,A*6A
364: $GPRMC,143850.00,A,5345.86197,N,02809.83503,E,44.440,91.63,241015,,,A*63
365: $GPRMC,143851.00,A,5345.86126,N,02809.85604,E,44.418,92.36,241015,,,A*64
366: $GPRMC,143852.00,A,5345.86050,N,02809.87697,E,44.371,92.96,241015,,,A*6D
367: $GPRMC,143853.00,A,5345.85967,N,02809.89798,E,44.552,93.30,241015,,,A*68
368: $GPRMC,143854.00,A,5345.85879,N,02809.91900,E,44.776,93.57,241015,,,A*62
369: $GPRMC,143855.00,A,5345.85786,N,02809.94017,E,45.246,94.18,241015,,,A*6D
370: $GPRMC,143856.00,A,5345.85685,N,02809.96140,E,45.453,94.49,241015,,,A*6B
371: $GPRMC,143857.00,A,5345.85578,N,02809.98263,E,45.425,94.87,241015,,,A*64
372: $GPRMC,143858.00,A,5345.85475,N,02810.00389,E,45.382,94.39,241015,,,A*64
373: $GPRMC,143859.00,A,5345.85387,N,02810.02516,E,45.304,93.62,241015,,,A*6A
374: $GPRMC,143900.00,A,5345.85317,N,02810.04648,E,45.626,92.77,241015,,,A*60
375: $GPRMC,143901.00,A,5345.85259,N,02810.06802,E,46.087,92.19,241015,,,A*6E
376: $GPRMC,143902.00,A,5345.85218,N,02810.08988,E,46.685,91.53,241015,,,A*6C
377: $GPRMC,143903.00,A,5345.85190,N,02810.11203,E,47.331,91.02,241015,,,A*61
378: $GPRMC,143904.00,A,5345.85170,N,02810.13448,E,48.031,90.79,241015,,,A*62
379: $GPRMC,143905.00,A,5345.85147,N,02810.15719,E,48.637,90.87,241015,,,A*67
380: $GPRMC,143906.00,A,5345.85128,N,02810.18020,E,49.294,90.68,241015,,,A*60
380: $GPRMC,143907.00,A,5345.85105,N,02810.20357,E,49.982,90.97,241015,,,A*6A
381: $GPRMC,143908.00,A,5345.85086,N,02810.22716,E,50.569,90.57,241015,,,A*61
382: $GPRMC,143909.00,A,5345.85074,N,02810.25106,E,51.237,90.33,241015,,,A*62
383: $GPRMC,143910.00,A,5345.85065,N,02810.27525,E,51.882,90.30,241015,,,A*6A
384: $GPRMC,143911.00,A,5345.85063,N,02810.29972,E,52.496,90.06,241015,,,A*62
385: $GPRMC,143912.00,A,5345.85064,N,02810.32440,E,52.932,89.87,241015,,,A*62
386: $GPRMC,143913.00,A,5345.85074,N,02810.34923,E,53.258,89.37,241015,,,A*61
387: $GPRMC,143914.00,A,5345.85107,N,02810.37414,E,53.486,88.47,241015,,,A*6A
388: $GPRMC,143915.00,A,5345.85164,N,02810.39922,E,53.662,87.60,241015,,,A*6A
389: $GPRMC,143916.00,A,5345.85240,N,02810.42439,E,53.751,86.88,241015,,,A*61
390: $GPRMC,143917.00,A,5345.85327,N,02810.44951,E,53.757,86.54,241015,,,A*62
391: $GPRMC,143918.00,A,5345.85427,N,02810.47468,E,53.952,85.95,241015,,,A*6B
392: $GPRMC,143919.00,A,5345.85535,N,02810.49999,E,53.731,85.27,241015,,,A*67
393: $GPRMC,143920.00,A,5345.85670,N,02810.52507,E,53.683,84.68,241015,,,A*6C
394: $GPRMC,143921.00,A,5345.85815,N,02810.55030,E,53.938,83.99,241015,,,A*60
395: $GPRMC,143922.00,A,5345.85983,N,02810.57558,E,54.110,83.04,241015,,,A*65
395: $GPRMC,143923.00,A,5345.86187,N,02810.60098,E,54.417,81.70,241015,,,A*65
396: $GPRMC,143924.00,A,5345.86428,N,02810.62645,E,54.711,80.49,241015,,,A*68
397: $GPRMC,143925.00,A,5345.86694,N,02810.65202,E,55.422,79.78,241015,,,A*6A
398: $GPRMC,143926.00,A,5345.86966,N,02810.67782,E,55.977,79.80,241015,,,A*6E
399: $GPRMC,143927.00,A,5345.87247,N,02810.70383,E,56.254,79.62,241015,,,A*60
400: $GPRMC,143928.00,A,5345.87531,N,02810.72994,E,56.482,79.66,241015,,,A*6E
401: $GPRMC,143929.00,A,5345.87821,N,02810.75616,E,56.780,79.48,241015,,,A*6C
402: $GPRMC,143930.00,A,5345.88115,N,02810.78255,E,57.184,79.41,241015,,,A*61
403: $GPRMC,143931.00,A,5345.88412,N,02810.80893,E,57.469,79.25,241015,,,A*61
404: $GPRMC,143932.00,A,5345.88707,N,02810.83541,E,57.562,79.28,241015,,,A*63
405: $GPRMC,143933.00,A,5345.89004,N,02810.86201,E,57.784,79.42,241015,,,A*67
406: $GPRMC,143934.00,A,5345.89298,N,02810.88871,E,58.007,79.44,241015,,,A*61
407: $GPRMC,143935.00,A,5345.89590,N,02810.91548,E,58.033,79.58,241015,,,A*6A
407: $GPRMC,143936.00,A,5345.89876,N,02810.94231,E,58.051,79.85,241015,,,A*64
408: $GPRMC,143937.00,A,5345.90157,N,02810.96917,E,58.211,80.06,241015,,,A*61
409: $GPRMC,143938.00,A,5345.90432,N,02810.99613,E,58.540,80.38,241015,,,A*62
410: $GPRMC,143939.00,A,5345.90697,N,02811.02323,E,58.862,80.75,241015,,,A*6F
411: $GPRMC,143940.00,A,5345.90951,N,02811.05048,E,58.936,81.19,241015,,,A*66
412: $GPRMC,143941.00,A,5345.91188,N,02811.07781,E,58.904,81.95,241015,,,A*6F
413: $GPRMC,143942.00,A,5345.91398,N,02811.10532,E,59.166,83.11,241015,,,A*60
414: $GPRMC,143943.00,A,5345.91566,N,02811.13293,E,59.393,84.60,241015,,,A*60
415: $GPRMC,143944.00,A,5345.91705,N,02811.16076,E,59.765,85.54,241015,,,A*67
416: $GPRMC,143945.00,A,5345.91825,N,02811.18861,E,59.700,86.12,241015,,,A*69
417: $GPRMC,143946.00,A,5345.91926,N,02811.21635,E,59.613,86.74,241015,,,A*6E
418: $GPRMC,143947.00,A,5345.92019,N,02811.24424,E,59.702,87.05,241015,,,A*68
419: $GPRMC,143948.00,A,5345.92103,N,02811.27218,E,59.725,87.44,241015,,,A*67
420: $GPRMC,143949.00,A,5345.92177,N,02811.30034,E,60.133,87.75,241015,,,A*66
421: $GPRMC,143950.00,A,5345.92231,N,02811.32845,E,60.044,88.50,241015,,,A*6A
422: $GPRMC,143951.00,A,5345.92273,N,02811.35660,E,60.305,88.63,241015,,,A*65
423: $GPRMC,143952.00,A,5345.92308,N,02811.38453,E,59.907,88.82,241015,,,A*69
424: $GPRMC,143953.00,A,5345.92315,N,02811.41249,E,59.954,89.98,241015,,,A*6B
425: $GPRMC,143954.00,A,5345.92293,N,02811.44063,E,60.346,90.72,241015,,,A*63
425: $GPRMC,143955.00,A,5345.92249,N,02811.46887,E,60.494,91.36,241015,,,A*6C
426: $GPRMC,143956.00,A,5345.92190,N,02811.49711,E,60.200,92.02,241015,,,A*68
427: $GPRMC,143957.00,A,5345.92114,N,02811.52526,E,59.869,92.62,241015,,,A*60
428: $GPRMC,143958.00,A,5345.92016,N,02811.55326,E,59.721,93.29,241015,,,A*60
429: $GPRMC,143959.00,A,5345.91912,N,02811.58126,E,59.740,93.67,241015,,,A*6D
430: $GPRMC,144000.00,A,5345.91791,N,02811.60905,E,59.256,94.17,241015,,,A*6A
431: $GPRMC,144001.00,A,5345.91659,N,02811.63667,E,58.907,94.82,241015,,,A*64
432: $GPRMC,144002.00,A,5345.91512,N,02811.66411,E,58.628,95.50,241015,,,A*61
433: $GPRMC,144003.00,A,5345.91346,N,02811.69132,E,58.448,95.98,241015,,,A*6C
434: $GPRMC,144004.00,A,5345.91185,N,02811.71844,E,58.295,95.74,241015,,,A*63
435: $GPRMC,144005.00,A,5345.91036,N,02811.74556,E,58.140,95.43,241015,,,A*6F
436: $GPRMC,144006.00,A,5345.90887,N,02811.77261,E,58.033,95.59,241015,,,A*61
437: $GPRMC,144007.00,A,5345.90730,N,02811.79965,E,58.131,95.70,241015,,,A*6A
438: $GPRMC,144008.00,A,5345.90572,N,02811.82673,E,58.272,95.63,241015,,,A*6B
439: $GPRMC,144009.00,A,5345.90417,N,02811.85383,E,58.067,95.58,241015,,,A*6B
439: $GPRMC,144010.00,A,5345.90269,N,02811.88109,E,58.455,95.19,241015,,,A*61
440: $GPRMC,144011.00,A,5345.90112,N,02811.90847,E,58.622,95.62,241015,,,A*6B
441: $GPRMC,144012.00,A,5345.89953,N,02811.93587,E,58.863,95.81,241015,,,A*69
442: $GPRMC,144013.00,A,5345.89794,N,02811.96336,E,59.022,95.65,241015,,,A*62
443: $GPRMC,144014.00,A,5345.89648,N,02811.99103,E,59.326,94.76,241015,,,A*6A
444: $GPRMC,144015.00,A,5345.89523,N,02812.01897,E,59.712,93.96,241015,,,A*69
445: $GPRMC,144016.00,A,5345.89407,N,02812.04707,E,60.106,93.80,241015,,,A*60
446: $GPRMC,144017.00,A,5345.89276,N,02812.07527,E,60.294,94.64,241015,,,A*67
447: $GPRMC,144018.00,A,5345.89129,N,02812.10355,E,60.587,95.13,241015,,,A*60
448: $GPRMC,144019.00,A,5345.88972,N,02812.13203,E,61.079,95.42,241015,,,A*66
449: $GPRMC,144020.00,A,5345.88811,N,02812.16060,E,61.287,95.38,241015,,,A*64
450: $GPRMC,144021.00,A,5345.88650,N,02812.18920,E,61.201,95.36,241015,,,A*6D
451: $GPRMC,144022.00,A,5345.88487,N,02812.21780,E,61.255,95.53,241015,,,A*6A
452: $GPRMC,144023.00,A,5345.88321,N,02812.24639,E,61.115,95.64,241015,,,A*65
453: $GPRMC,144024.00,A,5345.88156,N,02812.27491,E,61.128,95.50,241015,,,A*6A
454: $GPRMC,144025.00,A,5345.87989,N,02812.30346,E,61.284,95.71,241015,,,A*63
455: $GPRMC,144026.00,A,5345.87818,N,02812.33187,E,60.885,95.91,241015,,,A*61
455: $GPRMC,144027.00,A,5345.87644,N,02812.36007,E,60.307,96.03,241015,,,A*62
456: $GPRMC,144028.00,A,5345.87476,N,02812.38779,E,59.339,95.80,241015,,,A*61
457: $GPRMC,144029.00,A,5345.87329,N,02812.41485,E,57.847,95.29,241015,,,A*6C
458: $GPRMC,144030.00,A,5345.87189,N,02812.44110,E,56.115,95.21,241015,,,A*67
459: $GPRMC,144031.00,A,5345.87051,N,02812.46650,E,54.289,95.18,241015,,,A*6D
460: $GPRMC,144032.00,A,5345.86908,N,02812.49130,E,53.256,95.33,241015,,,A*68
461: $GPRMC,144033.00,A,5345.86758,N,02812.51536,E,51.621,95.66,241015,,,A*6F
462: $GPRMC,144034.00,A,5345.86574,N,02812.53946,E,51.939,96.77,241015,,,A*68
463: $GPRMC,144035.00,A,5345.86430,N,02812.56275,E,49.699,95.95,241015,,,A*65
464: $GPRMC,144036.00,A,5345.86294,N,02812.58567,E,49.313,95.72,241015,,,A*6A
465: $GPRMC,144037.00,A,5345.86158,N,02812.60876,E,49.870,95.77,241015,,,A*65
466: $GPRMC,144038.00,A,5345.86028,N,02812.63192,E,49.987,95.51,241015,,,A*61
467: $GPRMC,144039.00,A,5345.85906,N,02812.65520,E,50.026,95.09,241015,,,A*6A
467: $GPRMC,144040.00,A,5345.85786,N,02812.67868,E,50.408,95.08,241015,,,A*68
468: $GPRMC,144041.00,A,5345.85656,N,02812.70213,E,50.598,95.57,241015,,,A*67
469: $GPRMC,144042.00,A,5345.85513,N,02812.72569,E,50.830,95.87,241015,,,A*6C
470: $GPRMC,144043.00,A,5345.85371,N,02812.74932,E,50.716,95.94,241015,,,A*62
471: $GPRMC,144044.00,A,5345.85222,N,02812.77306,E,51.027,96.21,241015,,,A*65
472: $GPRMC,144045.00,A,5345.85071,N,02812.79693,E,51.514,96.17,241015,,,A*67
473: $GPRMC,144046.00,A,5345.84921,N,02812.82061,E,51.141,96.05,241015,,,A*61
474: $GPRMC,144047.00,A,5345.84780,N,02812.84386,E,49.720,95.73,241015,,,A*63
475: $GPRMC,144048.00,A,5345.84647,N,02812.86664,E,48.499,95.78,241015,,,A*66
476: $GPRMC,144049.00,A,5345.84510,N,02812.88896,E,47.729,95.93,241015,,,A*69
477: $GPRMC,144050.00,A,5345.84389,N,02812.91123,E,47.559,95.50,241015,,,A*62
478: $GPRMC,144051.00,A,5345.84263,N,02812.93347,E,47.645,95.84,241015,,,A*63
479: $GPRMC,144052.00,A,5345.84129,N,02812.95579,E,47.883,96.18,241015,,,A*62
480: $GPRMC,144053.00,A,5345.83985,N,02812.97823,E,48.465,96.47,241015,,,A*6B
480: $GPRMC,144054.00,A,5345.83823,N,02813.00077,E,49.065,97.04,241015,,,A*64
481: $GPRMC,144055.00,A,5345.83649,N,02813.02332,E,48.984,97.43,241015,,,A*63
482: $GPRMC,144056.00,A,5345.83476,N,02813.04572,E,48.525,97.35,241015,,,A*6C
483: $GPRMC,144057.00,A,5345.83279,N,02813.06826,E,48.852,98.58,241015,,,A*63
484: $GPRMC,144058.00,A,5345.83047,N,02813.09051,E,48.565,100.39,241015,,,A*5A
485: $GPRMC,144059.00,A,5345.82793,N,02813.11261,E,48.237,101.19,241015,,,A*5F
486: $GPRMC,144100.00,A,5345.82512,N,02813.13490,E,48.710,102.23,241015,,,A*59
487: $GPRMC,144101.00,A,5345.82232,N,02813.15692,E,48.471,102.26,241015,,,A*5A
488: $GPRMC,144102.00,A,5345.81923,N,02813.17873,E,48.625,103.61,241015,,,A*53
489: $GPRMC,144103.00,A,5345.81561,N,02813.20063,E,48.709,106.07,241015,,,A*5F
490: $GPRMC,144104.00,A,5345.81158,N,02813.22233,E,48.873,107.89,241015,,,A*56
491: $GPRMC,144105.00,A,5345.80758,N,02813.24420,E,48.885,107.06,241015,,,A*5C
492: $GPRMC,144106.00,A,5345.80359,N,02813.26619,E,48.750,106.82,241015,,,A*5A
493: $GPRMC,144107.00,A,5345.79959,N,02813.28806,E,48.667,106.88,241015,,,A*56
494: $GPRMC,144108.00,A,5345.79567,N,02813.30978,E,48.577,107.12,241015,,,A*59
495: $GPRMC,144109.00,A,5345.79163,N,02813.33131,E,48.515,107.91,241015,,,A*51
496: $GPRMC,144110.00,A,5345.78740,N,02813.35287,E,48.348,108.44,241015,,,A*5E
497: $GPRMC,144111.00,A,5345.78306,N,02813.37429,E,48.192,108.97,241015,,,A*52
497: $GPRMC,144112.00,A,5345.77871,N,02813.39564,E,48.138,109.13,241015,,,A*5E
498: $GPRMC,144113.00,A,5345.77418,N,02813.41668,E,47.727,110.27,241015,,,A*54
499: $GPRMC,144114.00,A,5345.76968,N,02813.43800,E,48.477,109.46,241015,,,A*5C
500: $GPRMC,144115.00,A,5345.76489,N,02813.45906,E,48.425,111.05,241015,,,A*57
501: $GPRMC,144116.00,A,5345.75998,N,02813.48043,E,49.216,111.36,241015,,,A*58
502: $GPRMC,144117.00,A,5345.75503,N,02813.50220,E,50.067,111.26,241015,,,A*54
503: $GPRMC,144118.00,A,5345.74963,N,02813.52377,E,50.640,113.29,241015,,,A*5F
504: $GPRMC,144119.00,A,5345.74377,N,02813.54508,E,51.124,114.89,241015,,,A*50
505: $GPRMC,144120.00,A,5345.73760,N,02813.56658,E,51.793,116.02,241015,,,A*50
506: $GPRMC,144121.00,A,5345.73115,N,02813.58817,E,52.436,116.83,241015,,,A*58
507: $GPRMC,144122.00,A,5345.72445,N,02813.60992,E,53.152,117.38,241015,,,A*5A
508: $GPRMC,144123.00,A,5345.71755,N,02813.63170,E,53.963,117.60,241015,,,A*5A
509: $GPRMC,144124.00,A,5345.71043,N,02813.65404,E,54.928,118.01,241015,,,A*5D
510: $GPRMC,144125.00,A,5345.70299,N,02813.67640,E,55.426,119.45,241015,,,A*5B
511: $GPRMC,144126.00,A,5345.69533,N,02813.69890,E,56.018,120.15,241015,,,A*5F
512: $GPRMC,144127.00,A,5345.68724,N,02813.72134,E,56.693,121.49,241015,,,A*5B
512: $GPRMC,144128.00,A,5345.67893,N,02813.74359,E,57.311,122.13,241015,,,A*55
513: $GPRMC,144129.00,A,5345.67029,N,02813.76592,E,57.545,123.49,241015,,,A*57
514: $GPRMC,144130.00,A,5345.66140,N,02813.78812,E,57.962,124.23,241015,,,A*59
515: $GPRMC,144131.00,A,5345.65231,N,02813.81018,E,57.732,125.16,241015,,,A*56
516: $GPRMC,144132.00,A,5345.64291,N,02813.83193,E,58.017,126.10,241015,,,A*54
517: $GPRMC,144133.00,A,5345.63327,N,02813.85351,E,58.105,127.04,241015,,,A*52
518: $GPRMC,144134.00,A,5345.62351,N,02813.87503,E,58.267,127.55,241015,,,A*55
519: $GPRMC,144135.00,A,5345.61368,N,02813.89648,E,58.283,127.81,241015,,,A*5C
520: $GPRMC,144136.00,A,5345.60352,N,02813.91771,E,58.726,129.01,241015,,,A*59
521: $GPRMC,144137.00,A,5345.59318,N,02813.93888,E,59.006,129.49,241015,,,A*5F
522: $GPRMC,144138.00,A,5345.58254,N,02813.96003,E,59.229,130.29,241015,,,A*57
523: $GPRMC,144139.00,A,5345.57188,N,02813.98098,E,59.294,130.71,241015,,,A*5C
524: $GPRMC,144140.00,A,5345.56117,N,02814.00195,E,59.410,130.59,241015,,,A*5F
524: $GPRMC,144141.00,A,5345.55032,N,02814.02296,E,59.524,130.76,241015,,,A*52
525: $GPRMC,144142.00,A,5345.53952,N,02814.04397,E,59.526,130.76,241015,,,A*5C
526: $GPRMC,144143.00,A,5345.52891,N,02814.06532,E,59.310,130.56,241015,,,A*58
527: $GPRMC,144144.00,A,5345.51838,N,02814.08657,E,59.004,130.75,241015,,,A*56
528: $GPRMC,144145.00,A,5345.50775,N,02814.10757,E,59.111,130.65,241015,,,A*5C
529: $GPRMC,144146.00,A,5345.49693,N,02814.12848,E,59.265,130.79,241015,,,A*50
530: $GPRMC,144147.00,A,5345.48627,N,02814.14931,E,58.651,130.83,241015,,,A*51
531: $GPRMC,144148.00,A,5345.47571,N,02814.17006,E,58.323,130.63,241015,,,A*51
532: $GPRMC,144149.00,A,5345.46514,N,02814.19075,E,58.333,130.52,241015,,,A*5B
533: $GPRMC,144150.00,A,5345.45450,N,02814.21137,E,58.582,130.98,241015,,,A*57
534: $GPRMC,144151.00,A,5345.44387,N,02814.23192,E,58.578,130.88,241015,,,A*53
535: $GPRMC,144152.00,A,5345.43321,N,02814.25258,E,58.768,131.14,241015,,,A*5F
536: $GPRMC,144153.00,A,5345.42256,N,02814.27324,E,58.728,131.18,241015,,,A*5E
537: $GPRMC,144154.00,A,5345.41190,N,02814.29390,E,58.862,130.91,241015,,,A*53
538: $GPRMC,144155.00,A,5345.40127,N,02814.31470,E,59.032,130.79,241015,,,A*55
539: $GPRMC,144156.00,A,5345.39064,N,02814.33558,E,58.993,130.52,241015,,,A*5D
540: $GPRMC,144157.00,A,5345.38008,N,02814.35652,E,58.946,130.29,241015,,,A*5C
540: $GPRMC,144158.00,A,5345.36948,N,02814.37749,E,59.033,130.59,241015,,,A*54
541: $GPRMC,144159.00,A,5345.35888,N,02814.39842,E,58.949,130.57,241015,,,A*5A
542: $GPRMC,144200.00,A,5345.34832,N,02814.41937,E,58.825,130.44,241015,,,A*50
543: $GPRMC,144201.00,A,5345.33773,N,02814.44039,E,58.912,130.47,241015,,,A*58
544: $GPRMC,144202.00,A,5345.32720,N,02814.46146,E,59.015,130.47,241015,,,A*58
545: $GPRMC,144203.00,A,5345.31662,N,02814.48254,E,59.143,130.59,241015,,,A*5E
546: $GPRMC,144204.00,A,5345.30590,N,02814.50353,E,59.207,130.82,241015,,,A*5C
547: $GPRMC,144205.00,A,5345.29531,N,02814.52470,E,59.059,130.22,241015,,,A*59
548: $GPRMC,144206.00,A,5345.28460,N,02814.54565,E,58.994,130.86,241015,,,A*5A
549: $GPRMC,144207.00,A,5345.27431,N,02814.56703,E,58.890,129.00,241015,,,A*53
550: $GPRMC,144208.00,A,5345.26419,N,02814.58862,E,58.894,128.18,241015,,,A*5D
551: $GPRMC,144209.00,A,5345.25421,N,02814.61043,E,59.017,127.58,241015,,,A*5C
552: $GPRMC,144210.00,A,5345.24455,N,02814.63237,E,58.590,126.31,241015,,,A*50
553: $GPRMC,144211.00,A,5345.23506,N,02814.65455,E,58.673,125.75,241015,,,A*58
554: $GPRMC,144212.00,A,5345.22588,N,02814.67698,E,58.574,124.74,241015,,,A*59
555: $GPRMC,144213.00,A,5345.21671,N,02814.69958,E,58.850,124.42,241015,,,A*5D
556: $GPRMC,144214.00,A,5345.20748,N,02814.72220,E,59.061,124.52,241015,,,A*54
557: $GPRMC,144215.00,A,5345.19852,N,02814.74501,E,58.891,123.79,241015,,,A*51
558: $GPRMC,144216.00,A,5345.18947,N,02814.76789,E,58.901,123.93,241015,,,A*5A
559: $GPRMC,144217.00,A,5345.18066,N,02814.79092,E,58.657,122.50,241015,,,A*51
560: $GPRMC,144218.00,A,5345.17216,N,02814.81434,E,58.717,120.81,241015,,,A*50
560: $GPRMC,144219.00,A,5345.16385,N,02814.83799,E,58.688,120.14,241015,,,A*56
561: $GPRMC,144220.00,A,5345.15550,N,02814.86165,E,58.732,120.45,241015,,,A*55
562: $GPRMC,144221.00,A,5345.14721,N,02814.88531,E,58.687,119.96,241015,,,A*51
