0: $GPGSV,4,1,13,01,70,197,22,03,61,273,36,04,46,160,33,11,45,193,34*7C
0: $GPGSV,4,2,13,12,06,015,,14,23,051,27,17,29,303,25,19,28,225,30*77
0: $GPGSV,4,3,13,22,00,092,,23,25,214,29,25,00,049,,31,33,102,37*72
0: $GPGSV,4,4,13,32,77,084,26*42
0: $GPGLL,5348.86179,N,02746.42832,E,142210.00,A,A*6E
0: $GPRMC,142211.00,A,5348.85161,N,02746.44668,E,53.677,133.22,241015,,,A*57
0: $GPVTG,133.22,T,,M,53.677,N,99.411,K,A*38
1: $GPGGA,142211.00,5348.85161,N,02746.44668,E,1,10,0.94,212.6,M,24.8,M,,*52
1: $GPGSA,A,3,32,01,03,04,11,19,17,14,23,31,,,1.78,0.94,1.51*0B
1: $GPGSV,4,1,13,01,70,197,22,03,61,274,36,04,46,160,28,11,45,193,31*74
1: $GPGSV,4,2,13,12,06,015,,14,23,051,26,17,29,303,32,19,28,225,31*71
1: $GPGSV,4,3,13,22,00,092,,23,25,214,29,25,00,049,,31,33,102,37*72
1: $GPGSV,4,4,13,32,77,084,25*41
1: $GPGLL,5348.85161,N,02746.44668,E,142211.00,A,A*62
1: $GPRMC,142212.00,A,5348.84172,N,02746.46524,E,53.241,131.66,241015,,,A*5D
1: $GPVTG,131.66,T,,M,53.241,N,98.602,K,A*3A
1: $GPGGA,142212.00,5348.84172,N,02746.46524,E,1,10,0.94,212.1,M,24.8,M,,*5C
2: $GPGSA,A,3,32,01,03,04,11,19,17,14,23,31,,,1.78,0.94,1.51*0B
2: $GPGSV,4,1,13,01,70,197,21,03,61,274,37,04,45,160,29,11,45,193,31*74
2: $GPGSV,4,2,13,12,06,015,,14,23,051,24,17,29,303,32,19,28,225,30*72
2: $GPGSV,4,3,13,22,00,092,,23,25,214,28,25,00,049,,31,33,102,34*70
2: $GPGSV,4,4,13,32,77,084,25*41
2: $GPGLL,5348.84172,N,02746.46524,E,142212.00,A,A*6B
2: $GPRMC,142213.00,A,5348.83184,N,02746.48396,E,53.510,131.50,241015,,,A*55
2: $GPVTG,131.50,T,,M,53.510,N,99.100,K,A*38
2: $GPGGA,142213.00,5348.83184,N,02746.48396,E,1,10,0.94,211.4,M,24.8,M,,*54
3: $GPGSA,A,3,32,01,03,04,11,19,17,14,23,31,,,1.78,0.94,1.51*0B
3: $GPGSV,4,1,13,01,70,197,21,03,61,274,37,04,45,160,33,11,45,193,29*76
3: $GPGSV,4,2,13,12,06,015,,14,23,051,26,17,29,303,27,19,28,225,23*76
3: $GPGSV,4,3,13,22,00,092,,23,25,214,26,25,00,049,,31,33,102,32*78
3: $GPGSV,4,4,13,32,77,084,26*42
3: $GPGLL,5348.83184,N,02746.48396,E,142213.00,A,A*65
3: $GPRMC,142214.00,A,5348.82211,N,02746.50298,E,53.515,130.45,241015,,,A*5A
3: $GPVTG,130.45,T,,M,53.515,N,99.109,K,A*31
3: $GPGGA,142214.00,5348.82211,N,02746.50298,E,1,10,0.94,210.8,M,24.8,M,,*56
4: $GPGSA,A,3,32,01,03,04,11,19,17,14,23,31,,,1.78,0.94,1.51*0B
4: $GPGSV,4,1,13,01,70,197,20,03,61,274,38,04,45,160,30,11,45,193,30*73
4: $GPGSV,4,2,13,12,06,015,,14,23,051,26,17,29,303,26,19,28,225,22*76
4: $GPGSV,4,3,13,22,00,092,,23,25,214,25,25,00,049,,31,33,102,31*78
4: $GPGSV,4,4,13,32,77,084,25*41
4: $GPGLL,5348.82211,N,02746.50298,E,142214.00,A,A*6A
4: $GPRMC,142215.00,A,5348.81259,N,02746.52243,E,53.840,129.54,241015,,,A*55
4: $GPVTG,129.54,T,,M,53.840,N,99.712,K,A*38
4: $GPGGA,142215.00,5348.81259,N,02746.52243,E,1,10,0.94,210.3,M,24.8,M,,*57
4: $GPGSA,A,3,32,01,03,04,11,19,17,14,23,31,,,1.78,0.94,1.51*0B
5: $GPGSV,4,1,13,01,70,197,18,03,61,274,38,04,45,160,31,11,45,193,32*7B
5: $GPGSV,4,2,13,12,06,015,,14,23,051,25,17,29,303,28,19,28,225,30*78
5: $GPGSV,4,3,13,22,00,092,,23,25,214,25,25,00,049,,31,33,102,33*7A
5: $GPGSV,4,4,13,32,77,084,26*42
5: $GPGLL,5348.81259,N,02746.52243,E,142215.00,A,A*60
5: $GPRMC,142216.00,A,5348.80310,N,02746.54204,E,54.087,129.27,241015,,,A*5E
5: $GPVTG,129.27,T,,M,54.087,N,100.168,K,A*02
5: $GPGGA,142216.00,5348.80310,N,02746.54204,E,1,10,0.94,209.5,M,24.8,M,,*52
5: $GPGSA,A,3,32,01,03,04,11,19,17,14,23,31,,,1.78,0.94,1.51*0B
6: $GPGSV,4,1,13,01,70,197,16,03,61,274,38,04,45,160,32,11,45,193,35*71
6: $GPGSV,4,2,13,12,06,015,,14,23,051,24,17,29,303,30,19,28,225,29*78
6: $GPGSV,4,3,13,22,00,092,,23,25,214,27,25,00,049,,31,33,102,32*79
6: $GPGSV,4,4,13,32,77,084,25*41
6: $GPGLL,5348.80310,N,02746.54204,E,142216.00,A,A*6B
6: $GPRMC,142217.00,A,5348.79351,N,02746.56191,E,54.475,129.17,241015,,,A*5B
6: $GPVTG,129.17,T,,M,54.475,N,100.888,K,A*0F
6: $GPGGA,142217.00,5348.79351,N,02746.56191,E,1,10,0.94,209.4,M,24.8,M,,*5C
6: $GPGSA,A,3,32,01,03,04,11,19,17,14,23,31,,,1.78,0.94,1.51*0B
6: $GPGSV,4,1,13,01,70,197,19,03,61,274,38,04,45,160,36,11,45,193,34*7B
7: $GPGSV,4,2,13,12,06,015,,14,23,051,25,17,29,303,29,19,28,225,30*79
7: $GPGSV,4,3,13,22,00,092,,23,25,214,25,25,00,049,,31,33,102,30*79
7: $GPGSV,4,4,13,32,77,084,26*42
7: $GPGLL,5348.79351,N,02746.56191,E,142217.00,A,A*64
7: $GPRMC,142218.00,A,5348.78402,N,02746.58181,E,54.668,128.78,241015,,,A*5D
7: $GPVTG,128.78,T,,M,54.668,N,101.245,K,A*03
7: $GPGGA,142218.00,5348.78402,N,02746.58181,E,1,10,0.94,208.6,M,24.8,M,,*5F
7: $GPGSA,A,3,32,01,03,04,11,19,17,14,23,31,,,1.78,0.94,1.51*0B
7: $GPGSV,4,1,13,01,70,197,19,03,61,274,39,04,45,160,32,11,45,193,35*7F
8: $GPGSV,4,2,13,12,06,015,,14,23,051,26,17,29,303,28,19,28,225,31*7A
8: $GPGSV,4,3,13,22,00,092,,23,25,214,27,25,00,049,,31,33,102,30*7B
8: $GPGSV,4,4,13,32,77,084,26*42
8: $GPGLL,5348.78402,N,02746.58181,E,142218.00,A,A*64
8: $GPRMC,142219.00,A,5348.77450,N,02746.60183,E,54.903,128.71,241015,,,A*56
8: $GPVTG,128.71,T,,M,54.903,N,101.680,K,A*05
8: $GPGGA,142219.00,5348.77450,N,02746.60183,E,1,10,0.94,207.8,M,24.8,M,,*5E
8: $GPGSA,A,3,32,01,03,04,11,19,17,14,23,31,,,1.78,0.94,1.51*0B
8: $GPGSV,4,1,13,01,70,197,18,03,61,274,38,04,45,160,33,11,45,193,35*7E
9: $GPGSV,4,2,13,12,06,015,,14,23,051,27,17,29,303,27,19,28,225,31*74
9: $GPGSV,4,3,13,22,00,092,,23,25,214,32,25,00,049,,31,33,102,30*7F
9: $GPGSV,4,4,13,32,77,084,26*42
9: $GPGLL,5348.77450,N,02746.60183,E,142219.00,A,A*64
9: $GPRMC,142220.00,A,5348.76494,N,02746.62202,E,55.186,128.28,241015,,,A*55
9: $GPVTG,128.28,T,,M,55.186,N,102.205,K,A*07
9: $GPGGA,142220.00,5348.76494,N,02746.62202,E,1,10,0.94,206.6,M,24.8,M,,*5A
9: $GPGSA,A,3,32,01,03,04,11,19,17,14,23,31,,,1.78,0.94,1.51*0B
9: $GPGSV,4,1,13,01,70,197,16,03,61,274,39,04,45,160,30,11,45,193,37*70
9: $GPGSV,4,2,13,12,06,014,,14,23,051,32,17,29,303,27,19,28,225,31*71
10: $GPGSV,4,3,13,22,00,092,,23,25,214,30,25,00,049,,31,33,102,29*75
10: $GPGSV,4,4,13,32,77,084,26*42
10: $GPGLL,5348.76494,N,02746.62202,E,142220.00,A,A*6F
10: $GPRMC,142221.00,A,5348.75548,N,02746.64236,E,55.409,128.06,241015,,,A*58
10: $GPVTG,128.06,T,,M,55.409,N,102.617,K,A*0E
10: $GPGGA,142221.00,5348.75548,N,02746.64236,E,1,10,0.94,205.6,M,24.8,M,,*5A
10: $GPGSA,A,3,32,01,03,04,11,19,17,14,23,31,,,1.78,0.94,1.51*0B
10: $GPGSV,4,1,13,01,70,197,16,03,61,274,39,04,45,160,36,11,45,193,36*77
10: $GPGSV,4,2,13,12,06,014,,14,23,051,32,17,29,303,26,19,28,225,32*73
11: $GPGSV,4,3,13,22,00,092,,23,25,214,30,25,00,049,,31,33,102,29*75
11: $GPGSV,4,4,13,32,77,084,25*41
11: $GPGLL,5348.75548,N,02746.64236,E,142221.00,A,A*6C
11: $GPRMC,142222.00,A,5348.74598,N,02746.66281,E,55.506,128.09,241015,,,A*58
11: $GPVTG,128.09,T,,M,55.506,N,102.797,K,A*06
11: $GPGGA,142222.00,5348.74598,N,02746.66281,E,1,10,0.94,204.8,M,24.8,M,,*54
11: $GPGSA,A,3,32,01,03,04,11,19,17,14,23,31,,,1.78,0.94,1.51*0B
11: $GPGSV,4,1,13,01,70,197,14,03,61,274,39,04,45,160,35,11,45,193,38*78
11: $GPGSV,4,2,13,12,06,014,,14,22,050,32,17,29,303,25,19,28,225,33*71
11: $GPGSV,4,3,13,22,00,092,,23,25,214,30,25,00,049,,31,33,102,28*74
12: $GPGSV,4,4,13,32,77,084,24*40
12: $GPGLL,5348.74598,N,02746.66281,E,142222.00,A,A*6D
12: $GPRMC,142223.00,A,5348.73617,N,02746.68316,E,55.782,128.07,241015,,,A*5B
12: $GPVTG,128.07,T,,M,55.782,N,103.309,K,A*04
12: $GPGGA,142223.00,5348.73617,N,02746.68316,E,1,10,0.94,204.5,M,24.8,M,,*5A
12: $GPGSA,A,3,32,01,03,04,11,19,17,14,23,31,,,1.78,0.94,1.51*0B
12: $GPGSV,4,1,13,01,70,197,13,03,61,274,40,04,45,160,32,11,45,193,35*7B
12: $GPGSV,4,2,13,12,06,014,,14,22,050,39,17,29,303,26,19,28,225,20*7B
12: $GPGSV,4,3,13,22,00,092,,23,25,214,25,25,00,049,,31,33,102,26*7E
13: $GPGSV,4,4,13,32,77,084,24*40
13: $GPGLL,5348.73617,N,02746.68316,E,142223.00,A,A*6E
13: $GPRMC,142224.00,A,5348.72648,N,02746.70374,E,56.103,128.32,241015,,,A*50
13: $GPVTG,128.32,T,,M,56.103,N,103.902,K,A*0F
13: $GPGGA,142224.00,5348.72648,N,02746.70374,E,1,10,0.94,204.0,M,24.8,M,,*5E
13: $GPGSA,A,3,32,01,03,04,11,19,17,14,23,31,,,1.78,0.94,1.51*0B
13: $GPGSV,4,1,13,01,70,197,14,03,61,274,39,04,45,160,33,11,45,193,35*73
13: $GPGSV,4,2,13,12,06,014,,14,22,050,36,17,29,303,25,19,28,225,18*7C
13: $GPGSV,4,3,13,22,00,092,,23,25,214,22,25,00,049,,31,33,102,27*78
13: $GPGSV,4,4,13,32,77,084,26*42
14: $GPGLL,5348.72648,N,02746.70374,E,142224.00,A,A*6F
14: $GPRMC,142225.00,A,5348.71669,N,02746.72427,E,56.365,128.22,241015,,,A*51
14: $GPVTG,128.22,T,,M,56.365,N,104.388,K,A*03
14: $GPGGA,142225.00,5348.71669,N,02746.72427,E,1,10,0.94,203.4,M,24.8,M,,*5F
14: $GPGSA,A,3,32,01,03,04,11,19,17,14,23,31,,,1.78,0.94,1.51*0B
14: $GPGSV,4,1,13,01,70,197,16,03,61,274,40,04,45,160,34,11,45,193,35*78
14: $GPGSV,4,2,13,12,06,014,,14,22,050,40,17,29,303,26,19,28,225,17*71
14: $GPGSV,4,3,13,22,00,092,,23,25,214,22,25,00,049,,31,33,102,32*7C
14: $GPGSV,4,4,13,32,77,084,26*42
14: $GPGLL,5348.71669,N,02746.72427,E,142225.00,A,A*6D
15: $GPRMC,142226.00,A,5348.70700,N,02746.74500,E,56.557,128.10,241015,,,A*59
15: $GPVTG,128.10,T,,M,56.557,N,104.743,K,A*06
15: $GPGGA,142226.00,5348.70700,N,02746.74500,E,1,10,0.94,202.3,M,24.8,M,,*57
15: $GPGSA,A,3,32,01,03,04,11,19,17,14,23,31,,,1.78,0.94,1.51*0B
15: $GPGSV,4,1,13,01,70,197,17,03,61,274,39,04,45,160,33,11,45,193,37*72
15: $GPGSV,4,2,13,12,06,014,,14,22,050,31,17,29,303,26,19,28,225,19*79
15: $GPGSV,4,3,13,22,00,092,,23,25,214,21,25,00,049,,31,33,102,28*74
15: $GPGSV,4,4,13,32,77,084,26*42
15: $GPGLL,5348.70700,N,02746.74500,E,142226.00,A,A*63
15: $GPRMC,142227.00,A,5348.69722,N,02746.76575,E,56.640,128.65,241015,,,A*57
16: $GPVTG,128.65,T,,M,56.640,N,104.897,K,A*07
16: $GPGGA,142227.00,5348.69722,N,02746.76575,E,1,10,0.94,201.5,M,24.8,M,,*5B
16: $GPGSA,A,3,32,01,03,04,11,19,17,14,23,31,,,1.78,0.94,1.51*0B
16: $GPGSV,4,1,13,01,70,197,18,03,61,274,39,04,45,160,35,11,45,193,34*78
16: $GPGSV,4,2,13,12,06,014,,14,22,050,27,17,29,303,26,19,27,225,28*73
16: $GPGSV,4,3,13,22,00,092,,23,25,214,30,25,00,049,,31,33,102,29*75
16: $GPGSV,4,4,13,32,77,084,27*43
16: $GPGLL,5348.69722,N,02746.76575,E,142227.00,A,A*6A
16: $GPRMC,142228.00,A,5348.68729,N,02746.78632,E,56.739,129.50,241015,,,A*54
16: $GPVTG,129.50,T,,M,56.739,N,105.081,K,A*01
17: $GPGGA,142228.00,5348.68729,N,02746.78632,E,1,10,0.94,200.7,M,24.8,M,,*53
17: $GPGSA,A,3,32,01,03,04,11,19,17,14,23,31,,,1.78,0.94,1.51*0B
17: $GPGSV,4,1,13,01,70,197,19,03,61,274,38,04,45,160,35,11,45,193,33*7F
17: $GPGSV,4,2,13,12,06,014,,14,22,050,26,17,29,303,31,19,27,225,29*75
17: $GPGSV,4,3,13,22,00,092,,23,25,214,29,25,00,049,,31,33,102,31*74
17: $GPGSV,4,4,13,32,77,084,26*42
17: $GPGLL,5348.68729,N,02746.78632,E,142228.00,A,A*61
17: $GPRMC,142229.00,A,5348.67732,N,02746.80691,E,56.820,129.42,241015,,,A*5A
17: $GPVTG,129.42,T,,M,56.820,N,105.230,K,A*0D
18: $GPGGA,142229.00,5348.67732,N,02746.80691,E,1,10,0.94,199.9,M,24.8,M,,*54
18: $GPGSA,A,3,32,01,03,04,11,19,17,14,23,31,,,1.78,0.94,1.51*0B
18: $GPGSV,4,1,13,01,70,197,19,03,61,274,38,04,45,160,33,11,45,193,33*79
18: $GPGSV,4,2,13,12,06,014,,14,22,050,27,17,29,303,30,19,27,225,29*75
18: $GPGSV,4,3,13,22,00,092,,23,25,214,27,25,00,049,,31,33,102,32*79
18: $GPGSV,4,4,13,32,77,084,26*42
18: $GPGLL,5348.67732,N,02746.80691,E,142229.00,A,A*6B
18: $GPRMC,142230.00,A,5348.66740,N,02746.82753,E,56.803,129.14,241015,,,A*59
18: $GPVTG,129.14,T,,M,56.803,N,105.199,K,A*0F
18: $GPGGA,142230.00,5348.66740,N,02746.82753,E,1,10,0.94,199.2,M,24.8,M,,*5E
19: $GPGSA,A,3,32,01,03,04,11,19,17,14,23,31,,,1.78,0.94,1.51*0B
19: $GPGSV,3,1,12,01,70,197,18,03,61,274,38,04,45,160,34,11,45,193,33*79
19: $GPGSV,3,2,12,12,06,014,,14,22,050,29,17,29,303,31,19,27,225,29*7C
19: $GPGSV,3,3,12,23,25,214,28,25,00,049,,31,33,102,33,32,77,084,27*72
19: $GPGLL,5348.66740,N,02746.82753,E,142230.00,A,A*6A
19: $GPRMC,142231.00,A,5348.65753,N,02746.84814,E,56.606,129.13,241015,,,A*5F
19: $GPVTG,129.13,T,,M,56.606,N,104.834,K,A*0C
19: $GPGGA,142231.00,5348.65753,N,02746.84814,E,1,10,0.94,198.6,M,24.8,M,,*51
20: $GPGSA,A,3,32,01,03,04,11,19,17,14,23,31,,,1.78,0.94,1.51*0B
20: $GPGSV,3,1,12,01,70,197,17,03,61,274,37,04,45,160,33,11,45,193,33*7E
20: $GPGSV,3,2,12,12,06,014,19,14,22,050,29,17,29,303,31,19,27,225,30*7C
20: $GPGSV,3,3,12,23,25,214,29,25,00,049,,31,33,102,33,32,77,084,27*73
20: $GPGLL,5348.65753,N,02746.84814,E,142231.00,A,A*60
20: $GPRMC,142232.00,A,5348.64764,N,02746.86866,E,56.460,129.26,241015,,,A*5A
20: $GPVTG,129.26,T,,M,56.460,N,104.564,K,A*00
20: $GPGGA,142232.00,5348.64764,N,02746.86866,E,1,10,0.94,198.4,M,24.8,M,,*52
21: $GPGSA,A,3,32,01,03,04,11,19,17,14,23,31,,,1.78,0.94,1.51*0B
21: $GPGSV,3,1,12,01,70,197,19,03,61,274,37,04,45,160,28,11,45,193,31*78
21: $GPGSV,3,2,12,12,06,014,16,14,22,050,29,17,29,303,33,19,27,225,29*79
21: $GPGSV,3,3,12,23,25,214,29,25,00,049,,31,33,102,33,32,77,084,28*7C
21: $GPGLL,5348.64764,N,02746.86866,E,142232.00,A,A*61
21: $GPRMC,142233.00,A,5348.63779,N,02746.88904,E,56.244,129.25,241015,,,A*58
21: $GPVTG,129.25,T,,M,56.244,N,104.164,K,A*07
21: $GPGGA,142233.00,5348.63779,N,02746.88904,E,1,10,0.94,197.8,M,24.8,M,,*50
21: $GPGSA,A,3,32,01,03,04,11,19,17,14,23,31,,,1.78,0.94,1.51*0B
22: $GPGSV,3,1,12,01,70,197,18,03,61,274,37,04,45,160,28,11,45,193,31*79
22: $GPGSV,3,2,12,12,06,014,15,14,22,050,31,17,29,303,33,19,27,225,28*72
22: $GPGSV,3,3,12,23,25,214,30,25,00,049,,31,33,102,33,32,77,084,28*74
22: $GPGLL,5348.63779,N,02746.88904,E,142233.00,A,A*60
22: $GPRMC,142234.00,A,5348.62798,N,02746.90928,E,56.041,129.32,241015,,,A*57
22: $GPVTG,129.32,T,,M,56.041,N,103.788,K,A*05
22: $GPGGA,142234.00,5348.62798,N,02746.90928,E,1,10,0.94,197.1,M,24.8,M,,*57
22: $GPGSA,A,3,32,01,03,04,11,19,17,14,23,31,,,1.78,0.94,1.51*0B
23: $GPGSV,3,1,12,01,70,197,20,03,61,274,37,04,45,160,29,11,45,193,32*70
23: $GPGSV,3,2,12,12,06,014,11,14,22,050,31,17,29,303,32,19,27,225,28*77
23: $GPGSV,3,3,12,23,25,214,25,25,00,049,,31,33,102,33,32,77,084,28*70
23: $GPGLL,5348.62798,N,02746.90928,E,142234.00,A,A*6E
23: $GPRMC,142235.00,A,5348.61824,N,02746.92953,E,55.672,129.36,241015,,,A*52
23: $GPVTG,129.36,T,,M,55.672,N,103.104,K,A*06
23: $GPGGA,142235.00,5348.61824,N,02746.92953,E,1,10,0.94,196.6,M,24.8,M,,*55
23: $GPGSA,A,3,32,01,03,04,11,19,17,14,23,31,,,1.78,0.94,1.51*0B
23: $GPGSV,3,1,12,01,70,197,22,03,61,274,36,04,45,160,30,11,45,193,31*78
24: $GPGSV,3,2,12,12,06,014,08,14,22,050,32,17,29,303,31,19,27,225,28*7F
24: $GPGSV,3,3,12,23,25,214,27,25,00,049,,31,33,102,33,32,77,084,29*73
24: $GPGLL,5348.61824,N,02746.92953,E,142235.00,A,A*6A
24: $GPRMC,142236.00,A,5348.60850,N,02746.94962,E,55.480,129.41,241015,,,A*58
24: $GPVTG,129.41,T,,M,55.480,N,102.750,K,A*0F
24: $GPGGA,142236.00,5348.60850,N,02746.94962,E,1,10,0.94,196.5,M,24.8,M,,*53
24: $GPGSA,A,3,32,01,03,04,11,19,17,14,23,31,,,1.78,0.94,1.51*0B
24: $GPGSV,3,1,12,01,70,197,23,03,61,274,37,04,45,160,26,11,45,193,31*7F
24: $GPGSV,3,2,12,12,06,014,,14,22,050,32,17,29,303,31,19,27,225,26*79
25: $GPGSV,3,3,12,23,25,214,28,25,00,049,,31,33,102,32,32,77,084,28*7C
25: $GPGLL,5348.60850,N,02746.94962,E,142236.00,A,A*6F
25: $GPRMC,142237.00,A,5348.59893,N,02746.96957,E,54.845,129.14,241015,,,A*5C
25: $GPVTG,129.14,T,,M,54.845,N,101.573,K,A*0B
25: $GPGGA,142237.00,5348.59893,N,02746.96957,E,1,10,0.94,196.1,M,24.8,M,,*57
25: $GPGSA,A,3,32,01,03,04,11,19,17,14,23,31,,,1.78,0.94,1.51*0B
25: $GPGSV,3,1,12,01,70,197,22,03,61,274,36,04,45,160,27,11,45,193,32*7D
25: $GPGSV,3,2,12,12,06,014,,14,22,050,32,17,29,303,32,19,27,225,27*7B
26: $GPGSV,3,3,12,23,25,214,28,25,00,049,,31,33,102,31,32,77,084,29*7E
26: $GPGLL,5348.59893,N,02746.96957,E,142237.00,A,A*6F
26: $GPRMC,142238.00,A,5348.58949,N,02746.98907,E,53.881,129.52,241015,,,A*52
26: $GPVTG,129.52,T,,M,53.881,N,99.788,K,A*30
26: $GPGGA,142238.00,5348.58949,N,02746.98907,E,1,10,0.94,195.6,M,24.8,M,,*50
26: $GPGSA,A,3,32,01,03,04,11,19,17,14,23,31,,,1.78,0.94,1.51*0B
26: $GPGSV,3,1,12,01,70,197,21,03,61,274,36,04,45,160,32,11,45,193,32*7A
26: $GPGSV,3,2,12,12,06,014,,14,22,050,26,17,29,303,34,19,27,225,27*78
26: $GPGSV,3,3,12,23,25,214,29,25,00,049,,31,33,102,30,32,77,084,29*7E
27: $GPGLL,5348.58949,N,02746.98907,E,142238.00,A,A*6C
27: $GPRMC,142239.00,A,5348.58014,N,02747.00827,E,53.134,129.42,241015,,,A*57
27: $GPVTG,129.42,T,,M,53.134,N,98.404,K,A*30
27: $GPGGA,142239.00,5348.58014,N,02747.00827,E,1,10,0.94,195.2,M,24.8,M,,*57
27: $GPGSA,A,3,32,01,03,04,11,19,17,14,23,31,,,1.78,0.94,1.51*0B
27: $GPGSV,3,1,12,01,70,197,20,03,61,274,36,04,45,160,27,11,45,193,31*7C
27: $GPGSV,3,2,12,12,06,014,22,14,22,050,32,17,29,303,34,19,27,225,26*7C
27: $GPGSV,3,3,12,23,25,214,29,25,00,049,,31,33,101,31,32,77,084,29*7C
28: $GPGLL,5348.58014,N,02747.00827,E,142239.00,A,A*6F
28: $GPRMC,142240.00,A,5348.57094,N,02747.02724,E,52.482,129.34,241015,,,A*58
28: $GPVTG,129.34,T,,M,52.482,N,97.196,K,A*39
28: $GPGGA,142240.00,5348.57094,N,02747.02724,E,1,10,0.94,194.9,M,24.8,M,,*5A
28: $GPGSA,A,3,32,01,03,04,11,19,17,14,23,31,,,1.78,0.94,1.51*0B
28: $GPGSV,3,1,12,01,70,197,19,03,61,274,37,04,45,160,32,11,45,193,31*73
28: $GPGSV,3,2,12,12,06,014,21,14,22,050,32,17,29,303,32,19,27,225,27*78
28: $GPGSV,3,3,12,23,25,214,28,25,00,049,,31,33,101,32,32,76,085,29*7E
28: $GPGLL,5348.57094,N,02747.02724,E,142240.00,A,A*68
29: $GPRMC,142241.00,A,5348.56193,N,02747.04628,E,52.005,128.70,241015,,,A*5F
29: $GPVTG,128.70,T,,M,52.005,N,96.313,K,A*3D
29: $GPGGA,142241.00,5348.56193,N,02747.04628,E,1,10,0.94,195.0,M,24.8,M,,*5F
29: $GPGSA,A,3,32,01,03,04,11,19,17,14,23,31,,,1.78,0.94,1.51*0B
29: $GPGSV,3,1,12,01,70,197,18,03,61,274,36,04,45,160,31,11,45,193,31*70
29: $GPGSV,3,2,12,12,06,014,22,14,22,050,32,17,29,303,31,19,27,225,29*76
29: $GPGSV,3,3,12,23,25,214,25,25,00,049,,31,33,101,32,32,76,085,29*73
29: $GPGLL,5348.56193,N,02747.04628,E,142241.00,A,A*65
29: $GPRMC,142242.00,A,5348.55287,N,02747.06517,E,51.959,129.11,241015,,,A*51
30: $GPVTG,129.11,T,,M,51.959,N,96.227,K,A*3E
30: $GPGGA,142242.00,5348.55287,N,02747.06517,E,1,10,0.94,194.7,M,24.8,M,,*52
30: $GPGSA,A,3,32,01,03,04,11,19,17,14,23,31,,,1.78,0.94,1.51*0B
30: $GPGSV,3,1,12,01,70,197,17,03,61,274,37,04,45,160,31,11,45,193,32*7D
30: $GPGSV,3,2,12,12,06,014,22,14,22,050,32,17,29,303,32,19,27,225,29*75
30: $GPGSV,3,3,12,23,25,214,26,25,00,049,,31,33,101,32,32,76,085,29*70
30: $GPGLL,5348.55287,N,02747.06517,E,142242.00,A,A*6E
30: $GPRMC,142243.00,A,5348.54380,N,02747.08392,E,51.765,129.26,241015,,,A*57
31: $GPVTG,129.26,T,,M,51.765,N,95.868,K,A*39
31: $GPGGA,142243.00,5348.54380,N,02747.08392,E,1,10,0.94,194.5,M,24.8,M,,*53
31: $GPGSA,A,3,32,01,03,04,11,19,17,14,23,31,,,1.78,0.94,1.51*0B
31: $GPGSV,3,1,12,01,70,197,18,03,61,274,37,04,45,160,23,11,45,193,33*70
31: $GPGSV,3,2,12,12,06,014,21,14,22,050,27,17,29,303,33,19,27,225,29*73
31: $GPGSV,3,3,12,23,25,214,28,25,00,049,,31,33,101,32,32,76,085,29*7E
31: $GPGLL,5348.54380,N,02747.08392,E,142243.00,A,A*6D
31: $GPRMC,142244.00,A,5348.53479,N,02747.10253,E,51.316,129.40,241015,,,A*53
31: $GPVTG,129.40,T,,M,51.316,N,95.038,K,A*34
32: $GPGGA,142244.00,5348.53479,N,02747.10253,E,1,10,0.94,194.3,M,24.8,M,,*51
32: $GPGSA,A,3,32,01,03,04,11,19,17,14,23,31,,,1.78,0.94,1.51*0B
32: $GPGSV,3,1,12,01,70,197,21,03,61,274,37,04,45,160,31,11,45,193,30*7A
32: $GPGSV,3,2,12,12,06,014,20,14,22,050,28,17,29,303,32,19,27,225,28*7D
32: $GPGSV,3,3,12,23,25,214,27,25,00,049,,31,33,101,32,32,76,085,29*71
32: $GPGLL,5348.53479,N,02747.10253,E,142244.00,A,A*69
32: $GPRMC,142245.00,A,5348.52583,N,02747.12102,E,51.070,129.34,241015,,,A*52
32: $GPVTG,129.34,T,,M,51.070,N,94.581,K,A*32
33: $GPGGA,142245.00,5348.52583,N,02747.12102,E,1,10,0.94,194.1,M,24.8,M,,*52
33: $GPGSA,A,3,32,01,03,04,11,19,17,14,23,31,,,1.78,0.94,1.51*0B
33: $GPGSV,3,1,12,01,70,197,24,03,61,274,36,04,45,160,24,11,45,193,27*7C
33: $GPGSV,3,2,12,12,06,014,18,14,22,050,28,17,29,303,34,19,27,225,27*7F
33: $GPGSV,3,3,12,23,25,214,27,25,00,049,,31,33,101,33,32,76,085,30*78
33: $GPGLL,5348.52583,N,02747.12102,E,142245.00,A,A*68
33: $GPRMC,142246.00,A,5348.51689,N,02747.13945,E,50.959,129.20,241015,,,A*57
33: $GPVTG,129.20,T,,M,50.959,N,94.377,K,A*3B
33: $GPGGA,142246.00,5348.51689,N,02747.13945,E,1,10,0.94,193.8,M,24.8,M,,*5F
34: $GPGSA,A,3,32,01,03,04,11,19,17,14,23,31,,,1.78,0.94,1.51*0B
34: $GPGSV,3,1,12,01,70,197,25,03,61,274,36,04,45,160,25,11,45,193,29*72
34: $GPGSV,3,2,12,12,06,014,18,14,22,050,29,17,29,303,35,19,27,225,28*70
34: $GPGSV,3,3,12,23,25,214,27,25,00,049,,31,33,101,34,32,76,085,30*7F
34: $GPGLL,5348.51689,N,02747.13945,E,142246.00,A,A*6B
34: $GPRMC,142247.00,A,5348.50800,N,02747.15797,E,50.906,129.22,241015,,,A*57
34: $GPVTG,129.22,T,,M,50.906,N,94.278,K,A*3D
34: $GPGGA,142247.00,5348.50800,N,02747.15797,E,1,10,0.94,194.1,M,24.8,M,,*59
35: $GPGSA,A,3,32,01,03,04,11,19,17,14,23,31,,,1.78,0.94,1.51*0B
35: $GPGSV,3,1,12,01,70,197,26,03,61,274,36,04,45,160,27,11,45,193,29*73
35: $GPGSV,3,2,12,12,06,014,17,14,22,050,30,17,29,303,34,19,27,225,32*7D
35: $GPGSV,3,3,12,23,25,214,29,25,00,049,,31,33,101,33,32,76,085,31*77
35: $GPGLL,5348.50800,N,02747.15797,E,142247.00,A,A*63
35: $GPRMC,142248.00,A,5348.49912,N,02747.17649,E,51.002,129.00,241015,,,A*5E
35: $GPVTG,129.00,T,,M,51.002,N,94.455,K,A*38
35: $GPGGA,142248.00,5348.49912,N,02747.17649,E,1,10,0.94,194.1,M,24.8,M,,*5C
35: $GPGSA,A,3,32,01,03,04,11,19,17,14,23,31,,,1.78,0.94,1.51*0B
36: $GPGSV,3,1,12,01,70,197,26,03,61,274,35,04,45,160,27,11,45,193,29*70
36: $GPGSV,3,2,12,12,06,014,18,14,22,050,31,17,29,303,33,19,27,225,31*77
36: $GPGSV,3,3,12,23,25,214,28,25,00,049,,31,33,101,34,32,76,085,31*71
36: $GPGLL,5348.49912,N,02747.17649,E,142248.00,A,A*66
36: $GPRMC,142249.00,A,5348.49016,N,02747.19493,E,50.980,129.30,241015,,,A*58
36: $GPVTG,129.30,T,,M,50.980,N,94.415,K,A*3D
36: $GPGGA,142249.00,5348.49016,N,02747.19493,E,1,10,0.94,194.0,M,24.8,M,,*5A
36: $GPGSA,A,3,32,01,03,04,11,19,17,14,23,31,,,1.78,0.94,1.51*0B
37: $GPGSV,3,1,12,01,70,197,27,03,61,274,36,04,45,160,28,11,45,193,30*75
37: $GPGSV,3,2,12,12,06,014,18,14,22,050,31,17,29,303,33,19,27,225,23*74
37: $GPGSV,3,3,12,23,25,214,27,25,00,049,,31,33,101,33,32,76,085,31*79
37: $GPGLL,5348.49016,N,02747.19493,E,142249.00,A,A*61
37: $GPRMC,142250.00,A,5348.48118,N,02747.21332,E,50.900,129.46,241015,,,A*50
37: $GPVTG,129.46,T,,M,50.900,N,94.267,K,A*37
37: $GPGGA,142250.00,5348.48118,N,02747.21332,E,1,10,0.94,194.0,M,24.8,M,,*5B
37: $GPGSA,A,3,32,01,03,04,11,19,17,14,23,31,,,1.78,0.94,1.51*0B
38: $GPGSV,3,1,12,01,70,197,24,03,61,274,36,04,45,160,31,11,45,193,30*7E
38: $GPGSV,3,2,12,12,06,014,20,14,22,050,30,17,29,303,33,19,27,225,22*7F
38: $GPGSV,3,3,12,23,25,214,31,25,00,049,,31,33,101,33,32,76,085,31*7E
38: $GPGLL,5348.48118,N,02747.21332,E,142250.00,A,A*60
38: $GPRMC,142251.00,A,5348.47223,N,02747.23172,E,50.880,129.21,241015,,,A*59
38: $GPVTG,129.21,T,,M,50.880,N,94.229,K,A*35
38: $GPGGA,142251.00,5348.47223,N,02747.23172,E,1,10,0.94,194.0,M,24.8,M,,*5A
38: $GPGSA,A,3,32,01,03,04,11,19,17,14,23,31,,,1.78,0.94,1.51*0B
38: $GPGSV,3,1,12,01,70,197,23,03,61,274,37,04,45,160,24,11,45,193,32*7E
39: $GPGSV,3,2,12,12,06,014,20,14,22,050,31,17,29,303,33,19,27,225,21*7D
39: $GPGSV,3,3,12,23,25,214,30,25,00,049,,31,33,101,32,32,76,085,32*7D
39: $GPGLL,5348.47223,N,02747.23172,E,142251.00,A,A*61
39: $GPRMC,142252.00,A,5348.46322,N,02747.25012,E,50.937,129.18,241015,,,A*5D
39: $GPVTG,129.18,T,,M,50.937,N,94.336,K,A*3D
39: $GPGGA,142252.00,5348.46322,N,02747.25012,E,1,10,0.94,193.8,M,24.8,M,,*56
39: $GPGSA,A,3,32,01,03,04,11,19,17,14,23,31,,,1.78,0.94,1.51*0B
39: $GPGSV,3,1,12,01,70,197,21,03,61,274,37,04,45,160,23,11,45,193,34*7D
39: $GPGSV,3,2,12,12,06,014,21,14,22,050,32,17,29,303,33,19,27,225,18*75
40: $GPGSV,3,3,12,23,25,214,29,25,00,049,,31,33,101,32,32,76,085,31*76
40: $GPGLL,5348.46322,N,02747.25012,E,142252.00,A,A*62
40: $GPRMC,142253.00,A,5348.45426,N,02747.26854,E,50.892,129.27,241015,,,A*57
40: $GPVTG,129.27,T,,M,50.892,N,94.252,K,A*3C
40: $GPGGA,142253.00,5348.45426,N,02747.26854,E,1,10,0.94,193.9,M,24.8,M,,*5F
40: $GPGSA,A,3,32,01,03,04,11,19,17,14,23,31,,,1.78,0.94,1.51*0B
40: $GPGSV,3,1,12,01,70,197,20,03,61,274,37,04,45,160,25,11,45,193,32*7C
40: $GPGSV,3,2,12,12,06,014,21,14,22,050,32,17,29,303,33,19,27,225,19*74
40: $GPGSV,3,3,12,23,25,214,29,25,00,049,,31,33,101,31,32,76,085,31*75
41: $GPGLL,5348.45426,N,02747.26854,E,142253.00,A,A*6A
41: $GPRMC,142254.00,A,5348.44538,N,02747.28691,E,50.636,128.98,241015,,,A*53
41: $GPVTG,128.98,T,,M,50.636,N,93.778,K,A*33
41: $GPGGA,142254.00,5348.44538,N,02747.28691,E,1,10,0.94,193.8,M,24.8,M,,*5F
41: $GPGSA,A,3,32,01,03,04,11,19,17,14,23,31,,,1.78,0.94,1.51*0B
41: $GPGSV,3,1,12,01,70,197,21,03,61,274,36,04,45,160,32,11,45,193,32*7A
41: $GPGSV,3,2,12,12,06,014,20,14,22,050,32,17,29,303,33,19,27,225,21*7E
41: $GPGSV,3,3,12,23,25,214,18,25,00,049,,31,33,101,31,32,76,085,31*77
42: $GPGLL,5348.44538,N,02747.28691,E,142254.00,A,A*6B
42: $GPRMC,142255.00,A,5348.43658,N,02747.30532,E,50.447,129.00,241015,,,A*57
42: $GPVTG,129.00,T,,M,50.447,N,93.427,K,A*3E
42: $GPGGA,142255.00,5348.43658,N,02747.30532,E,1,10,0.94,193.8,M,24.8,M,,*5F
42: $GPGSA,A,3,32,01,03,04,11,19,17,14,23,31,,,1.78,0.94,1.51*0B
42: $GPGSV,3,1,12,01,70,197,24,03,61,274,36,04,45,160,26,11,45,193,32*7A
42: $GPGSV,3,2,12,12,06,014,18,14,22,050,33,17,29,303,34,19,27,225,25*77
42: $GPGSV,3,3,12,23,25,214,19,25,00,049,,31,33,101,32,32,76,085,31*75
43: $GPGLL,5348.43658,N,02747.30532,E,142255.00,A,A*6B
43: $GPRMC,142256.00,A,5348.42768,N,02747.32365,E,50.536,129.42,241015,,,A*50
43: $GPVTG,129.42,T,,M,50.536,N,93.592,K,A*30
43: $GPGGA,142256.00,5348.42768,N,02747.32365,E,1,10,0.94,194.2,M,24.8,M,,*54
43: $GPGSA,A,3,32,01,03,04,11,19,17,14,23,31,,,1.78,0.94,1.51*0B
43: $GPGSV,3,1,12,01,70,197,31,03,61,274,36,04,45,160,27,11,45,193,29*75
43: $GPGSV,3,2,12,12,06,014,18,14,22,050,30,17,29,303,34,19,27,225,25*74
43: $GPGSV,3,3,12,23,25,214,19,25,00,049,,31,33,101,32,32,76,085,31*75
43: $GPGLL,5348.42768,N,02747.32365,E,142256.00,A,A*6D
44: $GPRMC,142257.00,A,5348.41884,N,02747.34195,E,50.506,129.21,241015,,,A*52
44: $GPVTG,129.21,T,,M,50.506,N,93.537,K,A*39
44: $GPGGA,142257.00,5348.41884,N,02747.34195,E,1,10,0.94,194.7,M,24.8,M,,*55
44: $GPGSA,A,3,32,01,03,04,11,19,17,14,23,31,,,1.78,0.94,1.51*0B
44: $GPGSV,3,1,12,01,70,197,30,03,61,274,37,04,45,160,30,11,45,193,29*73
44: $GPGSV,3,2,12,12,06,014,18,14,22,050,29,17,29,303,33,19,27,225,25*7B
44: $GPGSV,3,3,12,23,25,214,20,25,00,049,,31,33,101,33,32,76,085,31*7E
44: $GPGLL,5348.41884,N,02747.34195,E,142257.00,A,A*69
44: $GPRMC,142258.00,A,5348.40989,N,02747.36036,E,50.969,129.38,241015,,,A*57
45: $GPVTG,129.38,T,,M,50.969,N,94.395,K,A*3D
45: $GPGGA,142258.00,5348.40989,N,02747.36036,E,1,10,0.94,194.8,M,24.8,M,,*52
45: $GPGSA,A,3,32,01,03,04,11,19,17,14,23,31,,,1.78,0.94,1.51*0B
45: $GPGSV,3,1,12,01,70,197,30,03,61,274,37,04,45,160,28,11,45,193,28*7B
45: $GPGSV,3,2,12,12,06,014,19,14,22,050,30,17,29,303,33,19,27,225,23*74
45: $GPGSV,3,3,12,23,25,214,22,25,00,049,,31,33,101,34,32,76,085,31*7B
45: $GPGLL,5348.40989,N,02747.36036,E,142258.00,A,A*61
45: $GPRMC,142259.00,A,5348.40095,N,02747.37894,E,51.144,128.84,241015,,,A*53
46: $GPVTG,128.84,T,,M,51.144,N,94.718,K,A*3C
46: $GPGGA,142259.00,5348.40095,N,02747.37894,E,1,10,0.94,194.9,M,24.8,M,,*57
46: $GPGSA,A,3,32,01,03,04,11,19,17,14,23,31,,,1.78,0.94,1.51*0B
46: $GPGSV,3,1,12,01,70,197,28,03,61,274,36,04,45,160,27,11,45,193,30*75
46: $GPGSV,3,2,12,12,06,014,20,14,22,050,30,17,29,303,35,19,27,225,25*7E
46: $GPGSV,3,3,12,23,25,214,30,25,00,049,,31,33,101,35,32,76,085,32*7A
46: $GPGLL,5348.40095,N,02747.37894,E,142259.00,A,A*65
46: $GPRMC,142300.00,A,5348.39194,N,02747.39760,E,51.457,129.07,241015,,,A*57
46: $GPVTG,129.07,T,,M,51.457,N,95.298,K,A*3D
47: $GPGGA,142300.00,5348.39194,N,02747.39760,E,1,10,0.94,194.8,M,24.8,M,,*5F
47: $GPGSA,A,3,32,01,03,04,11,19,17,14,23,31,,,1.78,0.94,1.51*0B
47: $GPGSV,3,1,12,01,70,197,17,03,61,274,37,04,45,160,28,11,45,193,31*76
47: $GPGSV,3,2,12,12,06,014,20,14,22,050,30,17,29,303,30,19,27,225,24*7A
47: $GPGSV,3,3,12,23,25,214,25,25,00,049,,31,33,101,33,32,76,085,31*7B
47: $GPGLL,5348.39194,N,02747.39760,E,142300.00,A,A*6C
47: $GPRMC,142301.00,A,5348.38284,N,02747.41628,E,51.518,129.18,241015,,,A*53
47: $GPVTG,129.18,T,,M,51.518,N,95.411,K,A*3E
48: $GPGGA,142301.00,5348.38284,N,02747.41628,E,1,10,0.94,194.9,M,24.8,M,,*5E
48: $GPGSA,A,3,32,01,03,04,11,19,17,14,23,31,,,1.78,0.94,1.51*0B
48: $GPGSV,3,1,12,01,70,197,22,03,61,274,37,04,45,160,28,11,45,193,32*73
48: $GPGSV,3,2,12,12,06,014,20,14,22,050,30,17,29,303,32,19,27,225,26*7A
48: $GPGSV,3,3,12,23,25,214,23,25,00,049,,31,33,101,33,32,76,085,31*7D
48: $GPGLL,5348.38284,N,02747.41628,E,142301.00,A,A*6C
48: $GPRMC,142302.00,A,5348.37369,N,02747.43496,E,51.740,129.41,241015,,,A*5B
48: $GPVTG,129.41,T,,M,51.740,N,95.823,K,A*30
48: $GPGGA,142302.00,5348.37369,N,02747.43496,E,1,10,0.94,195.1,M,24.8,M,,*5C
49: $GPGSA,A,3,32,01,03,04,11,19,17,14,23,31,,,1.78,0.94,1.51*0B
49: $GPGSV,3,1,12,01,70,197,24,03,61,274,36,04,45,160,27,11,45,193,27*7F
49: $GPGSV,3,2,12,12,06,014,19,14,22,050,33,17,29,303,35,19,27,225,26*74
49: $GPGSV,3,3,12,23,25,214,23,25,00,049,,31,33,101,33,32,76,085,30*7C
49: $GPGLL,5348.37369,N,02747.43496,E,142302.00,A,A*67
49: $GPRMC,142303.00,A,5348.36450,N,02747.45372,E,51.996,129.37,241015,,,A*59
49: $GPVTG,129.37,T,,M,51.996,N,96.296,K,A*33
49: $GPGGA,142303.00,5348.36450,N,02747.45372,E,1,10,0.94,195.2,M,24.8,M,,*59
50: $GPGSA,A,3,32,01,03,04,11,19,17,14,23,31,,,1.78,0.94,1.51*0B
50: $GPGSV,3,1,12,01,70,197,27,03,61,274,36,04,45,160,25,11,45,193,28*71
50: $GPGSV,3,2,12,12,06,014,19,14,22,050,32,17,29,303,34,19,27,225,27*75
50: $GPGSV,3,3,12,23,25,214,29,25,00,049,,31,33,101,33,32,76,085,31*77
50: $GPGLL,5348.36450,N,02747.45372,E,142303.00,A,A*61
50: $GPRMC,142304.00,A,5348.35536,N,02747.47268,E,52.221,128.78,241015,,,A*5A
50: $GPVTG,128.78,T,,M,52.221,N,96.713,K,A*35
50: $GPGGA,142304.00,5348.35536,N,02747.47268,E,1,10,0.94,195.1,M,24.8,M,,*57
51: $GPGSA,A,3,32,01,03,04,11,19,17,14,23,31,,,1.78,0.94,1.51*0B
51: $GPGSV,3,1,12,01,70,197,27,03,61,274,36,04,45,160,26,11,45,193,30*7B
51: $GPGSV,3,2,12,12,06,014,19,14,22,050,28,17,29,303,33,19,27,225,27*79
51: $GPGSV,3,3,12,23,25,214,27,25,00,049,,31,33,101,33,32,76,085,32*7A
51: $GPGLL,5348.35536,N,02747.47268,E,142304.00,A,A*6C
51: $GPRMC,142305.00,A,5348.34620,N,02747.49187,E,52.755,128.91,241015,,,A*53
51: $GPVTG,128.91,T,,M,52.755,N,97.703,K,A*34
51: $GPGGA,142305.00,5348.34620,N,02747.49187,E,1,10,0.94,195.0,M,24.8,M,,*5E
52: $GPGSA,A,3,32,01,03,04,11,19,17,14,23,31,,,1.78,0.94,1.51*0B
52: $GPGSV,3,1,12,01,70,197,26,03,61,274,36,04,45,160,26,11,45,193,31*7B
52: $GPGSV,3,2,12,12,06,014,19,14,22,050,32,17,29,303,30,19,27,225,30*77
52: $GPGSV,3,3,12,23,25,214,27,25,00,049,,31,33,101,33,32,76,085,31*79
52: $GPGLL,5348.34620,N,02747.49187,E,142305.00,A,A*64
52: $GPRMC,142306.00,A,5348.33689,N,02747.51103,E,52.924,129.21,241015,,,A*53
52: $GPVTG,129.21,T,,M,52.924,N,98.015,K,A*39
52: $GPGGA,142306.00,5348.33689,N,02747.51103,E,1,10,0.94,195.1,M,24.8,M,,*5D
53: $GPGSA,A,3,32,01,03,04,11,19,17,14,23,31,,,1.78,0.94,1.51*0B
53: $GPGSV,3,1,12,01,70,197,26,03,61,274,36,04,45,160,26,11,45,193,31*7B
53: $GPGSV,3,2,12,12,06,014,19,14,22,050,32,17,29,303,31,19,27,225,30*76
53: $GPGSV,3,3,12,23,25,214,26,25,00,049,,31,33,101,29,32,76,085,32*70
53: $GPGLL,5348.33689,N,02747.51103,E,142306.00,A,A*66
53: $GPRMC,142307.00,A,5348.32759,N,02747.53024,E,53.023,129.25,241015,,,A*52
53: $GPVTG,129.25,T,,M,53.023,N,98.198,K,A*36
53: $GPGGA,142307.00,5348.32759,N,02747.53024,E,1,10,0.94,195.2,M,24.8,M,,*54
54: $GPGSA,A,3,32,01,03,04,11,19,17,14,23,31,,,1.78,0.94,1.51*0B
54: $GPGSV,3,1,12,01,70,197,26,03,61,274,37,04,45,160,26,11,45,193,30*7B
54: $GPGSV,3,2,12,12,06,014,21,14,22,050,27,17,29,303,32,19,27,225,30*7A
54: $GPGSV,3,3,12,23,25,214,26,25,00,049,,31,33,101,31,32,76,085,31*7A
54: $GPGLL,5348.32759,N,02747.53024,E,142307.00,A,A*6C
54: $GPRMC,142308.00,A,5348.31812,N,02747.54939,E,53.239,129.86,241015,,,A*5C
54: $GPVTG,129.86,T,,M,53.239,N,98.598,K,A*32
54: $GPGGA,142308.00,5348.31812,N,02747.54939,E,1,10,0.94,194.8,M,24.8,M,,*51
54: $GPGSA,A,3,32,01,03,04,11,19,17,14,23,31,,,1.78,0.94,1.51*0B
55: $GPGSV,3,1,12,01,70,197,26,03,61,274,37,04,45,160,27,11,45,193,30*7A
55: $GPGSV,3,2,12,12,06,014,20,14,22,050,28,17,29,303,32,19,27,225,29*7C
55: $GPGSV,3,3,12,23,25,214,24,25,00,049,,31,33,101,33,32,76,085,32*79
55: $GPGLL,5348.31812,N,02747.54939,E,142308.00,A,A*62
55: $GPRMC,142309.00,A,5348.30878,N,02747.56860,E,53.043,129.28,241015,,,A*54
55: $GPVTG,129.28,T,,M,53.043,N,98.236,K,A*3A
55: $GPGGA,142309.00,5348.30878,N,02747.56860,E,1,10,0.94,194.7,M,24.8,M,,*5D
55: $GPGSA,A,3,32,01,03,04,11,19,17,14,23,31,,,1.78,0.94,1.51*0B
55: $GPGSV,3,1,12,01,70,197,26,03,61,274,37,04,45,160,26,11,45,193,31*7A
56: $GPGSV,3,2,12,12,06,014,20,14,22,050,30,17,29,303,31,19,27,225,28*77
56: $GPGSV,3,3,12,23,25,214,22,25,00,049,,31,33,101,33,32,76,085,32*7F
56: $GPGLL,5348.30878,N,02747.56860,E,142309.00,A,A*61
56: $GPRMC,142310.00,A,5348.29945,N,02747.58781,E,53.059,129.33,241015,,,A*54
56: $GPVTG,129.33,T,,M,53.059,N,98.265,K,A*3D
56: $GPGGA,142310.00,5348.29945,N,02747.58781,E,1,10,0.94,194.6,M,24.8,M,,*5D
56: $GPGSA,A,3,32,01,03,04,11,19,17,14,23,31,,,1.78,0.94,1.51*0B
56: $GPGSV,3,1,12,01,70,197,26,03,61,274,36,04,45,160,25,11,45,193,30*79
56: $GPGSV,3,2,12,12,06,014,22,14,22,050,31,17,29,303,32,19,27,225,28*77
57: $GPGSV,3,3,12,23,25,214,23,25,00,049,,31,33,101,33,32,76,085,32*7E
57: $GPGLL,5348.29945,N,02747.58781,E,142310.00,A,A*60
57: $GPRMC,142311.00,A,5348.29011,N,02747.60700,E,52.983,129.21,241015,,,A*53
57: $GPVTG,129.21,T,,M,52.983,N,98.125,K,A*36
57: $GPGGA,142311.00,5348.29011,N,02747.60700,E,1,10,0.94,194.4,M,24.8,M,,*54
57: $GPGSA,A,3,32,01,03,04,11,19,17,14,23,31,,,1.78,0.94,1.51*0B
57: $GPGSV,3,1,12,01,70,197,26,03,61,274,36,04,45,160,24,11,45,193,31*79
57: $GPGSV,3,2,12,12,06,014,34,14,22,050,26,17,29,303,31,19,27,225,17*79
58: $GPGSV,3,3,12,23,25,214,20,25,00,049,,31,33,101,33,32,76,085,32*7D
58: $GPGLL,5348.29011,N,02747.60700,E,142311.00,A,A*6B
58: $GPRMC,142312.00,A,5348.28084,N,02747.62644,E,53.407,128.80,241015,,,A*54
58: $GPVTG,128.80,T,,M,53.407,N,98.909,K,A*3A
58: $GPGGA,142312.00,5348.28084,N,02747.62644,E,1,10,0.94,194.5,M,24.8,M,,*58
58: $GPGSA,A,3,32,01,03,04,11,19,17,14,23,31,,,1.78,0.94,1.51*0B
58: $GPGSV,3,1,12,01,70,197,23,03,61,274,21,04,45,160,21,11,45,193,20*7F
58: $GPGSV,3,2,12,12,06,014,33,14,22,050,15,17,29,303,25,19,27,225,16*7A
58: $GPGSV,3,3,12,23,25,214,17,25,00,049,,31,33,101,14,32,76,085,23*7C
59: $GPGLL,5348.28084,N,02747.62644,E,142312.00,A,A*66
59: $GPRMC,142313.00,A,5348.27039,N,02747.64508,E,54.758,133.22,241015,,,A*5D
59: $GPVTG,133.22,T,,M,54.758,N,101.412,K,A*00
59: $GPGGA,142313.00,5348.27039,N,02747.64508,E,1,10,0.94,195.1,M,24.8,M,,*58
59: $GPGSA,A,3,32,01,03,04,11,19,17,14,23,31,,,1.78,0.94,1.51*0B
59: $GPGSV,3,1,12,01,70,197,29,03,61,274,35,04,45,160,22,11,45,193,29*7A
59: $GPGSV,3,2,12,12,06,014,20,14,22,050,24,17,29,303,22,19,27,225,26*7E
59: $GPGSV,3,3,12,23,25,214,17,25,00,049,,31,33,101,27,32,76,085,29*76
60: $GPGLL,5348.27039,N,02747.64508,E,142313.00,A,A*63
60: $GPRMC,142314.00,A,5348.26103,N,02747.66446,E,53.828,129.60,241015,,,A*58
60: $GPVTG,129.60,T,,M,53.828,N,99.689,K,A*32
60: $GPGGA,142314.00,5348.26103,N,02747.66446,E,1,10,0.94,195.2,M,24.8,M,,*5C
60: $GPGSA,A,3,32,01,03,04,11,19,17,14,23,31,,,1.78,0.94,1.51*0B
60: $GPGSV,3,1,12,01,70,197,29,03,61,274,36,04,45,160,22,11,45,193,30*71
60: $GPGSV,3,2,12,12,06,014,16,14,22,050,29,17,29,303,30,19,27,225,28*7B
60: $GPGSV,3,3,12,23,25,214,20,25,00,049,,31,33,101,32,32,76,085,31*7F
60: $GPGLL,5348.26103,N,02747.66446,E,142314.00,A,A*64
61: $GPRMC,142315.00,A,5348.25167,N,02747.68398,E,53.856,129.23,241015,,,A*5C
61: $GPVTG,129.23,T,,M,53.856,N,99.741,K,A*39
61: $GPGGA,142315.00,5348.25167,N,02747.68398,E,1,10,0.94,195.2,M,24.8,M,,*56
61: $GPGSA,A,3,32,01,03,04,11,19,17,14,23,31,,,1.78,0.94,1.51*0B
61: $GPGSV,3,1,12,01,70,197,27,03,61,274,36,04,45,160,30,11,45,193,30*7C
61: $GPGSV,3,2,12,12,06,014,,14,22,050,31,17,29,303,31,19,27,225,29*75
61: $GPGSV,3,3,12,23,25,214,26,25,00,049,,31,33,101,33,32,76,085,31*78
61: $GPGLL,5348.25167,N,02747.68398,E,142315.00,A,A*6E
62: $GPRMC,142316.00,A,5348.24225,N,02747.70355,E,54.074,129.20,241015,,,A*5F
62: $GPVTG,129.20,T,,M,54.074,N,100.145,K,A*06
62: $GPGGA,142316.00,5348.24225,N,02747.70355,E,1,10,0.94,195.2,M,24.8,M,,*59
62: $GPGSA,A,3,32,01,03,04,11,19,17,14,23,31,,,1.78,0.94,1.51*0B
62: $GPGSV,3,1,12,01,70,197,26,03,61,274,36,04,45,160,23,11,45,193,30*7F
62: $GPGSV,3,2,12,12,06,014,24,14,22,050,31,17,29,303,29,19,27,225,28*7B
62: $GPGSV,3,3,12,23,25,214,27,25,00,049,,31,33,101,33,32,76,085,31*79
62: $GPGLL,5348.24225,N,02747.70355,E,142316.00,A,A*61
63: $GPRMC,142317.00,A,5348.23269,N,02747.72329,E,54.592,129.47,241015,,,A*54
63: $GPVTG,129.47,T,,M,54.592,N,101.105,K,A*0F
63: $GPGGA,142317.00,5348.23269,N,02747.72329,E,1,10,0.94,194.9,M,24.8,M,,*54
63: $GPGSA,A,3,32,01,03,04,11,19,17,14,23,31,,,1.78,0.94,1.51*0B
63: $GPGSV,3,1,12,01,70,197,27,03,61,274,36,04,45,160,21,11,45,193,30*7C
63: $GPGSV,3,2,12,12,06,014,26,14,22,050,31,17,29,303,31,19,27,225,28*70
63: $GPGSV,3,3,12,23,25,214,26,25,00,049,,31,33,101,34,32,76,085,31*7F
63: $GPGLL,5348.23269,N,02747.72329,E,142317.00,A,A*66
64: $GPRMC,142318.00,A,5348.22317,N,02747.74306,E,54.859,129.25,241015,,,A*57
64: $GPVTG,129.25,T,,M,54.859,N,101.599,K,A*00
64: $GPGGA,142318.00,5348.22317,N,02747.74306,E,1,10,0.94,194.8,M,24.8,M,,*58
64: $GPGSA,A,3,32,01,03,04,11,19,17,14,23,31,,,1.78,0.94,1.51*0B
64: $GPGSV,3,1,12,01,70,197,25,03,61,274,36,04,45,160,30,11,45,193,30*7E
64: $GPGSV,3,2,12,12,06,014,27,14,22,050,31,17,29,303,32,19,27,225,29*73
64: $GPGSV,3,3,12,23,25,214,31,25,00,049,,31,33,101,34,32,76,085,32*7A
64: $GPGLL,5348.22317,N,02747.74306,E,142318.00,A,A*6B
65: $GPRMC,142319.00,A,5348.21362,N,02747.76311,E,55.228,129.15,241015,,,A*5D
65: $GPVTG,129.15,T,,M,55.228,N,102.282,K,A*00
65: $GPGGA,142319.00,5348.21362,N,02747.76311,E,1,10,0.94,194.8,M,24.8,M,,*5C
65: $GPGSA,A,3,32,01,03,04,11,19,17,14,23,31,,,1.78,0.94,1.51*0B
65: $GPGSV,3,1,12,01,70,197,25,03,61,274,36,04,45,160,24,11,45,193,31*7A
65: $GPGSV,3,2,12,12,06,014,26,14,22,050,31,17,29,303,32,19,27,225,30*7A
65: $GPGSV,3,3,12,23,25,214,30,25,00,049,,31,33,101,34,32,76,085,32*7B
65: $GPGLL,5348.21362,N,02747.76311,E,142319.00,A,A*6F
65: $GPRMC,142320.00,A,5348.20395,N,02747.78332,E,55.775,129.13,241015,,,A*5A
66: $GPVTG,129.13,T,,M,55.775,N,103.295,K,A*0C
66: $GPGGA,142320.00,5348.20395,N,02747.78332,E,1,10,0.94,194.5,M,24.8,M,,*5D
66: $GPGSA,A,3,32,01,03,04,11,19,17,14,23,31,,,1.78,0.94,1.51*0B
66: $GPGSV,3,1,12,01,70,196,24,03,61,274,36,04,45,160,24,11,45,193,33*78
66: $GPGSV,3,2,12,12,06,014,26,14,22,050,31,17,29,303,30,19,27,225,30*78
66: $GPGSV,3,3,12,23,25,214,31,25,00,049,,31,33,101,33,32,76,085,32*7D
66: $GPGLL,5348.20395,N,02747.78332,E,142320.00,A,A*63
66: $GPRMC,142321.00,A,5348.19416,N,02747.80372,E,56.142,129.34,241015,,,A*5A
67: $GPVTG,129.34,T,,M,56.142,N,103.975,K,A*0D
67: $GPGGA,142321.00,5348.19416,N,02747.80372,E,1,10,0.94,194.4,M,24.8,M,,*58
67: $GPGSA,A,3,32,01,03,04,11,19,17,14,23,31,,,1.78,0.94,1.51*0B
67: $GPGSV,3,1,12,01,70,196,24,03,61,274,36,04,45,160,24,11,45,193,31*7A
67: $GPGSV,3,2,12,12,06,014,26,14,22,050,31,17,29,303,30,19,27,225,29*70
67: $GPGSV,3,3,12,23,25,214,31,25,00,049,17,31,33,101,33,32,76,085,31*78
67: $GPGLL,5348.19416,N,02747.80372,E,142321.00,A,A*67
67: $GPRMC,142322.00,A,5348.18421,N,02747.82413,E,56.461,129.71,241015,,,A*5B
67: $GPVTG,129.71,T,,M,56.461,N,104.565,K,A*02
68: $GPGGA,142322.00,5348.18421,N,02747.82413,E,1,10,0.94,194.0,M,24.8,M,,*58
68: $GPGSA,A,3,32,01,03,04,11,19,17,14,23,31,,,1.78,0.94,1.51*0B
68: $GPGSV,3,1,12,01,70,196,24,03,62,274,36,04,45,160,24,11,45,193,31*79
68: $GPGSV,3,2,12,12,06,014,26,14,22,050,30,17,29,303,31,19,27,225,30*78
68: $GPGSV,3,3,12,23,25,214,30,25,00,049,15,31,33,101,33,32,76,085,31*7B
68: $GPGLL,5348.18421,N,02747.82413,E,142322.00,A,A*63
68: $GPRMC,142323.00,A,5348.17426,N,02747.84462,E,56.503,129.44,241015,,,A*51
68: $GPVTG,129.44,T,,M,56.503,N,104.644,K,A*01
69: $GPGGA,142323.00,5348.17426,N,02747.84462,E,1,10,0.94,193.9,M,24.8,M,,*5F
69: $GPGSA,A,3,32,01,03,04,11,19,17,14,23,31,,,1.78,0.94,1.51*0B
69: $GPGSV,3,1,12,01,70,196,26,03,62,274,36,04,45,160,24,11,45,193,30*7A
69: $GPGSV,3,2,12,12,06,014,25,14,22,050,30,17,29,303,30,19,27,225,30*7A
69: $GPGSV,3,3,12,23,25,214,30,25,00,049,10,31,33,101,33,32,76,085,32*7D
69: $GPGLL,5348.17426,N,02747.84462,E,142323.00,A,A*6A
69: $GPRMC,142324.00,A,5348.16435,N,02747.86512,E,56.459,129.23,241015,,,A*5E
69: $GPVTG,129.23,T,,M,56.459,N,104.562,K,A*09
69: $GPGGA,142324.00,5348.16435,N,02747.86512,E,1,10,0.94,193.9,M,24.8,M,,*5F
70: $GPGSA,A,3,32,01,03,04,11,19,17,14,23,31,,,1.78,0.94,1.51*0B
70: $GPGSV,3,1,12,01,70,196,25,03,62,274,35,04,45,160,28,11,45,193,29*7E
70: $GPGSV,3,2,12,12,06,014,25,14,22,050,31,17,29,303,31,19,27,225,30*7A
70: $GPGSV,3,3,12,23,25,214,31,25,00,049,10,31,33,101,32,32,76,085,32*7D
70: $GPGLL,5348.16435,N,02747.86512,E,142324.00,A,A*6A
70: $GPRMC,142325.00,A,5348.15450,N,02747.88563,E,56.405,129.21,241015,,,A*5C
70: $GPVTG,129.21,T,,M,56.405,N,104.462,K,A*03
70: $GPGGA,142325.00,5348.15450,N,02747.88563,E,1,10,0.94,193.8,M,24.8,M,,*57
71: $GPGSA,A,3,32,01,03,04,11,19,17,14,23,31,,,1.78,0.94,1.51*0B
71: $GPGSV,3,1,12,01,70,196,25,03,62,274,35,04,45,160,28,11,45,193,30*76
71: $GPGSV,3,2,12,12,06,014,25,14,22,050,31,17,29,303,30,19,27,225,30*7B
71: $GPGSV,3,3,12,23,25,214,31,25,00,049,09,31,33,101,32,32,76,085,32*75
71: $GPGLL,5348.15450,N,02747.88563,E,142325.00,A,A*63
71: $GPRMC,142326.00,A,5348.14463,N,02747.90614,E,56.422,129.12,241015,,,A*51
71: $GPVTG,129.12,T,,M,56.422,N,104.493,K,A*08
71: $GPGGA,142326.00,5348.14463,N,02747.90614,E,1,10,0.94,193.7,M,24.8,M,,*50
71: $GPGSA,A,3,32,01,03,04,11,19,17,14,23,31,,,1.78,0.94,1.51*0B
72: $GPGSV,3,1,12,01,70,196,26,03,62,274,36,04,45,160,20,11,45,193,30*7E
72: $GPGSV,3,2,12,12,06,014,24,14,22,050,31,17,29,303,29,19,27,225,30*72
72: $GPGSV,3,3,12,23,25,214,30,25,00,049,09,31,33,101,33,32,76,085,32*75
72: $GPGLL,5348.14463,N,02747.90614,E,142326.00,A,A*6B
72: $GPRMC,142327.00,A,5348.13481,N,02747.92655,E,56.147,129.18,241015,,,A*50
72: $GPVTG,129.18,T,,M,56.147,N,103.985,K,A*09
72: $GPGGA,142327.00,5348.13481,N,02747.92655,E,1,10,0.94,193.6,M,24.8,M,,*5C
72: $GPGSA,A,3,32,01,03,04,11,19,17,14,23,31,,,1.78,0.94,1.51*0B
73: $GPGSV,3,1,12,01,70,196,26,03,62,274,35,04,45,160,24,11,45,193,30*79
73: $GPGSV,3,2,12,12,06,014,24,14,22,050,32,17,29,303,30,19,27,225,31*78
73: $GPGSV,3,3,12,23,25,214,30,25,00,049,10,31,33,101,33,32,76,085,32*7D
73: $GPGLL,5348.13481,N,02747.92655,E,142327.00,A,A*66
73: $GPRMC,142328.00,A,5348.12502,N,02747.94683,E,55.959,129.36,241015,,,A*51
73: $GPVTG,129.36,T,,M,55.959,N,103.636,K,A*06
73: $GPGGA,142328.00,5348.12502,N,02747.94683,E,1,10,0.94,193.5,M,24.8,M,,*56
73: $GPGSA,A,3,32,01,03,04,11,19,17,14,23,31,,,1.78,0.94,1.51*0B
73: $GPGSV,3,1,12,01,70,196,26,03,62,274,35,04,45,160,31,11,45,193,30*7D
74: $GPGSV,3,2,12,12,06,014,23,14,22,050,31,17,29,303,30,19,27,225,29*75
74: $GPGSV,3,3,12,23,25,214,30,25,00,049,12,31,33,101,33,32,76,085,32*7F
74: $GPGLL,5348.12502,N,02747.94683,E,142328.00,A,A*6F
74: $GPRMC,142329.00,A,5348.11530,N,02747.96699,E,55.523,129.14,241015,,,A*5A
74: $GPVTG,129.14,T,,M,55.523,N,102.828,K,A*07
74: $GPGGA,142329.00,5348.11530,N,02747.96699,E,1,10,0.94,193.3,M,24.8,M,,*5A
74: $GPGSA,A,3,32,01,03,04,11,19,17,14,23,31,,,1.78,0.94,1.51*0B
74: $GPGSV,3,1,12,01,70,196,26,03,62,274,36,04,45,160,27,11,45,193,29*71
74: $GPGSV,3,2,12,12,06,014,31,14,22,050,30,17,29,303,31,19,27,225,28*77
75: $GPGSV,3,3,12,23,25,214,30,25,00,049,12,31,33,101,33,32,76,085,32*7F
75: $GPGLL,5348.11530,N,02747.96699,E,142329.00,A,A*65
75: $GPRMC,142330.00,A,5348.10567,N,02747.98692,E,55.024,129.11,241015,,,A*53
75: $GPVTG,129.11,T,,M,55.024,N,101.904,K,A*0C
75: $GPGGA,142330.00,5348.10567,N,02747.98692,E,1,10,0.94,193.2,M,24.8,M,,*55
75: $GPGSA,A,3,32,01,03,04,11,19,17,14,23,31,,,1.78,0.94,1.51*0B
75: $GPGSV,3,1,12,01,70,196,25,03,62,274,36,04,45,160,29,11,44,193,29*7D
75: $GPGSV,3,2,12,12,06,014,34,14,22,050,31,17,29,303,34,19,27,225,29*77
75: $GPGSV,3,3,12,23,25,214,31,25,00,049,13,31,33,101,32,32,76,085,32*7E
76: $GPGLL,5348.10567,N,02747.98692,E,142330.00,A,A*6B
76: $GPRMC,142331.00,A,5348.09612,N,02748.00678,E,54.499,129.03,241015,,,A*51
76: $GPVTG,129.03,T,,M,54.499,N,100.932,K,A*08
76: $GPGGA,142331.00,5348.09612,N,02748.00678,E,1,10,0.94,192.9,M,24.8,M,,*5D
76: $GPGSA,A,3,32,01,03,04,11,19,17,14,23,31,,,1.78,0.94,1.51*0B
76: $GPGSV,3,1,12,01,70,196,23,03,62,274,36,04,45,160,29,11,44,193,33*70
76: $GPGSV,3,2,12,12,06,014,35,14,22,050,31,17,29,303,30,19,27,225,29*72
76: $GPGSV,3,3,12,23,25,214,30,25,00,049,11,31,33,101,32,32,76,085,31*7E
77: $GPGLL,5348.09612,N,02748.00678,E,142331.00,A,A*69
77: $GPRMC,142332.00,A,5348.08669,N,02748.02638,E,53.819,129.12,241015,,,A*5A
77: $GPVTG,129.12,T,,M,53.819,N,99.673,K,A*30
77: $GPGGA,142332.00,5348.08669,N,02748.02638,E,1,10,0.94,192.8,M,24.8,M,,*54
77: $GPGSA,A,3,32,01,03,04,11,19,17,14,23,31,,,1.78,0.94,1.51*0B
77: $GPGSV,3,1,12,01,70,196,22,03,62,274,36,04,45,160,22,11,44,193,30*79
77: $GPGSV,3,2,12,12,06,014,32,14,22,050,31,17,29,303,30,19,27,225,30*7D
77: $GPGSV,3,3,12,23,25,214,30,25,00,049,10,31,33,101,33,32,76,085,31*7E
77: $GPGLL,5348.08669,N,02748.02638,E,142332.00,A,A*61
78: $GPRMC,142333.00,A,5348.07737,N,02748.04573,E,53.130,129.18,241015,,,A*5C
78: $GPVTG,129.18,T,,M,53.130,N,98.396,K,A*37
78: $GPGGA,142333.00,5348.07737,N,02748.04573,E,1,10,0.94,192.5,M,24.8,M,,*57
78: $GPGSA,A,3,32,01,03,04,11,19,17,14,23,31,,,1.78,0.94,1.51*0B
78: $GPGSV,3,1,12,01,70,196,19,03,62,274,36,04,45,160,25,11,44,193,29*7E
78: $GPGSV,3,2,12,12,06,014,26,14,22,050,31,17,29,303,31,19,27,225,30*79
78: $GPGSV,3,3,12,23,25,214,30,25,00,049,11,31,33,101,33,32,76,085,32*7C
78: $GPGLL,5348.07737,N,02748.04573,E,142333.00,A,A*6F
79: $GPRMC,142334.00,A,5348.06815,N,02748.06488,E,52.580,129.12,241015,,,A*56
79: $GPVTG,129.12,T,,M,52.580,N,97.379,K,A*3D
79: $GPGGA,142334.00,5348.06815,N,02748.06488,E,1,10,0.94,192.3,M,24.8,M,,*5F
79: $GPGSA,A,3,32,01,03,04,11,19,17,14,23,31,,,1.78,0.94,1.51*0B
79: $GPGSV,3,1,12,01,70,196,20,03,62,274,36,04,45,160,26,11,44,193,30*7F
79: $GPGSV,3,2,12,12,06,014,25,14,22,050,31,17,29,303,32,19,27,225,30*79
79: $GPGSV,3,3,12,23,25,214,30,25,00,049,10,31,33,101,33,32,76,085,31*7E
79: $GPGLL,5348.06815,N,02748.06488,E,142334.00,A,A*61
80: $GPRMC,142335.00,A,5348.05901,N,02748.08379,E,52.151,129.24,241015,,,A*5A
80: $GPVTG,129.24,T,,M,52.151,N,96.583,K,A*32
80: $GPGGA,142335.00,5348.05901,N,02748.08379,E,1,10,0.94,191.7,M,24.8,M,,*59
80: $GPGSA,A,3,32,01,03,04,11,19,17,14,23,31,,,1.78,0.94,1.51*0B
80: $GPGSV,3,1,12,01,70,196,18,03,62,274,37,04,45,160,27,11,44,193,30*74
80: $GPGSV,3,2,12,12,06,014,26,14,22,050,31,17,29,303,33,19,27,225,29*73
80: $GPGSV,3,3,12,23,25,214,31,25,00,049,09,31,33,101,33,32,76,085,31*77
80: $GPGLL,5348.05901,N,02748.08379,E,142335.00,A,A*60
80: $GPRMC,142336.00,A,5348.04989,N,02748.10257,E,51.933,129.29,241015,,,A*5E
81: $GPVTG,129.29,T,,M,51.933,N,96.180,K,A*37
81: $GPGGA,142336.00,5348.04989,N,02748.10257,E,1,10,0.94,191.1,M,24.8,M,,*59
81: $GPGSA,A,3,32,01,03,04,11,19,17,14,23,31,,,1.78,0.94,1.51*0B
81: $GPGSV,3,1,12,01,70,196,17,03,62,274,37,04,45,160,26,11,44,193,31*7B
81: $GPGSV,3,2,12,12,06,014,26,14,22,050,31,17,29,302,32,19,27,225,29*73
81: $GPGSV,3,3,12,23,25,214,29,25,00,049,10,31,33,101,33,32,76,085,31*76
81: $GPGLL,5348.04989,N,02748.10257,E,142336.00,A,A*66
81: $GPRMC,142337.00,A,5348.04083,N,02748.12143,E,51.891,128.91,241015,,,A*53
82: $GPVTG,128.91,T,,M,51.891,N,96.102,K,A*36
82: $GPGGA,142337.00,5348.04083,N,02748.12143,E,1,10,0.94,190.5,M,24.8,M,,*5A
82: $GPGSA,A,3,32,01,03,04,11,19,17,14,23,31,,,1.78,0.94,1.51*0B
82: $GPGSV,3,1,12,01,70,196,20,03,62,274,37,04,45,160,26,11,44,193,32*7C
82: $GPGSV,3,2,12,12,06,014,26,14,22,050,29,17,29,302,35,19,27,225,29*7D
82: $GPGSV,3,3,12,23,25,214,28,25,00,049,10,31,33,101,34,32,76,085,31*70
82: $GPGLL,5348.04083,N,02748.12143,E,142337.00,A,A*60
82: $GPRMC,142338.00,A,5348.03176,N,02748.14028,E,51.816,129.23,241015,,,A*5D
82: $GPVTG,129.23,T,,M,51.816,N,95.964,K,A*3A
83: $GPGGA,142338.00,5348.03176,N,02748.14028,E,1,10,0.94,190.0,M,24.8,M,,*56
83: $GPGSA,A,3,32,01,03,04,11,19,17,14,23,31,,,1.78,0.94,1.51*0B
83: $GPGSV,3,1,12,01,70,196,20,03,62,274,37,04,45,160,32,11,44,193,33*78
83: $GPGSV,3,2,12,12,06,014,30,14,22,050,29,17,29,302,31,19,27,225,29*7E
83: $GPGSV,3,3,12,23,25,214,28,25,00,049,11,31,33,101,34,32,76,085,30*70
83: $GPGLL,5348.03176,N,02748.14028,E,142338.00,A,A*69
83: $GPRMC,142339.00,A,5348.02262,N,02748.15916,E,52.195,129.34,241015,,,A*59
83: $GPVTG,129.34,T,,M,52.195,N,96.666,K,A*33
84: $GPGGA,142339.00,5348.02262,N,02748.15916,E,1,10,0.94,189.6,M,24.8,M,,*5B
84: $GPGSA,A,3,32,01,03,04,11,19,17,14,23,31,,,1.78,0.94,1.51*0B
84: $GPGSV,3,1,12,01,70,196,20,03,62,274,37,04,45,160,32,11,44,193,31*7A
84: $GPGSV,3,2,12,12,06,014,25,14,22,050,28,17,29,302,30,19,27,225,28*7B
84: $GPGSV,3,3,12,23,25,214,29,25,00,049,11,31,33,101,33,32,76,085,30*76
84: $GPGLL,5348.02262,N,02748.15916,E,142339.00,A,A*6A
84: $GPRMC,142340.00,A,5348.01335,N,02748.17812,E,52.741,129.47,241015,,,A*5B
84: $GPVTG,129.47,T,,M,52.741,N,97.677,K,A*39
84: $GPGGA,142340.00,5348.01335,N,02748.17812,E,1,10,0.94,189.1,M,24.8,M,,*55
85: $GPGSA,A,3,32,01,03,04,11,19,17,14,23,31,,,1.78,0.94,1.51*0B
85: $GPGSV,3,1,12,01,70,196,22,03,62,274,37,04,45,160,27,11,44,193,31*7C
85: $GPGSV,3,2,12,12,06,014,25,14,22,050,27,17,29,302,31,19,27,225,28*75
85: $GPGSV,3,3,12,23,25,214,29,25,00,049,11,31,33,101,30,32,76,085,30*75
85: $GPGLL,5348.01335,N,02748.17812,E,142340.00,A,A*63
85: $GPRMC,142341.00,A,5348.00404,N,02748.19719,E,53.027,129.29,241015,,,A*5A
85: $GPVTG,129.29,T,,M,53.027,N,98.207,K,A*3B
85: $GPGGA,142341.00,5348.00404,N,02748.19719,E,1,10,0.94,188.4,M,24.8,M,,*5E
86: $GPGSA,A,3,32,01,03,04,11,19,17,14,23,31,,,1.78,0.94,1.51*0B
86: $GPGSV,3,1,12,01,70,196,22,03,62,274,38,04,45,160,31,11,44,193,32*77
86: $GPGSV,3,2,12,12,06,014,25,14,22,050,26,17,29,302,26,19,27,225,27*7D
86: $GPGSV,3,3,12,23,25,214,28,25,00,049,09,31,33,101,34,32,76,085,30*79
86: $GPGLL,5348.00404,N,02748.19719,E,142341.00,A,A*6C
86: $GPRMC,142342.00,A,5347.99462,N,02748.21657,E,53.745,129.41,241015,,,A*5B
86: $GPVTG,129.41,T,,M,53.745,N,99.537,K,A*33
86: $GPGGA,142342.00,5347.99462,N,02748.21657,E,1,10,0.94,187.8,M,24.8,M,,*51
86: $GPGSA,A,3,32,01,03,04,11,19,17,14,23,31,,,1.78,0.94,1.51*0B
87: $GPGSV,3,1,12,01,70,196,25,03,62,274,38,04,45,160,32,11,44,193,32*73
87: $GPGSV,3,2,12,12,06,014,26,14,22,050,26,17,29,302,26,19,27,225,27*7E
87: $GPGSV,3,3,12,23,26,215,28,25,00,049,10,31,33,101,32,32,76,085,30*75
87: $GPGLL,5347.99462,N,02748.21657,E,142342.00,A,A*60
87: $GPRMC,142343.00,A,5347.98502,N,02748.23626,E,54.559,129.52,241015,,,A*52
87: $GPVTG,129.52,T,,M,54.559,N,101.043,K,A*0F
87: $GPGGA,142343.00,5347.98502,N,02748.23626,E,1,10,0.94,187.7,M,24.8,M,,*5D
87: $GPGSA,A,3,32,01,03,04,11,19,17,14,23,31,,,1.78,0.94,1.51*0B
88: $GPGSV,3,1,12,01,70,196,24,03,62,274,37,04,45,160,28,11,44,193,29*7C
88: $GPGSV,3,2,12,12,06,014,25,14,22,050,32,17,29,302,27,19,27,225,28*76
88: $GPGSV,3,3,12,23,26,215,29,25,00,049,10,31,33,101,31,32,76,085,30*77
88: $GPGLL,5347.98502,N,02748.23626,E,142343.00,A,A*63
88: $GPRMC,142344.00,A,5347.97539,N,02748.25619,E,55.116,129.21,241015,,,A*52
88: $GPVTG,129.21,T,,M,55.116,N,102.074,K,A*02
88: $GPGGA,142344.00,5347.97539,N,02748.25619,E,1,10,0.94,187.2,M,24.8,M,,*52
88: $GPGSA,A,3,32,01,03,04,11,19,17,14,23,31,,,1.78,0.94,1.51*0B
88: $GPGSV,3,1,12,01,70,196,23,03,62,274,37,04,45,160,27,11,44,193,29*74
89: $GPGSV,3,2,12,12,06,014,34,14,22,050,31,17,29,302,26,19,27,225,29*75
89: $GPGSV,3,3,12,23,26,215,29,25,01,049,,31,33,101,31,32,76,085,29*7F
89: $GPGLL,5347.97539,N,02748.25619,E,142344.00,A,A*69
89: $GPRMC,142345.00,A,5347.96577,N,02748.27632,E,55.397,128.91,241015,,,A*52
89: $GPVTG,128.91,T,,M,55.397,N,102.594,K,A*08
89: $GPGGA,142345.00,5347.96577,N,02748.27632,E,1,10,0.94,186.7,M,24.8,M,,*57
89: $GPGSA,A,3,32,01,03,04,11,19,17,14,23,31,,,1.78,0.94,1.51*0B
89: $GPGSV,3,1,12,01,70,196,21,03,62,274,37,04,45,160,31,11,44,193,33*7A
90: $GPGSV,3,2,12,12,06,014,30,14,22,050,32,17,29,302,26,19,27,225,29*72
90: $GPGSV,3,3,12,23,26,215,30,25,01,049,,31,33,101,31,32,76,085,30*7F
90: $GPGLL,5347.96577,N,02748.27632,E,142345.00,A,A*68
90: $GPRMC,142346.00,A,5347.95615,N,02748.29655,E,55.707,128.91,241015,,,A*57
90: $GPVTG,128.91,T,,M,55.707,N,103.169,K,A*02
90: $GPGGA,142346.00,5347.95615,N,02748.29655,E,1,10,0.94,185.7,M,24.8,M,,*5C
90: $GPGSA,A,3,32,01,03,04,11,19,17,14,23,31,,,1.78,0.94,1.51*0B
90: $GPGSV,3,1,12,01,70,196,21,03,62,274,37,04,45,160,31,11,44,193,33*7A
91: $GPGSV,3,2,12,12,06,014,24,14,22,050,31,17,29,302,27,19,27,225,30*7D
91: $GPGSV,3,3,12,23,26,215,29,25,01,049,,31,33,101,32,32,76,085,29*7C
91: $GPGLL,5347.95615,N,02748.29655,E,142346.00,A,A*60
91: $GPRMC,142347.00,A,5347.94643,N,02748.31702,E,56.260,129.15,241015,,,A*54
91: $GPVTG,129.15,T,,M,56.260,N,104.193,K,A*0A
91: $GPGGA,142347.00,5347.94643,N,02748.31702,E,1,10,0.94,185.0,M,24.8,M,,*52
91: $GPGSA,A,3,32,01,03,04,11,19,17,14,23,31,,,1.78,0.94,1.51*0B
91: $GPGSV,3,1,12,01,70,196,20,03,62,274,38,04,45,160,31,11,44,193,33*74
92: $GPGSV,3,2,12,12,06,014,30,14,22,050,31,17,29,302,28,19,27,225,30*77
92: $GPGSV,3,3,12,23,26,215,33,25,01,049,,31,33,101,32,32,76,085,29*77
92: $GPGLL,5347.94643,N,02748.31702,E,142347.00,A,A*69
92: $GPRMC,142348.00,A,5347.93654,N,02748.33779,E,56.977,129.05,241015,,,A*58
92: $GPVTG,129.05,T,,M,56.977,N,105.522,K,A*09
92: $GPGGA,142348.00,5347.93654,N,02748.33779,E,1,10,0.94,185.0,M,24.8,M,,*52
92: $GPGSA,A,3,32,01,03,04,11,19,17,14,23,31,,,1.78,0.94,1.51*0B
92: $GPGSV,3,1,12,01,70,196,18,03,62,274,38,04,45,160,32,11,44,193,33*7C
92: $GPGSV,3,2,12,12,06,014,23,14,22,050,30,17,29,302,29,19,27,225,28*7C
93: $GPGSV,3,3,12,23,26,215,32,25,01,049,,31,33,101,35,32,76,085,28*70
93: $GPGLL,5347.93654,N,02748.33779,E,142348.00,A,A*69
93: $GPRMC,142349.00,A,5347.92649,N,02748.35851,E,57.398,129.50,241015,,,A*5D
93: $GPVTG,129.50,T,,M,57.398,N,106.301,K,A*07
93: $GPGGA,142349.00,5347.92649,N,02748.35851,E,1,10,0.94,184.2,M,24.8,M,,*5E
93: $GPGSA,A,3,32,01,03,04,11,19,17,14,23,31,,,1.78,0.94,1.51*0B
93: $GPGSV,3,1,12,01,70,196,17,03,62,274,37,04,45,160,31,11,44,193,32*7E
93: $GPGSV,3,2,12,12,06,014,24,14,22,050,30,17,29,302,29,19,27,225,28*7B
94: $GPGSV,3,3,12,23,26,215,30,25,01,049,,31,33,101,34,32,76,085,28*73
94: $GPGLL,5347.92649,N,02748.35851,E,142349.00,A,A*66
94: $GPRMC,142350.00,A,5347.91632,N,02748.37933,E,57.663,129.57,241015,,,A*5B
94: $GPVTG,129.57,T,,M,57.663,N,106.793,K,A*0E
94: $GPGGA,142350.00,5347.91632,N,02748.37933,E,1,10,0.94,183.5,M,24.8,M,,*5E
94: $GPGSA,A,3,32,01,03,04,11,19,17,14,23,31,,,1.78,0.94,1.51*0B
94: $GPGSV,3,1,12,01,70,196,18,03,62,274,37,04,45,160,30,11,44,193,31*73
94: $GPGSV,3,2,12,12,06,014,24,14,22,050,30,17,29,302,29,19,27,225,28*7B
94: $GPGSV,3,3,12,23,26,215,26,25,01,049,,31,34,101,34,32,76,085,28*73
95: $GPGLL,5347.91632,N,02748.37933,E,142350.00,A,A*66
95: $GPRMC,142351.00,A,5347.90605,N,02748.40026,E,57.851,129.45,241015,,,A*5E
95: $GPVTG,129.45,T,,M,57.851,N,107.140,K,A*0B
95: $GPGGA,142351.00,5347.90605,N,02748.40026,E,1,10,0.94,183.0,M,24.8,M,,*52
95: $GPGSA,A,3,32,01,03,04,11,19,17,14,23,31,,,1.78,0.94,1.51*0B
95: $GPGSV,3,1,12,01,70,196,21,03,62,274,37,04,45,160,29,11,44,193,33*73
95: $GPGSV,3,2,12,12,06,014,22,14,22,050,31,17,29,302,29,19,27,225,29*7D
95: $GPGSV,3,3,12,23,26,215,26,25,01,049,,31,34,101,33,32,76,085,28*74
95: $GPGLL,5347.90605,N,02748.40026,E,142351.00,A,A*6F
96: $GPRMC,142352.00,A,5347.89587,N,02748.42124,E,57.844,129.39,241015,,,A*52
96: $GPVTG,129.39,T,,M,57.844,N,107.127,K,A*05
96: $GPGGA,142352.00,5347.89587,N,02748.42124,E,1,10,0.94,182.7,M,24.8,M,,*57
96: $GPGSA,A,3,32,01,03,04,11,19,17,14,23,31,,,1.78,0.94,1.51*0B
96: $GPGSV,3,1,12,01,70,196,25,03,62,274,37,04,45,160,22,11,44,193,31*7E
96: $GPGSV,3,2,12,12,06,014,20,14,22,050,31,17,29,302,29,19,27,225,28*7E
96: $GPGSV,3,3,12,23,26,215,27,25,01,049,,31,34,101,33,32,76,085,29*74
96: $GPGLL,5347.89587,N,02748.42124,E,142352.00,A,A*6C
96: $GPRMC,142353.00,A,5347.88574,N,02748.44223,E,57.872,129.22,241015,,,A*53
97: $GPVTG,129.22,T,,M,57.872,N,107.178,K,A*00
97: $GPGGA,142353.00,5347.88574,N,02748.44223,E,1,10,0.94,182.4,M,24.8,M,,*5A
97: $GPGSA,A,3,32,01,03,04,11,19,17,14,23,31,,,1.78,0.94,1.51*0B
97: $GPGSV,3,1,12,01,70,196,26,03,62,274,36,04,45,160,22,11,44,193,29*75
97: $GPGSV,3,2,12,12,06,014,28,14,22,050,31,17,29,302,31,19,27,225,28*7F
97: $GPGSV,3,3,12,23,26,215,28,25,01,049,,31,34,101,34,32,76,085,30*74
97: $GPGLL,5347.88574,N,02748.44223,E,142353.00,A,A*62
97: $GPRMC,142354.00,A,5347.87563,N,02748.46322,E,57.777,129.12,241015,,,A*56
97: $GPVTG,129.12,T,,M,57.777,N,107.003,K,A*04
98: $GPGGA,142354.00,5347.87563,N,02748.46322,E,1,10,0.94,182.0,M,24.8,M,,*52
98: $GPGSA,A,3,32,01,03,04,11,19,17,14,23,31,,,1.78,0.94,1.51*0B
98: $GPGSV,3,1,12,01,70,196,26,03,62,274,36,04,45,160,24,11,44,193,29*73
98: $GPGSV,3,2,12,12,06,014,21,14,22,050,32,17,29,302,26,19,27,225,28*73
98: $GPGSV,3,3,12,23,26,215,32,25,01,049,26,31,34,101,33,32,76,085,30*7C
98: $GPGLL,5347.87563,N,02748.46322,E,142354.00,A,A*6E
98: $GPRMC,142355.00,A,5347.86556,N,02748.48415,E,57.616,129.18,241015,,,A*51
98: $GPVTG,129.18,T,,M,57.616,N,106.705,K,A*08
99: $GPGGA,142355.00,5347.86556,N,02748.48415,E,1,10,0.94,181.9,M,24.8,M,,*53
99: $GPGSA,A,3,32,01,03,04,11,19,17,14,23,31,,,1.78,0.94,1.51*0B
99: $GPGSV,3,1,12,01,70,196,31,03,62,274,36,04,45,160,25,11,44,193,26*7B
99: $GPGSV,3,2,12,12,06,014,25,14,22,050,32,17,29,302,32,19,27,225,27*7D
99: $GPGSV,3,3,12,23,26,215,29,25,01,049,25,31,34,101,33,32,76,085,31*74
99: $GPGLL,5347.86556,N,02748.48415,E,142355.00,A,A*65
99: $GPRMC,142356.00,A,5347.85553,N,02748.50503,E,57.314,129.05,241015,,,A*50
99: $GPVTG,129.05,T,,M,57.314,N,106.145,K,A*01
99: $GPGGA,142356.00,5347.85553,N,02748.50503,E,1,10,0.94,181.9,M,24.8,M,,*59
100: $GPGSA,A,3,32,01,03,04,11,19,17,14,23,31,,,1.78,0.94,1.51*0B
100: $GPGSV,3,1,12,01,70,196,31,03,62,274,36,04,45,160,22,11,44,193,28*72
100: $GPGSV,3,2,12,12,06,014,30,14,22,050,31,17,29,302,31,19,27,225,29*77
100: $GPGSV,3,3,12,23,26,215,28,25,01,049,24,31,34,101,33,32,76,085,31*74
100: $GPGLL,5347.85553,N,02748.50503,E,142356.00,A,A*6F
100: $GPRMC,142357.00,A,5347.84557,N,02748.52553,E,56.656,129.49,241015,,,A*59
100: $GPVTG,129.49,T,,M,56.656,N,104.927,K,A*05
100: $GPGGA,142357.00,5347.84557,N,02748.52553,E,1,10,0.94,181.6,M,24.8,M,,*55
101: $GPGSA,A,3,32,01,03,04,11,19,17,14,23,31,,,1.78,0.94,1.51*0B
101: $GPGSV,3,1,12,01,70,196,24,03,62,274,36,04,45,160,22,11,44,193,28*76
101: $GPGSV,3,2,12,12,06,014,28,14,22,050,32,17,29,302,35,19,27,225,28*78
101: $GPGSV,3,3,12,23,26,215,27,25,01,049,23,31,34,101,32,32,76,085,31*7D
101: $GPGLL,5347.84557,N,02748.52553,E,142357.00,A,A*6C
101: $GPRMC,142358.00,A,5347.83577,N,02748.54573,E,55.405,129.33,241015,,,A*5D
101: $GPVTG,129.33,T,,M,55.405,N,102.610,K,A*02
101: $GPGGA,142358.00,5347.83577,N,02748.54573,E,1,10,0.94,181.6,M,24.8,M,,*5B
101: $GPGSA,A,3,32,01,03,04,11,19,17,14,23,31,,,1.78,0.94,1.51*0B
102: $GPGSV,3,1,12,01,70,196,30,03,62,274,36,04,45,160,23,11,44,193,28*72
102: $GPGSV,3,2,12,12,06,014,27,14,22,050,31,17,29,302,31,19,27,225,27*7F
102: $GPGSV,3,3,12,23,26,215,29,25,01,049,23,31,34,101,31,32,76,085,31*70
102: $GPGLL,5347.83577,N,02748.54573,E,142358.00,A,A*62
102: $GPRMC,142359.00,A,5347.82625,N,02748.56550,E,54.036,129.13,241015,,,A*5D
102: $GPVTG,129.13,T,,M,54.036,N,100.074,K,A*03
102: $GPGGA,142359.00,5347.82625,N,02748.56550,E,1,10,0.94,181.6,M,24.8,M,,*5C
102: $GPGSA,A,3,32,01,03,04,11,19,17,14,23,31,,,1.78,0.94,1.51*0B
103: $GPGSV,3,1,12,01,70,196,30,03,62,274,35,04,45,160,24,11,44,193,27*79
103: $GPGSV,3,2,12,12,06,014,27,14,22,050,32,17,29,302,31,19,27,225,28*73
103: $GPGSV,3,3,12,23,26,215,28,25,01,049,23,31,34,101,32,32,76,085,31*72
103: $GPGLL,5347.82625,N,02748.56550,E,142359.00,A,A*65
103: $GPRMC,142400.00,A,5347.81692,N,02748.58482,E,53.004,129.30,241015,,,A*5E
103: $GPVTG,129.30,T,,M,53.004,N,98.164,K,A*34
103: $GPGGA,142400.00,5347.81692,N,02748.58482,E,1,10,0.94,181.6,M,24.8,M,,*58
103: $GPGSA,A,3,32,01,03,04,11,19,17,14,23,31,,,1.78,0.94,1.51*0B
