1: $GPGGA,142211.00,5348.85161,N,02746.44668,E,1,10,0.94,212.6,M,24.8,M,,*52
1: $GPGGA,142212.00,5348.84172,N,02746.46524,E,1,10,0.94,212.1,M,24.8,M,,*5C
2: $GPGGA,142213.00,5348.83184,N,02746.48396,E,1,10,0.94,211.4,M,24.8,M,,*54
3: $GPGGA,142214.00,5348.82211,N,02746.50298,E,1,10,0.94,210.8,M,24.8,M,,*56
4: $GPGGA,142215.00,5348.81259,N,02746.52243,E,1,10,0.94,210.3,M,24.8,M,,*57
5: $GPGGA,142216.00,5348.80310,N,02746.54204,E,1,10,0.94,209.5,M,24.8,M,,*52
6: $GPGGA,142217.00,5348.79351,N,02746.56191,E,1,10,0.94,209.4,M,24.8,M,,*5C
7: $GPGGA,142218.00,5348.78402,N,02746.58181,E,1,10,0.94,208.6,M,24.8,M,,*5F
8: $GPGGA,142219.00,5348.77450,N,02746.60183,E,1,10,0.94,207.8,M,24.8,M,,*5E
9: $GPGGA,142220.00,5348.76494,N,02746.62202,E,1,10,0.94,206.6,M,24.8,M,,*5A
10: $GPGGA,142221.00,5348.75548,N,02746.64236,E,1,10,0.94,205.6,M,24.8,M,,*5A
11: $GPGGA,142222.00,5348.74598,N,02746.66281,E,1,10,0.94,204.8,M,24.8,M,,*54
12: $GPGGA,142223.00,5348.73617,N,02746.68316,E,1,10,0.94,204.5,M,24.8,M,,*5A
13: $GPGGA,142224.00,5348.72648,N,02746.70374,E,1,10,0.94,204.0,M,24.8,M,,*5E
14: $GPGGA,142225.00,5348.71669,N,02746.72427,E,1,10,0.94,203.4,M,24.8,M,,*5F
15: $GPGGA,142226.00,5348.70700,N,02746.74500,E,1,10,0.94,202.3,M,24.8,M,,*57
16: $GPGGA,142227.00,5348.69722,N,02746.76575,E,1,10,0.94,201.5,M,24.8,M,,*5B
17: $GPGGA,142228.00,5348.68729,N,02746.78632,E,1,10,0.94,200.7,M,24.8,M,,*53
18: $GPGGA,142229.00,5348.67732,N,02746.80691,E,1,10,0.94,199.9,M,24.8,M,,*54
18: $GPGGA,142230.00,5348.66740,N,02746.82753,E,1,10,0.94,199.2,M,24.8,M,,*5E
19: $GPGGA,142231.00,5348.65753,N,02746.84814,E,1,10,0.94,198.6,M,24.8,M,,*51
20: $GPGGA,142232.00,5348.64764,N,02746.86866,E,1,10,0.94,198.4,M,24.8,M,,*52
21: $GPGGA,142233.00,5348.63779,N,02746.88904,E,1,10,0.94,197.8,M,24.8,M,,*50
22: $GPGGA,142234.00,5348.62798,N,02746.90928,E,1,10,0.94,197.1,M,24.8,M,,*57
23: $GPGGA,142235.00,5348.61824,N,02746.92953,E,1,10,0.94,196.6,M,24.8,M,,*55
24: $GPGGA,142236.00,5348.60850,N,02746.94962,E,1,10,0.94,196.5,M,24.8,M,,*53
25: $GPGGA,142237.00,5348.59893,N,02746.96957,E,1,10,0.94,196.1,M,24.8,M,,*57
26: $GPGGA,142238.00,5348.58949,N,02746.98907,E,1,10,0.94,195.6,M,24.8,M,,*50
27: $GPGGA,142239.00,5348.58014,N,02747.00827,E,1,10,0.94,195.2,M,24.8,M,,*57
28: $GPGGA,142240.00,5348.57094,N,02747.02724,E,1,10,0.94,194.9,M,24.8,M,,*5A
29: $GPGGA,142241.00,5348.56193,N,02747.04628,E,1,10,0.94,195.0,M,24.8,M,,*5F
30: $GPGGA,142242.00,5348.55287,N,02747.06517,E,1,10,0.94,194.7,M,24.8,M,,*52
31: $GPGGA,142243.00,5348.54380,N,02747.08392,E,1,10,0.94,194.5,M,24.8,M,,*53
32: $GPGGA,142244.00,5348.53479,N,02747.10253,E,1,10,0.94,194.3,M,24.8,M,,*51
33: $GPGGA,142245.00,5348.52583,N,02747.12102,E,1,10,0.94,194.1,M,24.8,M,,*52
33: $GPGGA,142246.00,5348.51689,N,02747.13945,E,1,10,0.94,193.8,M,24.8,M,,*5F
34: $GPGGA,142247.00,5348.50800,N,02747.15797,E,1,10,0.94,194.1,M,24.8,M,,*59
35: $GPGGA,142248.00,5348.49912,N,02747.17649,E,1,10,0.94,194.1,M,24.8,M,,*5C
36: $GPGGA,142249.00,5348.49016,N,02747.19493,E,1,10,0.94,194.0,M,24.8,M,,*5A
37: $GPGGA,142250.00,5348.48118,N,02747.21332,E,1,10,0.94,194.0,M,24.8,M,,*5B
38: $GPGGA,142251.00,5348.47223,N,02747.23172,E,1,10,0.94,194.0,M,24.8,M,,*5A
39: $GPGGA,142252.00,5348.46322,N,02747.25012,E,1,10,0.94,193.8,M,24.8,M,,*56
40: $GPGGA,142253.00,5348.45426,N,02747.26854,E,1,10,0.94,193.9,M,24.8,M,,*5F
41: $GPGGA,142254.00,5348.44538,N,02747.28691,E,1,10,0.94,193.8,M,24.8,M,,*5F
42: $GPGGA,142255.00,5348.43658,N,02747.30532,E,1,10,0.94,193.8,M,24.8,M,,*5F
43: $GPGGA,142256.00,5348.42768,N,02747.32365,E,1,10,0.94,194.2,M,24.8,M,,*54
44: $GPGGA,142257.00,5348.41884,N,02747.34195,E,1,10,0.94,194.7,M,24.8,M,,*55
45: $GPGGA,142258.00,5348.40989,N,02747.36036,E,1,10,0.94,194.8,M,24.8,M,,*52
46: $GPGGA,142259.00,5348.40095,N,02747.37894,E,1,10,0.94,194.9,M,24.8,M,,*57
47: $GPGGA,142300.00,5348.39194,N,02747.39760,E,1,10,0.94,194.8,M,24.8,M,,*5F
48: $GPGGA,142301.00,5348.38284,N,02747.41628,E,1,10,0.94,194.9,M,24.8,M,,*5E
48: $GPGGA,142302.00,5348.37369,N,02747.43496,E,1,10,0.94,195.1,M,24.8,M,,*5C
49: $GPGGA,142303.00,5348.36450,N,02747.45372,E,1,10,0.94,195.2,M,24.8,M,,*59
50: $GPGGA,142304.00,5348.35536,N,02747.47268,E,1,10,0.94,195.1,M,24.8,M,,*57
51: $GPGGA,142305.00,5348.34620,N,02747.49187,E,1,10,0.94,195.0,M,24.8,M,,*5E
52: $GPGGA,142306.00,5348.33689,N,02747.51103,E,1,10,0.94,195.1,M,24.8,M,,*5D
53: $GPGGA,142307.00,5348.32759,N,02747.53024,E,1,10,0.94,195.2,M,24.8,M,,*54
54: $GPGGA,142308.00,5348.31812,N,02747.54939,E,1,10,0.94,194.8,M,24.8,M,,*51
55: $GPGGA,142309.00,5348.30878,N,02747.56860,E,1,10,0.94,194.7,M,24.8,M,,*5D
56: $GPGGA,142310.00,5348.29945,N,02747.58781,E,1,10,0.94,194.6,M,24.8,M,,*5D
57: $GPGGA,142311.00,5348.29011,N,02747.60700,E,1,10,0.94,194.4,M,24.8,M,,*54
58: $GPGGA,142312.00,5348.28084,N,02747.62644,E,1,10,0.94,194.5,M,24.8,M,,*58
59: $GPGGA,142313.00,5348.27039,N,02747.64508,E,1,10,0.94,195.1,M,24.8,M,,*58
60: $GPGGA,142314.00,5348.26103,N,02747.66446,E,1,10,0.94,195.2,M,24.8,M,,*5C
61: $GPGGA,142315.00,5348.25167,N,02747.68398,E,1,10,0.94,195.2,M,24.8,M,,*56
62: $GPGGA,142316.00,5348.24225,N,02747.70355,E,1,10,0.94,195.2,M,24.8,M,,*59
63: $GPGGA,142317.00,5348.23269,N,02747.72329,E,1,10,0.94,194.9,M,24.8,M,,*54
64: $GPGGA,142318.00,5348.22317,N,02747.74306,E,1,10,0.94,194.8,M,24.8,M,,*58
65: $GPGGA,142319.00,5348.21362,N,02747.76311,E,1,10,0.94,194.8,M,24.8,M,,*5C
66: $GPGGA,142320.00,5348.20395,N,02747.78332,E,1,10,0.94,194.5,M,24.8,M,,*5D
67: $GPGGA,142321.00,5348.19416,N,02747.80372,E,1,10,0.94,194.4,M,24.8,M,,*58
68: $GPGGA,142322.00,5348.18421,N,02747.82413,E,1,10,0.94,194.0,M,24.8,M,,*58
69: $GPGGA,142323.00,5348.17426,N,02747.84462,E,1,10,0.94,193.9,M,24.8,M,,*5F
69: $GPGGA,142324.00,5348.16435,N,02747.86512,E,1,10,0.94,193.9,M,24.8,M,,*5F
70: $GPGGA,142325.00,5348.15450,N,02747.88563,E,1,10,0.94,193.8,M,24.8,M,,*57
71: $GPGGA,142326.00,5348.14463,N,02747.90614,E,1,10,0.94,193.7,M,24.8,M,,*50
72: $GPGGA,142327.00,5348.13481,N,02747.92655,E,1,10,0.94,193.6,M,24.8,M,,*5C
73: $GPGGA,142328.00,5348.12502,N,02747.94683,E,1,10,0.94,193.5,M,24.8,M,,*56
74: $GPGGA,142329.00,5348.11530,N,02747.96699,E,1,10,0.94,193.3,M,24.8,M,,*5A
75: $GPGGA,142330.00,5348.10567,N,02747.98692,E,1,10,0.94,193.2,M,24.8,M,,*55
76: $GPGGA,142331.00,5348.09612,N,02748.00678,E,1,10,0.94,192.9,M,24.8,M,,*5D
77: $GPGGA,142332.00,5348.08669,N,02748.02638,E,1,10,0.94,192.8,M,24.8,M,,*54
78: $GPGGA,142333.00,5348.07737,N,02748.04573,E,1,10,0.94,192.5,M,24.8,M,,*57
79: $GPGGA,142334.00,5348.06815,N,02748.06488,E,1,10,0.94,192.3,M,24.8,M,,*5F
80: $GPGGA,142335.00,5348.05901,N,02748.08379,E,1,10,0.94,191.7,M,24.8,M,,*59
81: $GPGGA,142336.00,5348.04989,N,02748.10257,E,1,10,0.94,191.1,M,24.8,M,,*59
82: $GPGGA,142337.00,5348.04083,N,02748.12143,E,1,10,0.94,190.5,M,24.8,M,,*5A
83: $GPGGA,142338.00,5348.03176,N,02748.14028,E,1,10,0.94,190.0,M,24.8,M,,*56
84: $GPGGA,142339.00,5348.02262,N,02748.15916,E,1,10,0.94,189.6,M,24.8,M,,*5B
84: $GPGGA,142340.00,5348.01335,N,02748.17812,E,1,10,0.94,189.1,M,24.8,M,,*55
85: $GPGGA,142341.00,5348.00404,N,02748.19719,E,1,10,0.94,188.4,M,24.8,M,,*5E
86: $GPGGA,142342.00,5347.99462,N,02748.21657,E,1,10,0.94,187.8,M,24.8,M,,*51
87: $GPGGA,142343.00,5347.98502,N,02748.23626,E,1,10,0.94,187.7,M,24.8,M,,*5D
88: $GPGGA,142344.00,5347.97539,N,02748.25619,E,1,10,0.94,187.2,M,24.8,M,,*52
89: $GPGGA,142345.00,5347.96577,N,02748.27632,E,1,10,0.94,186.7,M,24.8,M,,*57
90: $GPGGA,142346.00,5347.95615,N,02748.29655,E,1,10,0.94,185.7,M,24.8,M,,*5C
91: $GPGGA,142347.00,5347.94643,N,02748.31702,E,1,10,0.94,185.0,M,24.8,M,,*52
92: $GPGGA,142348.00,5347.93654,N,02748.33779,E,1,10,0.94,185.0,M,24.8,M,,*52
93: $GPGGA,142349.00,5347.92649,N,02748.35851,E,1,10,0.94,184.2,M,24.8,M,,*5E
94: $GPGGA,142350.00,5347.91632,N,02748.37933,E,1,10,0.94,183.5,M,24.8,M,,*5E
95: $GPGGA,142351.00,5347.90605,N,02748.40026,E,1,10,0.94,183.0,M,24.8,M,,*52
96: $GPGGA,142352.00,5347.89587,N,02748.42124,E,1,10,0.94,182.7,M,24.8,M,,*57
97: $GPGGA,142353.00,5347.88574,N,02748.44223,E,1,10,0.94,182.4,M,24.8,M,,*5A
98: $GPGGA,142354.00,5347.87563,N,02748.46322,E,1,10,0.94,182.0,M,24.8,M,,*52
99: $GPGGA,142355.00,5347.86556,N,02748.48415,E,1,10,0.94,181.9,M,24.8,M,,*53
99: $GPGGA,142356.00,5347.85553,N,02748.50503,E,1,10,0.94,181.9,M,24.8,M,,*59
100: $GPGGA,142357.00,5347.84557,N,02748.52553,E,1,10,0.94,181.6,M,24.8,M,,*55
101: $GPGGA,142358.00,5347.83577,N,02748.54573,E,1,10,0.94,181.6,M,24.8,M,,*5B
102: $GPGGA,142359.00,5347.82625,N,02748.56550,E,1,10,0.94,181.6,M,24.8,M,,*5C
103: $GPGGA,142400.00,5347.81692,N,02748.58482,E,1,10,0.94,181.6,M,24.8,M,,*58
104: $GPGGA,142401.00,5347.80772,N,02748.60373,E,1,10,0.94,181.6,M,24.8,M,,*55
105: $GPGGA,142402.00,5347.79866,N,02748.62236,E,1,10,0.94,181.8,M,24.8,M,,*56
106: $GPGGA,142403.00,5347.78977,N,02748.64058,E,1,10,0.94,181.9,M,24.8,M,,*5A
107: $GPGGA,142404.00,5347.78102,N,02748.65857,E,1,10,0.94,181.7,M,24.8,M,,*5F
108: $GPGGA,142405.00,5347.77230,N,02748.67662,E,1,10,0.94,181.8,M,24.8,M,,*56
109: $GPGGA,142406.00,5347.76358,N,02748.69467,E,1,10,0.94,181.8,M,24.8,M,,*52
110: $GPGGA,142407.00,5347.75496,N,02748.71265,E,1,10,0.94,181.9,M,24.8,M,,*59
111: $GPGGA,142408.00,5347.74640,N,02748.73050,E,1,10,0.94,182.1,M,24.8,M,,*53
112: $GPGGA,142409.00,5347.73787,N,02748.74821,E,1,10,0.94,182.4,M,24.8,M,,*53
112: $GPGGA,142410.00,5347.72937,N,02748.76580,E,1,10,0.94,182.4,M,24.8,M,,*5B
113: $GPGGA,142411.00,5347.72088,N,02748.78335,E,1,10,0.94,182.6,M,24.8,M,,*53
114: $GPGGA,142412.00,5347.71235,N,02748.80094,E,1,10,0.94,182.7,M,24.8,M,,*59
115: $GPGGA,142413.00,5347.70379,N,02748.81857,E,1,10,0.94,182.9,M,24.8,M,,*58
116: $GPGGA,142414.00,5347.69514,N,02748.83627,E,1,10,0.94,183.0,M,24.8,M,,*59
117: $GPGGA,142415.00,5347.68648,N,02748.85407,E,1,10,0.94,183.2,M,24.8,M,,*57
118: $GPGGA,142416.00,5347.67779,N,02748.87196,E,1,10,0.94,183.3,M,24.8,M,,*56
119: $GPGGA,142417.00,5347.66901,N,02748.88991,E,1,10,0.94,183.5,M,24.8,M,,*51
120: $GPGGA,142418.00,5347.66020,N,02748.90791,E,1,10,0.94,183.8,M,24.8,M,,*5E
121: $GPGGA,142419.00,5347.65126,N,02748.92602,E,1,10,0.94,183.9,M,24.8,M,,*53
122: $GPGGA,142420.00,5347.64229,N,02748.94428,E,1,10,0.94,183.9,M,24.8,M,,*58
123: $GPGGA,142421.00,5347.63342,N,02748.96257,E,1,10,0.94,184.0,M,24.8,M,,*50
124: $GPGGA,142422.00,5347.62465,N,02748.98082,E,1,10,0.94,184.0,M,24.8,M,,*54
125: $GPGGA,142423.00,5347.61598,N,02748.99885,E,1,10,0.94,184.0,M,24.8,M,,*5B
126: $GPGGA,142424.00,5347.60743,N,02749.01650,E,1,10,0.94,183.9,M,24.8,M,,*51
127: $GPGGA,142425.00,5347.59907,N,02749.03368,E,1,10,0.94,183.9,M,24.8,M,,*58
128: $GPGGA,142426.00,5347.59081,N,02749.05065,E,1,10,0.94,183.8,M,24.8,M,,*55
129: $GPGGA,142427.00,5347.58259,N,02749.06745,E,1,10,0.94,183.8,M,24.8,M,,*54
130: $GPGGA,142428.00,5347.57442,N,02749.08419,E,1,10,0.94,183.7,M,24.8,M,,*53
131: $GPGGA,142429.00,5347.56630,N,02749.10103,E,1,10,0.94,183.8,M,24.8,M,,*5C
131: $GPGGA,142430.00,5347.55812,N,02749.11793,E,1,10,0.94,183.7,M,24.8,M,,*58
132: $GPGGA,142431.00,5347.54995,N,02749.13494,E,1,10,0.94,183.6,M,24.8,M,,*51
133: $GPGGA,142432.00,5347.54168,N,02749.15208,E,1,10,0.94,183.6,M,24.8,M,,*5D
134: $GPGGA,142433.00,5347.53340,N,02749.16941,E,1,09,1.04,183.7,M,24.8,M,,*57
135: $GPGGA,142434.00,5347.52509,N,02749.18662,E,1,10,1.04,183.7,M,24.8,M,,*52
136: $GPGGA,142435.00,5347.51681,N,02749.20397,E,1,10,0.94,183.6,M,24.8,M,,*5E
137: $GPGGA,142436.00,5347.50839,N,02749.22135,E,1,10,0.99,183.6,M,24.8,M,,*54
138: $GPGGA,142437.00,5347.49997,N,02749.23874,E,1,09,0.99,183.3,M,24.8,M,,*58
139: $GPGGA,142438.00,5347.49155,N,02749.25635,E,1,10,0.94,182.9,M,24.8,M,,*52
140: $GPGGA,142439.00,5347.48307,N,02749.27408,E,1,10,0.94,182.5,M,24.8,M,,*55
141: $GPGGA,142440.00,5347.47456,N,02749.29175,E,1,10,0.94,182.5,M,24.8,M,,*56
142: $GPGGA,142441.00,5347.46599,N,02749.30940,E,1,10,0.94,182.4,M,24.8,M,,*53
143: $GPGGA,142442.00,5347.45751,N,02749.32704,E,1,10,0.94,182.5,M,24.8,M,,*58
144: $GPGGA,142443.00,5347.44904,N,02749.34469,E,1,10,0.94,182.5,M,24.8,M,,*58
145: $GPGGA,142444.00,5347.44047,N,02749.36235,E,1,10,0.94,182.7,M,24.8,M,,*5E
146: $GPGGA,142445.00,5347.43191,N,02749.37999,E,1,10,0.94,182.7,M,24.8,M,,*5E
147: $GPGGA,142446.00,5347.42345,N,02749.39770,E,1,10,0.94,183.0,M,24.8,M,,*56
148: $GPGGA,142447.00,5347.41494,N,02749.41535,E,1,10,0.94,183.3,M,24.8,M,,*50
149: $GPGGA,142448.00,5347.40638,N,02749.43291,E,1,10,0.94,183.3,M,24.8,M,,*51
149: $GPGGA,142449.00,5347.39775,N,02749.45055,E,1,10,0.94,183.3,M,24.8,M,,*5A
150: $GPGGA,142450.00,5347.38909,N,02749.46838,E,1,10,0.94,183.4,M,24.8,M,,*51
151: $GPGGA,142451.00,5347.38035,N,02749.48632,E,1,10,0.94,183.1,M,24.8,M,,*59
152: $GPGGA,142452.00,5347.37151,N,02749.50440,E,1,10,0.94,183.0,M,24.8,M,,*59
153: $GPGGA,142453.00,5347.36258,N,02749.52256,E,1,10,0.94,182.9,M,24.8,M,,*58
154: $GPGGA,142454.00,5347.35358,N,02749.54083,E,1,10,0.94,182.8,M,24.8,M,,*50
155: $GPGGA,142455.00,5347.34464,N,02749.55929,E,1,10,0.94,182.6,M,24.8,M,,*5E
156: $GPGGA,142456.00,5347.33562,N,02749.57788,E,1,10,0.94,182.4,M,24.8,M,,*58
157: $GPGGA,142457.00,5347.32659,N,02749.59657,E,1,10,0.94,182.4,M,24.8,M,,*5E
158: $GPGGA,142458.00,5347.31743,N,02749.61528,E,1,10,0.94,182.2,M,24.8,M,,*5E
159: $GPGGA,142459.00,5347.30827,N,02749.63408,E,1,10,0.94,182.3,M,24.8,M,,*53
160: $GPGGA,142500.00,5347.29903,N,02749.65293,E,1,10,0.94,182.2,M,24.8,M,,*52
161: $GPGGA,142501.00,5347.28974,N,02749.67190,E,1,10,0.94,182.1,M,24.8,M,,*53
162: $GPGGA,142502.00,5347.28044,N,02749.69102,E,1,10,0.94,182.2,M,24.8,M,,*5C
163: $GPGGA,142503.00,5347.27108,N,02749.71027,E,1,10,0.94,182.2,M,24.8,M,,*54
164: $GPGGA,142504.00,5347.26162,N,02749.72961,E,1,10,0.94,182.2,M,24.8,M,,*56
165: $GPGGA,142505.00,5347.25207,N,02749.74907,E,1,10,0.94,182.0,M,24.8,M,,*50
165: $GPGGA,142506.00,5347.24248,N,02749.76869,E,1,10,0.94,181.9,M,24.8,M,,*58
166: $GPGGA,142507.00,5347.23275,N,02749.78841,E,1,10,0.94,181.7,M,24.8,M,,*5A
167: $GPGGA,142508.00,5347.22305,N,02749.80825,E,1,10,0.94,181.5,M,24.8,M,,*55
168: $GPGGA,142509.00,5347.21329,N,02749.82813,E,1,10,0.94,181.3,M,24.8,M,,*58
169: $GPGGA,142510.00,5347.20348,N,02749.84807,E,1,10,0.94,181.2,M,24.8,M,,*54
170: $GPGGA,142511.00,5347.19376,N,02749.86819,E,1,10,0.94,181.2,M,24.8,M,,*5F
171: $GPGGA,142512.00,5347.18401,N,02749.88847,E,1,10,0.94,181.1,M,24.8,M,,*5C
172: $GPGGA,142513.00,5347.17413,N,02749.90879,E,1,10,0.94,181.0,M,24.8,M,,*54
173: $GPGGA,142514.00,5347.16419,N,02749.92913,E,1,10,0.94,181.0,M,24.8,M,,*57
174: $GPGGA,142515.00,5347.15421,N,02749.94943,E,1,10,0.94,181.1,M,24.8,M,,*5C
175: $GPGGA,142516.00,5347.14431,N,02749.96963,E,1,10,0.94,181.1,M,24.8,M,,*5F
176: $GPGGA,142517.00,5347.13454,N,02749.98973,E,1,10,0.94,181.1,M,24.8,M,,*55
177: $GPGGA,142518.00,5347.12489,N,02750.00971,E,1,10,0.94,181.2,M,24.8,M,,*53
178: $GPGGA,142519.00,5347.11527,N,02750.02965,E,1,10,0.94,181.3,M,24.8,M,,*52
179: $GPGGA,142520.00,5347.10554,N,02750.04958,E,1,10,0.94,181.3,M,24.8,M,,*55
180: $GPGGA,142521.00,5347.09589,N,02750.06968,E,1,10,0.94,181.2,M,24.8,M,,*5C
181: $GPGGA,142522.00,5347.08627,N,02750.08989,E,1,10,0.94,181.2,M,24.8,M,,*58
182: $GPGGA,142523.00,5347.07657,N,02750.11017,E,1,10,0.99,181.0,M,24.8,M,,*58
183: $GPGGA,142524.00,5347.06678,N,02750.13038,E,1,10,0.94,181.0,M,24.8,M,,*51
183: $GPGGA,142525.00,5347.05691,N,02750.15047,E,1,10,0.94,180.8,M,24.8,M,,*53
184: $GPGGA,142526.00,5347.04706,N,02750.17045,E,1,10,0.94,180.6,M,24.8,M,,*50
185: $GPGGA,142527.00,5347.03720,N,02750.19043,E,1,10,0.94,180.4,M,24.8,M,,*58
186: $GPGGA,142528.00,5347.02740,N,02750.21054,E,1,10,0.94,180.4,M,24.8,M,,*5D
187: $GPGGA,142529.00,5347.01763,N,02750.23069,E,1,10,0.94,180.4,M,24.8,M,,*52
188: $GPGGA,142530.00,5347.00792,N,02750.25076,E,1,10,0.94,180.9,M,24.8,M,,*50
189: $GPGGA,142531.00,5346.99862,N,02750.27079,E,1,10,0.94,181.8,M,24.8,M,,*5D
190: $GPGGA,142532.00,5346.98931,N,02750.29070,E,1,10,0.94,182.0,M,24.8,M,,*54
191: $GPGGA,142533.00,5346.98022,N,02750.31090,E,1,10,0.94,182.3,M,24.8,M,,*5A
192: $GPGGA,142534.00,5346.97106,N,02750.33113,E,1,10,0.94,182.5,M,24.8,M,,*5B
193: $GPGGA,142535.00,5346.96173,N,02750.35132,E,1,10,0.94,182.7,M,24.8,M,,*5E
194: $GPGGA,142536.00,5346.95211,N,02750.37136,E,1,10,0.94,182.3,M,24.8,M,,*5B
195: $GPGGA,142537.00,5346.94242,N,02750.39154,E,1,10,0.94,182.4,M,24.8,M,,*50
196: $GPGGA,142538.00,5346.93270,N,02750.41182,E,1,10,0.94,182.4,M,24.8,M,,*5D
197: $GPGGA,142539.00,5346.92287,N,02750.43218,E,1,10,0.94,182.3,M,24.8,M,,*50
198: $GPGGA,142540.00,5346.91296,N,02750.45266,E,1,10,0.94,182.3,M,24.8,M,,*52
199: $GPGGA,142541.00,5346.90299,N,02750.47327,E,1,10,0.94,182.3,M,24.8,M,,*5B
200: $GPGGA,142542.00,5346.89292,N,02750.49393,E,1,10,0.94,182.4,M,24.8,M,,*5D
201: $GPGGA,142543.00,5346.88283,N,02750.51468,E,1,10,0.94,182.4,M,24.8,M,,*57
202: $GPGGA,142544.00,5346.87264,N,02750.53550,E,1,10,0.94,182.4,M,24.8,M,,*5E
202: $GPGGA,142545.00,5346.86244,N,02750.55638,E,1,10,0.94,182.5,M,24.8,M,,*56
203: $GPGGA,142546.00,5346.85223,N,02750.57730,E,1,10,0.94,182.6,M,24.8,M,,*5F
204: $GPGGA,142547.00,5346.84204,N,02750.59830,E,1,10,0.94,182.6,M,24.8,M,,*5B
205: $GPGGA,142548.00,5346.83195,N,02750.61944,E,1,10,0.94,182.7,M,24.8,M,,*50
206: $GPGGA,142549.00,5346.82184,N,02750.64058,E,1,10,0.94,182.8,M,24.8,M,,*5E
207: $GPGGA,142550.00,5346.81176,N,02750.66173,E,1,10,0.94,182.8,M,24.8,M,,*52
208: $GPGGA,142551.00,5346.80164,N,02750.68280,E,1,10,0.94,182.9,M,24.8,M,,*51
209: $GPGGA,142552.00,5346.79153,N,02750.70381,E,1,10,0.94,183.0,M,24.8,M,,*51
210: $GPGGA,142553.00,5346.78134,N,02750.72477,E,1,10,0.94,183.2,M,24.8,M,,*5E
211: $GPGGA,142554.00,5346.77100,N,02750.74553,E,1,10,0.94,183.2,M,24.8,M,,*50
212: $GPGGA,142555.00,5346.76043,N,02750.76608,E,1,10,0.94,183.3,M,24.8,M,,*58
213: $GPGGA,142556.00,5346.74973,N,02750.78655,E,1,10,0.94,183.5,M,24.8,M,,*53
214: $GPGGA,142557.00,5346.73904,N,02750.80725,E,1,10,0.94,183.6,M,24.8,M,,*57
215: $GPGGA,142558.00,5346.72850,N,02750.82833,E,1,10,0.94,183.6,M,24.8,M,,*53
216: $GPGGA,142559.00,5346.71803,N,02750.84975,E,1,10,0.94,183.5,M,24.8,M,,*51
217: $GPGGA,142600.00,5346.70757,N,02750.87140,E,1,10,0.94,183.5,M,24.8,M,,*5C
218: $GPGGA,142601.00,5346.69700,N,02750.89312,E,1,10,0.94,183.4,M,24.8,M,,*5D
219: $GPGGA,142602.00,5346.68634,N,02750.91490,E,1,10,0.94,183.4,M,24.8,M,,*5D
219: $GPGGA,142603.00,5346.67568,N,02750.93678,E,1,10,0.94,183.4,M,24.8,M,,*5F
220: $GPGGA,142604.00,5346.66490,N,02750.95871,E,1,10,0.94,183.3,M,24.8,M,,*59
221: $GPGGA,142605.00,5346.65417,N,02750.98078,E,1,10,0.94,183.2,M,24.8,M,,*59
222: $GPGGA,142606.00,5346.64339,N,02751.00301,E,1,10,0.94,183.1,M,24.8,M,,*5E
223: $GPGGA,142607.00,5346.63259,N,02751.02534,E,1,10,0.94,183.1,M,24.8,M,,*5D
224: $GPGGA,142608.00,5346.62177,N,02751.04774,E,1,10,0.94,183.1,M,24.8,M,,*5C
225: $GPGGA,142609.00,5346.61088,N,02751.07016,E,1,10,0.94,183.3,M,24.8,M,,*5D
226: $GPGGA,142610.00,5346.59990,N,02751.09250,E,1,10,0.94,183.3,M,24.8,M,,*50
227: $GPGGA,142611.00,5346.58887,N,02751.11475,E,1,10,0.94,183.2,M,24.8,M,,*5E
228: $GPGGA,142612.00,5346.57781,N,02751.13692,E,1,10,0.94,183.1,M,24.8,M,,*51
229: $GPGGA,142613.00,5346.56673,N,02751.15906,E,1,10,0.94,183.0,M,24.8,M,,*58
230: $GPGGA,142614.00,5346.55559,N,02751.18106,E,1,10,0.94,183.0,M,24.8,M,,*52
231: $GPGGA,142615.00,5346.54424,N,02751.20269,E,1,10,0.94,183.0,M,24.8,M,,*58
232: $GPGGA,142616.00,5346.53268,N,02751.22393,E,1,10,0.94,183.2,M,24.8,M,,*56
233: $GPGGA,142617.00,5346.52094,N,02751.24490,E,1,10,0.94,183.2,M,24.8,M,,*55
234: $GPGGA,142618.00,5346.50912,N,02751.26573,E,1,10,0.94,183.2,M,24.8,M,,*51
235: $GPGGA,142619.00,5346.49716,N,02751.28645,E,1,10,0.94,183.0,M,24.8,M,,*58
235: $GPGGA,142620.00,5346.48506,N,02751.30704,E,1,10,0.94,182.8,M,24.8,M,,*54
236: $GPGGA,142621.00,5346.47290,N,02751.32741,E,1,10,0.94,182.7,M,24.8,M,,*5E
237: $GPGGA,142622.00,5346.46070,N,02751.34750,E,1,10,0.94,182.5,M,24.8,M,,*54
238: $GPGGA,142623.00,5346.44845,N,02751.36731,E,1,10,0.94,182.3,M,24.8,M,,*5A
239: $GPGGA,142624.00,5346.43613,N,02751.38677,E,1,10,0.94,182.0,M,24.8,M,,*59
240: $GPGGA,142625.00,5346.42373,N,02751.40589,E,1,10,0.94,181.6,M,24.8,M,,*52
241: $GPGGA,142626.00,5346.41128,N,02751.42470,E,1,10,0.94,181.2,M,24.8,M,,*5F
242: $GPGGA,142627.00,5346.39878,N,02751.44315,E,1,10,0.94,180.7,M,24.8,M,,*5B
243: $GPGGA,142628.00,5346.38620,N,02751.46126,E,1,10,0.94,180.3,M,24.8,M,,*52
244: $GPGGA,142629.00,5346.37356,N,02751.47899,E,1,10,0.94,180.2,M,24.8,M,,*55
245: $GPGGA,142630.00,5346.36079,N,02751.49624,E,1,10,0.94,180.1,M,24.8,M,,*57
246: $GPGGA,142631.00,5346.34791,N,02751.51316,E,1,10,0.94,180.1,M,24.8,M,,*58
247: $GPGGA,142632.00,5346.33493,N,02751.52984,E,1,10,0.94,180.0,M,24.8,M,,*5E
248: $GPGGA,142633.00,5346.32192,N,02751.54642,E,1,10,0.94,180.0,M,24.8,M,,*59
249: $GPGGA,142634.00,5346.30882,N,02751.56285,E,1,10,0.94,180.0,M,24.8,M,,*59
249: $GPGGA,142635.00,5346.29577,N,02751.57933,E,1,10,0.94,179.9,M,24.8,M,,*5F
250: $GPGGA,142636.00,5346.28261,N,02751.59567,E,1,10,0.94,180.0,M,24.8,M,,*51
251: $GPGGA,142637.00,5346.26924,N,02751.61167,E,1,10,0.94,180.2,M,24.8,M,,*59
252: $GPGGA,142638.00,5346.25571,N,02751.62747,E,1,10,0.94,180.3,M,24.8,M,,*5F
253: $GPGGA,142639.00,5346.24198,N,02751.64302,E,1,10,0.94,180.4,M,24.8,M,,*58
254: $GPGGA,142640.00,5346.22815,N,02751.65850,E,1,10,0.94,180.5,M,24.8,M,,*50
255: $GPGGA,142641.00,5346.21422,N,02751.67400,E,1,10,0.94,180.6,M,24.8,M,,*52
256: $GPGGA,142642.00,5346.20024,N,02751.68960,E,1,10,0.94,180.7,M,24.8,M,,*57
257: $GPGGA,142643.00,5346.18614,N,02751.70524,E,1,10,0.94,180.5,M,24.8,M,,*5F
258: $GPGGA,142644.00,5346.17196,N,02751.72078,E,1,10,0.94,180.4,M,24.8,M,,*55
259: $GPGGA,142645.00,5346.15777,N,02751.73631,E,1,10,0.94,180.4,M,24.8,M,,*55
260: $GPGGA,142646.00,5346.14355,N,02751.75188,E,1,10,0.94,180.3,M,24.8,M,,*57
261: $GPGGA,142647.00,5346.12938,N,02751.76748,E,1,10,0.94,180.3,M,24.8,M,,*58
262: $GPGGA,142648.00,5346.11526,N,02751.78313,E,1,10,0.94,180.3,M,24.8,M,,*53
263: $GPGGA,142649.00,5346.10121,N,02751.79869,E,1,10,0.94,180.3,M,24.8,M,,*57
264: $GPGGA,142650.00,5346.08722,N,02751.81410,E,1,10,0.94,180.2,M,24.8,M,,*57
265: $GPGGA,142651.00,5346.07334,N,02751.82935,E,1,10,0.94,180.2,M,24.8,M,,*53
265: $GPGGA,142652.00,5346.05960,N,02751.84445,E,1,10,0.94,180.2,M,24.8,M,,*55
266: $GPGGA,142653.00,5346.04603,N,02751.85939,E,1,10,0.94,180.2,M,24.8,M,,*58
267: $GPGGA,142654.00,5346.03262,N,02751.87416,E,1,10,0.94,180.3,M,24.8,M,,*58
268: $GPGGA,142655.00,5346.01943,N,02751.88880,E,1,10,0.94,180.4,M,24.8,M,,*58
269: $GPGGA,142656.00,5346.00642,N,02751.90337,E,1,10,0.94,180.4,M,24.8,M,,*5A
270: $GPGGA,142657.00,5345.99356,N,02751.91807,E,1,10,0.94,180.3,M,24.8,M,,*56
271: $GPGGA,142658.00,5345.98102,N,02751.93333,E,1,10,0.94,180.5,M,24.8,M,,*53
272: $GPGGA,142659.00,5345.96884,N,02751.94926,E,1,10,0.94,180.8,M,24.8,M,,*5F
273: $GPGGA,142700.00,5345.95690,N,02751.96567,E,1,10,0.94,181.0,M,24.8,M,,*58
274: $GPGGA,142701.00,5345.94515,N,02751.98248,E,1,10,0.94,181.1,M,24.8,M,,*53
275: $GPGGA,142702.00,5345.93372,N,02751.99972,E,1,11,0.88,181.0,M,24.8,M,,*5E
276: $GPGGA,142703.00,5345.92265,N,02752.01741,E,1,11,0.88,180.9,M,24.8,M,,*5D
277: $GPGGA,142704.00,5345.91195,N,02752.03556,E,1,11,0.88,180.6,M,24.8,M,,*5C
278: $GPGGA,142705.00,5345.90161,N,02752.05410,E,1,11,0.88,180.3,M,24.8,M,,*57
279: $GPGGA,142706.00,5345.89155,N,02752.07290,E,1,11,0.88,180.1,M,24.8,M,,*55
280: $GPGGA,142707.00,5345.88186,N,02752.09206,E,1,11,0.88,179.9,M,24.8,M,,*54
281: $GPGGA,142708.00,5345.87253,N,02752.11163,E,1,11,0.88,179.9,M,24.8,M,,*56
281: $GPGGA,142709.00,5345.86360,N,02752.13165,E,1,11,0.88,179.9,M,24.8,M,,*53
282: $GPGGA,142710.00,5345.85498,N,02752.15199,E,1,11,0.88,180.1,M,24.8,M,,*53
283: $GPGGA,142711.00,5345.84659,N,02752.17257,E,1,11,0.88,180.1,M,24.8,M,,*5F
284: $GPGGA,142712.00,5345.83843,N,02752.19335,E,1,11,0.88,179.9,M,24.8,M,,*5B
285: $GPGGA,142713.00,5345.83072,N,02752.21443,E,1,11,0.88,179.8,M,24.8,M,,*5C
286: $GPGGA,142714.00,5345.82347,N,02752.23586,E,1,11,0.88,179.9,M,24.8,M,,*54
287: $GPGGA,142715.00,5345.81657,N,02752.25769,E,1,11,0.88,179.9,M,24.8,M,,*57
288: $GPGGA,142716.00,5345.81002,N,02752.27999,E,1,11,0.88,180.0,M,24.8,M,,*5E
289: $GPGGA,142717.00,5345.80379,N,02752.30276,E,1,11,0.88,180.4,M,24.8,M,,*59
290: $GPGGA,142718.00,5345.79791,N,02752.32580,E,1,11,0.88,180.6,M,24.8,M,,*5C
291: $GPGGA,142719.00,5345.79233,N,02752.34923,E,1,11,0.88,180.8,M,24.8,M,,*5D
292: $GPGGA,142720.00,5345.78709,N,02752.37295,E,1,11,0.88,180.7,M,24.8,M,,*50
293: $GPGGA,142721.00,5345.78221,N,02752.39703,E,1,11,0.88,180.5,M,24.8,M,,*58
294: $GPGGA,142722.00,5345.77761,N,02752.42148,E,1,11,0.88,180.3,M,24.8,M,,*56
295: $GPGGA,142723.00,5345.77319,N,02752.44603,E,1,11,0.88,180.0,M,24.8,M,,*51
296: $GPGGA,142724.00,5345.76899,N,02752.47090,E,1,11,0.88,179.8,M,24.8,M,,*55
297: $GPGGA,142725.00,5345.76483,N,02752.49594,E,1,11,0.88,179.6,M,24.8,M,,*52
298: $GPGGA,142726.00,5345.76079,N,02752.52101,E,1,10,1.06,179.1,M,24.8,M,,*53
299: $GPGGA,142727.00,5345.75674,N,02752.54601,E,1,10,1.06,178.8,M,24.8,M,,*53
300: $GPGGA,142728.00,5345.75277,N,02752.57117,E,1,11,1.06,178.7,M,24.8,M,,*56
301: $GPGGA,142729.00,5345.74874,N,02752.59642,E,1,11,1.06,178.5,M,24.8,M,,*54
302: $GPGGA,142730.00,5345.74460,N,02752.62175,E,1,10,1.06,178.5,M,24.8,M,,*5F
302: $GPGGA,142731.00,5345.74050,N,02752.64711,E,1,10,1.16,178.5,M,24.8,M,,*5A
303: $GPGGA,142732.00,5345.73643,N,02752.67253,E,1,10,1.06,178.3,M,24.8,M,,*5D
304: $GPGGA,142733.00,5345.73238,N,02752.69791,E,1,11,1.06,178.1,M,24.8,M,,*52
305: $GPGGA,142734.00,5345.72831,N,02752.72315,E,1,10,1.06,177.9,M,24.8,M,,*53
306: $GPGGA,142735.00,5345.72425,N,02752.74824,E,1,10,1.06,177.7,M,24.8,M,,*5A
307: $GPGGA,142736.00,5345.72026,N,02752.77319,E,1,11,1.06,177.7,M,24.8,M,,*59
308: $GPGGA,142737.00,5345.71649,N,02752.79805,E,1,11,1.06,177.7,M,24.8,M,,*5C
309: $GPGGA,142738.00,5345.71297,N,02752.82303,E,1,11,0.88,177.8,M,24.8,M,,*55
310: $GPGGA,142739.00,5345.70965,N,02752.84808,E,1,11,0.88,177.7,M,24.8,M,,*5A
311: $GPGGA,142740.00,5345.70656,N,02752.87323,E,1,11,0.88,177.7,M,24.8,M,,*5A
312: $GPGGA,142741.00,5345.70374,N,02752.89852,E,1,11,1.06,177.6,M,24.8,M,,*5B
313: $GPGGA,142742.00,5345.70102,N,02752.92394,E,1,11,1.06,177.5,M,24.8,M,,*53
314: $GPGGA,142743.00,5345.69829,N,02752.94962,E,1,11,0.88,177.8,M,24.8,M,,*55
315: $GPGGA,142744.00,5345.69571,N,02752.97539,E,1,11,0.88,178.1,M,24.8,M,,*55
316: $GPGGA,142745.00,5345.69340,N,02753.00125,E,1,11,0.88,178.4,M,24.8,M,,*53
317: $GPGGA,142746.00,5345.69140,N,02753.02714,E,1,11,0.88,178.7,M,24.8,M,,*57
318: $GPGGA,142747.00,5345.68970,N,02753.05306,E,1,11,0.88,178.9,M,24.8,M,,*52
319: $GPGGA,142748.00,5345.68832,N,02753.07893,E,1,11,0.88,178.9,M,24.8,M,,*5F
320: $GPGGA,142749.00,5345.68722,N,02753.10483,E,1,11,0.88,178.9,M,24.8,M,,*5B
320: $GPGGA,142750.00,5345.68641,N,02753.13075,E,1,11,0.88,178.9,M,24.8,M,,*59
321: $GPGGA,142751.00,5345.68581,N,02753.15660,E,1,11,0.88,178.8,M,24.8,M,,*52
322: $GPGGA,142752.00,5345.68540,N,02753.18253,E,1,11,0.88,178.7,M,24.8,M,,*5A
323: $GPGGA,142753.00,5345.68522,N,02753.20846,E,1,11,0.88,178.5,M,24.8,M,,*58
324: $GPGGA,142754.00,5345.68511,N,02753.23441,E,1,11,0.88,178.4,M,24.8,M,,*56
325: $GPGGA,142755.00,5345.68505,N,02753.26033,E,1,11,0.88,178.2,M,24.8,M,,*50
326: $GPGGA,142756.00,5345.68502,N,02753.28635,E,1,11,0.88,178.1,M,24.8,M,,*59
327: $GPGGA,142757.00,5345.68510,N,02753.31225,E,1,11,0.88,178.1,M,24.8,M,,*56
328: $GPGGA,142758.00,5345.68522,N,02753.33804,E,1,11,0.88,177.6,M,24.8,M,,*5B
329: $GPGGA,142759.00,5345.68534,N,02753.36377,E,1,11,0.88,177.4,M,24.8,M,,*55
330: $GPGGA,142800.00,5345.68547,N,02753.38955,E,1,11,0.88,177.3,M,24.8,M,,*51
331: $GPGGA,142801.00,5345.68559,N,02753.41535,E,1,11,0.88,177.3,M,24.8,M,,*5B
332: $GPGGA,142802.00,5345.68566,N,02753.44129,E,1,11,0.88,177.5,M,24.8,M,,*5E
333: $GPGGA,142803.00,5345.68574,N,02753.46729,E,1,11,0.88,177.8,M,24.8,M,,*55
333: $GPGGA,142804.00,5345.68583,N,02753.49325,E,1,11,0.88,177.9,M,24.8,M,,*5C
334: $GPGGA,142805.00,5345.68591,N,02753.51912,E,1,11,0.88,178.2,M,24.8,M,,*5D
335: $GPGGA,142806.00,5345.68597,N,02753.54486,E,1,11,0.88,178.5,M,24.8,M,,*5A
336: $GPGGA,142807.00,5345.68609,N,02753.57048,E,1,11,0.88,178.9,M,24.8,M,,*56
337: $GPGGA,142808.00,5345.68627,N,02753.59604,E,1,11,0.88,179.2,M,24.8,M,,*5F
338: $GPGGA,142809.00,5345.68648,N,02753.62160,E,1,11,0.88,179.5,M,24.8,M,,*5D
339: $GPGGA,142810.00,5345.68667,N,02753.64718,E,1,11,0.88,179.8,M,24.8,M,,*5A
340: $GPGGA,142811.00,5345.68676,N,02753.67280,E,1,11,0.88,179.9,M,24.8,M,,*5D
341: $GPGGA,142812.00,5345.68675,N,02753.69844,E,1,11,0.88,180.2,M,24.8,M,,*5C
342: $GPGGA,142813.00,5345.68670,N,02753.72404,E,1,11,0.88,180.2,M,24.8,M,,*5A
343: $GPGGA,142814.00,5345.68669,N,02753.74963,E,1,11,0.88,180.3,M,24.8,M,,*5E
344: $GPGGA,142815.00,5345.68675,N,02753.77522,E,1,11,0.88,180.3,M,24.8,M,,*58
345: $GPGGA,142816.00,5345.68692,N,02753.80080,E,1,11,0.88,180.3,M,24.8,M,,*57
346: $GPGGA,142817.00,5345.68712,N,02753.82643,E,1,11,0.88,180.3,M,24.8,M,,*54
347: $GPGGA,142818.00,5345.68724,N,02753.85209,E,1,11,0.88,180.3,M,24.8,M,,*53
348: $GPGGA,142819.00,5345.68729,N,02753.87783,E,1,11,0.88,180.3,M,24.8,M,,*5A
348: $GPGGA,142820.00,5345.68735,N,02753.90362,E,1,11,0.88,180.3,M,24.8,M,,*50
349: $GPGGA,142821.00,5345.68741,N,02753.92939,E,1,11,0.88,180.3,M,24.8,M,,*54
350: $GPGGA,142822.00,5345.68749,N,02753.95514,E,1,11,0.88,180.3,M,24.8,M,,*5B
351: $GPGGA,142823.00,5345.68763,N,02753.98086,E,1,11,0.88,180.3,M,24.8,M,,*51
352: $GPGGA,142824.00,5345.68781,N,02754.00657,E,1,11,0.88,180.4,M,24.8,M,,*51
353: $GPGGA,142825.00,5345.68801,N,02754.03225,E,1,11,0.88,180.4,M,24.8,M,,*55
354: $GPGGA,142826.00,5345.68819,N,02754.05785,E,1,11,0.88,180.3,M,24.8,M,,*51
355: $GPGGA,142827.00,5345.68833,N,02754.08338,E,1,11,0.88,180.2,M,24.8,M,,*56
356: $GPGGA,142828.00,5345.68847,N,02754.10890,E,1,11,0.88,180.2,M,24.8,M,,*5A
357: $GPGGA,142829.00,5345.68854,N,02754.13438,E,1,11,0.88,180.1,M,24.8,M,,*57
358: $GPGGA,142830.00,5345.68859,N,02754.15994,E,1,11,0.88,180.0,M,24.8,M,,*5E
359: $GPGGA,142831.00,5345.68863,N,02754.18554,E,1,11,0.88,179.9,M,24.8,M,,*54
360: $GPGGA,142832.00,5345.68870,N,02754.21114,E,1,11,0.88,179.8,M,24.8,M,,*5E
361: $GPGGA,142833.00,5345.68882,N,02754.23664,E,1,11,0.88,179.7,M,24.8,M,,*5F
361: $GPGGA,142834.00,5345.68897,N,02754.26192,E,1,11,0.88,179.8,M,24.8,M,,*58
362: $GPGGA,142835.00,5345.68912,N,02754.28691,E,1,11,0.88,180.0,M,24.8,M,,*51
363: $GPGGA,142836.00,5345.68926,N,02754.31161,E,1,11,0.88,180.2,M,24.8,M,,*57
364: $GPGGA,142837.00,5345.68943,N,02754.33607,E,1,11,0.88,180.6,M,24.8,M,,*54
365: $GPGGA,142838.00,5345.68958,N,02754.36032,E,1,11,0.88,181.2,M,24.8,M,,*51
366: $GPGGA,142839.00,5345.68970,N,02754.38433,E,1,11,0.88,181.7,M,24.8,M,,*54
367: $GPGGA,142840.00,5345.68975,N,02754.40820,E,1,11,0.88,182.4,M,24.8,M,,*5E
368: $GPGGA,142841.00,5345.68982,N,02754.43200,E,1,11,0.88,182.9,M,24.8,M,,*51
369: $GPGGA,142842.00,5345.68992,N,02754.45563,E,1,11,0.88,183.5,M,24.8,M,,*5A
370: $GPGGA,142843.00,5345.69005,N,02754.47904,E,1,11,0.88,184.0,M,24.8,M,,*50
371: $GPGGA,142844.00,5345.69017,N,02754.50206,E,1,11,0.88,184.5,M,24.8,M,,*5E
372: $GPGGA,142845.00,5345.69034,N,02754.52463,E,1,11,0.88,184.9,M,24.8,M,,*55
373: $GPGGA,142846.00,5345.69050,N,02754.54685,E,1,11,0.88,185.3,M,24.8,M,,*53
374: $GPGGA,142847.00,5345.69064,N,02754.56905,E,1,11,0.88,185.7,M,24.8,M,,*54
375: $GPGGA,142848.00,5345.69072,N,02754.59134,E,1,11,0.88,186.1,M,24.8,M,,*5C
376: $GPGGA,142849.00,5345.69078,N,02754.61377,E,1,11,0.88,186.5,M,24.8,M,,*5D
377: $GPGGA,142850.00,5345.69087,N,02754.63628,E,1,11,0.88,186.8,M,24.8,M,,*55
378: $GPGGA,142851.00,5345.69102,N,02754.65890,E,1,11,0.88,187.1,M,24.8,M,,*5B
378: $GPGGA,142852.00,5345.69112,N,02754.68158,E,1,11,0.88,187.3,M,24.8,M,,*5B
379: $GPGGA,142853.00,5345.69118,N,02754.70440,E,1,11,0.88,187.6,M,24.8,M,,*50
380: $GPGGA,142854.00,5345.69125,N,02754.72740,E,1,11,0.88,187.8,M,24.8,M,,*56
381: $GPGGA,142855.00,5345.69133,N,02754.75052,E,1,11,0.88,188.0,M,24.8,M,,*54
382: $GPGGA,142856.00,5345.69140,N,02754.77376,E,1,11,0.88,188.2,M,24.8,M,,*56
383: $GPGGA,142857.00,5345.69147,N,02754.79710,E,1,11,0.88,188.4,M,24.8,M,,*5C
384: $GPGGA,142858.00,5345.69156,N,02754.82052,E,1,11,0.88,188.6,M,24.8,M,,*54
385: $GPGGA,142859.00,5345.69164,N,02754.84406,E,1,11,0.88,188.7,M,24.8,M,,*56
386: $GPGGA,142900.00,5345.69170,N,02754.86765,E,1,11,0.88,188.9,M,24.8,M,,*54
387: $GPGGA,142901.00,5345.69176,N,02754.89120,E,1,11,0.88,189.1,M,24.8,M,,*52
388: $GPGGA,142902.00,5345.69184,N,02754.91462,E,1,11,0.94,189.3,M,24.8,M,,*59
389: $GPGGA,142903.00,5345.69198,N,02754.93793,E,1,11,0.94,189.5,M,24.8,M,,*5C
390: $GPGGA,142904.00,5345.69214,N,02754.96118,E,1,11,0.88,189.7,M,24.8,M,,*53
391: $GPGGA,142905.00,5345.69231,N,02754.98440,E,1,11,0.88,189.8,M,24.8,M,,*5C
392: $GPGGA,142906.00,5345.69249,N,02755.00765,E,1,11,0.88,189.9,M,24.8,M,,*55
393: $GPGGA,142907.00,5345.69265,N,02755.03101,E,1,11,0.88,190.0,M,24.8,M,,*5C
393: $GPGGA,142908.00,5345.69278,N,02755.05452,E,1,11,0.88,190.1,M,24.8,M,,*5B
394: $GPGGA,142909.00,5345.69289,N,02755.07822,E,1,11,0.91,190.1,M,24.8,M,,*55
395: $GPGGA,142910.00,5345.69302,N,02755.10209,E,1,11,0.91,189.9,M,24.8,M,,*5A
396: $GPGGA,142911.00,5345.69315,N,02755.12616,E,1,11,0.91,189.8,M,24.8,M,,*54
397: $GPGGA,142912.00,5345.69325,N,02755.15039,E,1,11,0.91,189.6,M,24.8,M,,*56
398: $GPGGA,142913.00,5345.69324,N,02755.17486,E,1,11,0.88,189.5,M,24.8,M,,*5F
399: $GPGGA,142914.00,5345.69316,N,02755.19959,E,1,11,0.91,189.4,M,24.8,M,,*51
400: $GPGGA,142915.00,5345.69313,N,02755.22459,E,1,11,0.91,189.2,M,24.8,M,,*56
401: $GPGGA,142916.00,5345.69326,N,02755.24980,E,1,11,0.91,189.0,M,24.8,M,,*5E
402: $GPGGA,142917.00,5345.69349,N,02755.27522,E,1,11,0.88,188.6,M,24.8,M,,*5E
403: $GPGGA,142918.00,5345.69372,N,02755.30092,E,1,11,0.88,188.1,M,24.8,M,,*56
404: $GPGGA,142919.00,5345.69394,N,02755.32688,E,1,11,0.88,187.7,M,24.8,M,,*59
405: $GPGGA,142920.00,5345.69413,N,02755.35309,E,1,11,0.88,187.1,M,24.8,M,,*56
406: $GPGGA,142921.00,5345.69427,N,02755.37955,E,1,11,0.88,186.6,M,24.8,M,,*57
406: $GPGGA,142922.00,5345.69439,N,02755.40624,E,1,11,0.88,186.1,M,24.8,M,,*55
407: $GPGGA,142923.00,5345.69452,N,02755.43309,E,1,11,0.88,185.5,M,24.8,M,,*57
408: $GPGGA,142924.00,5345.69465,N,02755.46010,E,1,11,0.88,184.9,M,24.8,M,,*57
409: $GPGGA,142925.00,5345.69479,N,02755.48720,E,1,11,0.88,184.3,M,24.8,M,,*5B
410: $GPGGA,142926.00,5345.69494,N,02755.51436,E,1,11,0.88,183.9,M,24.8,M,,*5A
411: $GPGGA,142927.00,5345.69509,N,02755.54156,E,1,11,0.88,183.5,M,24.8,M,,*54
412: $GPGGA,142928.00,5345.69526,N,02755.56875,E,1,11,0.88,183.3,M,24.8,M,,*5A
413: $GPGGA,142929.00,5345.69544,N,02755.59590,E,1,11,0.88,183.0,M,24.8,M,,*55
414: $GPGGA,142930.00,5345.69565,N,02755.62297,E,1,11,0.88,182.9,M,24.8,M,,*5E
415: $GPGGA,142931.00,5345.69588,N,02755.64995,E,1,11,0.88,182.7,M,24.8,M,,*5D
416: $GPGGA,142932.00,5345.69612,N,02755.67682,E,1,11,0.88,182.6,M,24.8,M,,*55
417: $GPGGA,142933.00,5345.69626,N,02755.70350,E,1,11,0.88,182.4,M,24.8,M,,*5D
418: $GPGGA,142934.00,5345.69640,N,02755.73000,E,1,11,0.88,182.3,M,24.8,M,,*58
419: $GPGGA,142935.00,5345.69660,N,02755.75634,E,1,11,0.88,182.1,M,24.8,M,,*5E
420: $GPGGA,142936.00,5345.69682,N,02755.78241,E,1,11,0.88,181.9,M,24.8,M,,*51
421: $GPGGA,142937.00,5345.69699,N,02755.80802,E,1,11,0.88,181.8,M,24.8,M,,*51
422: $GPGGA,142938.00,5345.69709,N,02755.83308,E,1,11,0.88,181.7,M,24.8,M,,*5B
422: $GPGGA,142939.00,5345.69714,N,02755.85761,E,1,11,0.88,181.6,M,24.8,M,,*5A
423: $GPGGA,142940.00,5345.69719,N,02755.88165,E,1,11,0.88,181.5,M,24.8,M,,*55
424: $GPGGA,142941.00,5345.69728,N,02755.90521,E,1,11,0.88,181.4,M,24.8,M,,*5A
425: $GPGGA,142942.00,5345.69743,N,02755.92834,E,1,11,0.88,181.3,M,24.8,M,,*58
426: $GPGGA,142943.00,5345.69760,N,02755.95127,E,1,11,0.88,181.1,M,24.8,M,,*56
427: $GPGGA,142944.00,5345.69779,N,02755.97416,E,1,11,0.88,180.9,M,24.8,M,,*55
428: $GPGGA,142945.00,5345.69800,N,02755.99707,E,1,11,0.88,180.7,M,24.8,M,,*56
429: $GPGGA,142946.00,5345.69823,N,02756.02005,E,1,11,0.88,180.4,M,24.8,M,,*53
430: $GPGGA,142947.00,5345.69844,N,02756.04295,E,1,11,0.88,180.2,M,24.8,M,,*58
431: $GPGGA,142948.00,5345.69864,N,02756.06576,E,1,11,0.88,179.9,M,24.8,M,,*50
432: $GPGGA,142949.00,5345.69891,N,02756.08851,E,1,11,0.88,179.6,M,24.8,M,,*52
433: $GPGGA,142950.00,5345.69938,N,02756.11126,E,1,11,0.88,179.2,M,24.8,M,,*5D
434: $GPGGA,142951.00,5345.69987,N,02756.13408,E,1,11,0.88,178.9,M,24.8,M,,*59
435: $GPGGA,142952.00,5345.70010,N,02756.15697,E,1,11,0.88,178.7,M,24.8,M,,*59
436: $GPGGA,142953.00,5345.69994,N,02756.17997,E,1,11,0.88,178.4,M,24.8,M,,*5B
437: $GPGGA,142954.00,5345.69946,N,02756.20312,E,1,11,0.88,178.1,M,24.8,M,,*55
438: $GPGGA,142955.00,5345.69872,N,02756.22642,E,1,11,0.88,177.8,M,24.8,M,,*56
439: $GPGGA,142956.00,5345.69781,N,02756.24985,E,1,11,0.88,177.6,M,24.8,M,,*5A
440: $GPGGA,142957.00,5345.69672,N,02756.27338,E,1,11,0.88,177.5,M,24.8,M,,*5A
441: $GPGGA,142958.00,5345.69551,N,02756.29705,E,1,11,0.88,177.1,M,24.8,M,,*57
442: $GPGGA,142959.00,5345.69410,N,02756.32090,E,1,11,0.88,176.9,M,24.8,M,,*5A
443: $GPGGA,143000.00,5345.69248,N,02756.34496,E,1,10,0.94,176.7,M,24.8,M,,*53
444: $GPGGA,143001.00,5345.69062,N,02756.36916,E,1,11,0.94,176.4,M,24.8,M,,*5D
445: $GPGGA,143002.00,5345.68851,N,02756.39344,E,1,11,0.94,176.1,M,24.8,M,,*50
446: $GPGGA,143003.00,5345.68613,N,02756.41785,E,1,11,0.88,175.7,M,24.8,M,,*57
447: $GPGGA,143004.00,5345.68348,N,02756.44230,E,1,11,0.88,175.4,M,24.8,M,,*56
447: $GPGGA,143005.00,5345.68065,N,02756.46682,E,1,11,0.88,175.1,M,24.8,M,,*51
448: $GPGGA,143006.00,5345.67760,N,02756.49147,E,1,11,0.88,174.8,M,24.8,M,,*56
449: $GPGGA,143007.00,5345.67421,N,02756.51619,E,1,11,0.88,174.4,M,24.8,M,,*58
450: $GPGGA,143008.00,5345.67045,N,02756.54096,E,1,10,1.06,174.1,M,24.8,M,,*56
451: $GPGGA,143009.00,5345.66658,N,02756.56587,E,1,11,1.06,174.0,M,24.8,M,,*5B
452: $GPGGA,143010.00,5345.66276,N,02756.59094,E,1,11,1.06,173.8,M,24.8,M,,*5C
453: $GPGGA,143011.00,5345.65897,N,02756.61623,E,1,10,1.06,173.8,M,24.8,M,,*5B
454: $GPGGA,143012.00,5345.65518,N,02756.64177,E,1,11,1.06,173.7,M,24.8,M,,*5F
455: $GPGGA,143013.00,5345.65139,N,02756.66752,E,1,11,1.06,173.7,M,24.8,M,,*5A
456: $GPGGA,143014.00,5345.64758,N,02756.69344,E,1,11,0.88,173.6,M,24.8,M,,*57
457: $GPGGA,143015.00,5345.64380,N,02756.71959,E,1,11,0.88,173.7,M,24.8,M,,*59
458: $GPGGA,143016.00,5345.64000,N,02756.74587,E,1,11,0.88,173.9,M,24.8,M,,*55
459: $GPGGA,143017.00,5345.63612,N,02756.77220,E,1,11,0.88,174.1,M,24.8,M,,*50
460: $GPGGA,143018.00,5345.63222,N,02756.79854,E,1,11,0.88,174.1,M,24.8,M,,*5F
461: $GPGGA,143019.00,5345.62833,N,02756.82492,E,1,11,0.88,174.1,M,24.8,M,,*57
461: $GPGGA,143020.00,5345.62444,N,02756.85135,E,1,11,0.88,174.2,M,24.8,M,,*5D
462: $GPGGA,143021.00,5345.62058,N,02756.87783,E,1,11,0.88,174.2,M,24.8,M,,*5C
463: $GPGGA,143022.00,5345.61675,N,02756.90438,E,1,11,0.88,174.4,M,24.8,M,,*56
464: $GPGGA,143023.00,5345.61291,N,02756.93090,E,1,11,0.88,174.4,M,24.8,M,,*5C
465: $GPGGA,143024.00,5345.60906,N,02756.95743,E,1,11,0.88,174.3,M,24.8,M,,*57
466: $GPGGA,143025.00,5345.60519,N,02756.98398,E,1,11,0.88,174.3,M,24.8,M,,*5B
467: $GPGGA,143026.00,5345.60130,N,02757.01060,E,1,11,0.88,174.3,M,24.8,M,,*52
468: $GPGGA,143027.00,5345.59736,N,02757.03721,E,1,11,0.88,174.4,M,24.8,M,,*5E
469: $GPGGA,143028.00,5345.59341,N,02757.06383,E,1,11,0.88,174.5,M,24.8,M,,*5D
470: $GPGGA,143029.00,5345.58952,N,02757.09043,E,1,11,0.88,174.7,M,24.8,M,,*57
471: $GPGGA,143030.00,5345.58571,N,02757.11693,E,1,11,0.88,174.7,M,24.8,M,,*50
472: $GPGGA,143031.00,5345.58192,N,02757.14315,E,1,11,0.88,174.6,M,24.8,M,,*57
473: $GPGGA,143032.00,5345.57817,N,02757.16893,E,1,11,0.88,174.6,M,24.8,M,,*58
474: $GPGGA,143033.00,5345.57443,N,02757.19418,E,1,11,0.88,174.7,M,24.8,M,,*55
474: $GPGGA,143034.00,5345.57069,N,02757.21887,E,1,11,0.88,174.6,M,24.8,M,,*5E
475: $GPGGA,143035.00,5345.56698,N,02757.24305,E,1,11,0.88,174.6,M,24.8,M,,*52
476: $GPGGA,143036.00,5345.56333,N,02757.26691,E,1,11,0.88,174.6,M,24.8,M,,*5F
477: $GPGGA,143037.00,5345.55979,N,02757.29037,E,1,11,0.88,174.5,M,24.8,M,,*5F
478: $GPGGA,143038.00,5345.55633,N,02757.31341,E,1,11,1.06,174.5,M,24.8,M,,*5D
479: $GPGGA,143039.00,5345.55288,N,02757.33630,E,1,11,0.88,174.4,M,24.8,M,,*5F
480: $GPGGA,143040.00,5345.54948,N,02757.35915,E,1,11,0.88,174.5,M,24.8,M,,*58
481: $GPGGA,143041.00,5345.54612,N,02757.38193,E,1,11,1.06,174.6,M,24.8,M,,*56
482: $GPGGA,143042.00,5345.54276,N,02757.40466,E,1,11,0.88,174.8,M,24.8,M,,*5A
483: $GPGGA,143043.00,5345.53943,N,02757.42731,E,1,11,0.88,174.9,M,24.8,M,,*53
484: $GPGGA,143044.00,5345.53603,N,02757.44994,E,1,11,0.88,174.9,M,24.8,M,,*58
485: $GPGGA,143045.00,5345.53259,N,02757.47255,E,1,11,0.88,175.0,M,24.8,M,,*5F
486: $GPGGA,143046.00,5345.52921,N,02757.49513,E,1,11,0.88,174.9,M,24.8,M,,*5A
487: $GPGGA,143047.00,5345.52591,N,02757.51766,E,1,11,0.88,174.9,M,24.8,M,,*55
488: $GPGGA,143048.00,5345.52265,N,02757.54022,E,1,11,0.88,174.8,M,24.8,M,,*55
489: $GPGGA,143049.00,5345.51946,N,02757.56283,E,1,11,0.88,174.8,M,24.8,M,,*56
489: $GPGGA,143050.00,5345.51629,N,02757.58551,E,1,11,0.88,174.8,M,24.8,M,,*5E
490: $GPGGA,143051.00,5345.51322,N,02757.60827,E,1,11,0.88,174.8,M,24.8,M,,*56
491: $GPGGA,143052.00,5345.51033,N,02757.63125,E,1,11,0.88,174.7,M,24.8,M,,*51
492: $GPGGA,143053.00,5345.50771,N,02757.65445,E,1,11,0.88,174.6,M,24.8,M,,*54
493: $GPGGA,143054.00,5345.50523,N,02757.67803,E,1,11,0.88,174.6,M,24.7,M,,*55
494: $GPGGA,143055.00,5345.50295,N,02757.70208,E,1,11,0.88,174.7,M,24.7,M,,*58
495: $GPGGA,143056.00,5345.50086,N,02757.72657,E,1,11,0.88,175.0,M,24.7,M,,*51
496: $GPGGA,143057.00,5345.49889,N,02757.75134,E,1,11,0.88,175.3,M,24.7,M,,*59
497: $GPGGA,143058.00,5345.49700,N,02757.77633,E,1,11,0.88,175.6,M,24.7,M,,*5F
498: $GPGGA,143059.00,5345.49533,N,02757.80140,E,1,11,0.88,175.9,M,24.7,M,,*58
499: $GPGGA,143100.00,5345.49374,N,02757.82652,E,1,11,0.88,176.1,M,24.7,M,,*5D
499: $GPGGA,143101.00,5345.49222,N,02757.85164,E,1,11,0.88,176.2,M,24.7,M,,*58
500: $GPGGA,143102.00,5345.49078,N,02757.87680,E,1,11,0.88,176.5,M,24.7,M,,*5E
501: $GPGGA,143103.00,5345.48962,N,02757.90187,E,1,11,0.88,176.8,M,24.7,M,,*57
502: $GPGGA,143104.00,5345.48883,N,02757.92683,E,1,11,0.88,176.8,M,24.7,M,,*5F
503: $GPGGA,143105.00,5345.48830,N,02757.95177,E,1,11,0.88,176.8,M,24.7,M,,*5D
504: $GPGGA,143106.00,5345.48801,N,02757.97663,E,1,11,0.88,176.8,M,24.7,M,,*5C
505: $GPGGA,143107.00,5345.48777,N,02758.00165,E,1,11,0.88,176.7,M,24.7,M,,*5C
506: $GPGGA,143108.00,5345.48758,N,02758.02674,E,1,11,0.88,176.7,M,24.7,M,,*5B
507: $GPGGA,143109.00,5345.48775,N,02758.05178,E,1,11,0.88,176.5,M,24.7,M,,*5B
508: $GPGGA,143110.00,5345.48842,N,02758.07674,E,1,11,0.88,176.3,M,24.7,M,,*57
509: $GPGGA,143111.00,5345.48945,N,02758.10171,E,1,11,0.88,176.2,M,24.7,M,,*55
510: $GPGGA,143112.00,5345.49062,N,02758.12677,E,1,11,0.88,176.3,M,24.7,M,,*59
511: $GPGGA,143113.00,5345.49186,N,02758.15183,E,1,11,0.88,176.4,M,24.7,M,,*5F
512: $GPGGA,143114.00,5345.49317,N,02758.17691,E,1,11,0.88,176.3,M,24.7,M,,*53
513: $GPGGA,143115.00,5345.49451,N,02758.20201,E,1,11,0.88,176.4,M,24.7,M,,*59
514: $GPGGA,143116.00,5345.49596,N,02758.22714,E,1,11,0.88,176.6,M,24.7,M,,*51
514: $GPGGA,143117.00,5345.49782,N,02758.25206,E,1,11,0.88,176.5,M,24.7,M,,*55
515: $GPGGA,143118.00,5345.49998,N,02758.27699,E,1,10,0.88,176.3,M,24.7,M,,*58
516: $GPGGA,143119.00,5345.50241,N,02758.30199,E,1,10,0.88,176.4,M,24.7,M,,*58
517: $GPGGA,143120.00,5345.50510,N,02758.32707,E,1,10,0.88,176.4,M,24.7,M,,*52
518: $GPGGA,143121.00,5345.50791,N,02758.35225,E,1,11,0.88,176.4,M,24.7,M,,*5B
519: $GPGGA,143122.00,5345.51082,N,02758.37750,E,1,11,0.88,176.5,M,24.7,M,,*58
520: $GPGGA,143123.00,5345.51377,N,02758.40286,E,1,11,0.88,176.7,M,24.7,M,,*5C
521: $GPGGA,143124.00,5345.51685,N,02758.42826,E,1,10,0.88,176.8,M,24.7,M,,*5F
522: $GPGGA,143125.00,5345.52014,N,02758.45367,E,1,11,0.88,176.9,M,24.7,M,,*5A
523: $GPGGA,143126.00,5345.52368,N,02758.47902,E,1,11,0.88,177.1,M,24.7,M,,*53
524: $GPGGA,143127.00,5345.52725,N,02758.50432,E,1,11,0.88,177.5,M,24.7,M,,*53
525: $GPGGA,143128.00,5345.53082,N,02758.52961,E,1,11,0.88,177.7,M,24.7,M,,*5C
526: $GPGGA,143129.00,5345.53433,N,02758.55489,E,1,11,0.88,177.8,M,24.7,M,,*50
527: $GPGGA,143130.00,5345.53779,N,02758.58025,E,1,11,0.88,177.9,M,24.7,M,,*5B
528: $GPGGA,143131.00,5345.54121,N,02758.60569,E,1,11,0.88,178.0,M,24.7,M,,*56
529: $GPGGA,143132.00,5345.54458,N,02758.63126,E,1,11,0.88,178.2,M,24.7,M,,*50
530: $GPGGA,143133.00,5345.54787,N,02758.65702,E,1,11,0.88,178.4,M,24.7,M,,*50
531: $GPGGA,143134.00,5345.55110,N,02758.68293,E,1,11,0.88,178.5,M,24.7,M,,*5F
532: $GPGGA,143135.00,5345.55421,N,02758.70897,E,1,11,0.88,178.7,M,24.7,M,,*5C
533: $GPGGA,143136.00,5345.55725,N,02758.73511,E,1,11,0.88,179.0,M,24.7,M,,*5E
534: $GPGGA,143137.00,5345.56021,N,02758.76145,E,1,11,0.88,179.2,M,24.7,M,,*5D
535: $GPGGA,143138.00,5345.56310,N,02758.78785,E,1,11,0.88,179.4,M,24.7,M,,*51
536: $GPGGA,143139.00,5345.56578,N,02758.81424,E,1,11,0.88,179.8,M,24.7,M,,*5A
537: $GPGGA,143140.00,5345.56818,N,02758.84079,E,1,11,0.88,180.1,M,24.7,M,,*59
538: $GPGGA,143141.00,5345.57020,N,02758.86735,E,1,11,0.88,180.5,M,24.7,M,,*53
539: $GPGGA,143142.00,5345.57178,N,02758.89377,E,1,11,0.88,181.1,M,24.7,M,,*54
540: $GPGGA,143143.00,5345.57289,N,02758.92036,E,1,11,0.88,181.6,M,24.7,M,,*53
540: $GPGGA,143144.00,5345.57343,N,02758.94699,E,1,10,0.97,182.2,M,24.7,M,,*5E
541: $GPGGA,143145.00,5345.57362,N,02758.97366,E,1,10,0.97,182.8,M,24.7,M,,*50
542: $GPGGA,143146.00,5345.57369,N,02759.00029,E,1,11,0.97,183.4,M,24.7,M,,*53
543: $GPGGA,143147.00,5345.57365,N,02759.02695,E,1,11,0.97,184.0,M,24.7,M,,*5E
544: $GPGGA,143148.00,5345.57363,N,02759.05378,E,1,11,0.88,184.0,M,24.7,M,,*58
545: $GPGGA,143149.00,5345.57357,N,02759.08045,E,1,11,0.88,184.6,M,24.7,M,,*58
546: $GPGGA,143150.00,5345.57346,N,02759.10708,E,1,11,0.88,185.2,M,24.7,M,,*52
547: $GPGGA,143151.00,5345.57337,N,02759.13381,E,1,11,0.88,186.0,M,24.7,M,,*52
548: $GPGGA,143152.00,5345.57326,N,02759.16060,E,1,11,0.88,186.7,M,24.7,M,,*5F
549: $GPGGA,143153.00,5345.57318,N,02759.18751,E,1,11,0.88,187.0,M,24.7,M,,*5E
550: $GPGGA,143154.00,5345.57314,N,02759.21443,E,1,11,0.88,187.7,M,24.7,M,,*58
551: $GPGGA,143155.00,5345.57305,N,02759.24136,E,1,11,0.88,188.1,M,24.7,M,,*52
552: $GPGGA,143156.00,5345.57296,N,02759.26824,E,1,11,0.88,188.8,M,24.7,M,,*5B
553: $GPGGA,143157.00,5345.57279,N,02759.29498,E,1,11,0.88,189.3,M,24.7,M,,*55
554: $GPGGA,143158.00,5345.57256,N,02759.32156,E,1,11,0.88,189.7,M,24.7,M,,*5E
555: $GPGGA,143159.00,5345.57232,N,02759.34807,E,1,11,0.88,190.0,M,24.7,M,,*59
556: $GPGGA,143200.00,5345.57212,N,02759.37453,E,1,11,0.88,190.4,M,24.7,M,,*5E
557: $GPGGA,143201.00,5345.57198,N,02759.40093,E,1,11,0.88,190.9,M,24.7,M,,*5B
557: $GPGGA,143202.00,5345.57189,N,02759.42732,E,1,11,0.88,191.2,M,24.7,M,,*5C
558: $GPGGA,143203.00,5345.57183,N,02759.45373,E,1,11,0.88,191.5,M,24.7,M,,*56
559: $GPGGA,143204.00,5345.57177,N,02759.48015,E,1,11,0.88,191.6,M,24.7,M,,*57
560: $GPGGA,143205.00,5345.57169,N,02759.50658,E,1,11,0.88,191.8,M,24.7,M,,*51
561: $GPGGA,143206.00,5345.57160,N,02759.53299,E,1,11,0.88,192.0,M,24.7,M,,*5A
562: $GPGGA,143207.00,5345.57145,N,02759.55938,E,1,11,0.88,192.3,M,24.7,M,,*59
563: $GPGGA,143208.00,5345.57127,N,02759.58577,E,1,11,0.88,192.6,M,24.7,M,,*5D
564: $GPGGA,143209.00,5345.57113,N,02759.61209,E,1,11,0.88,193.0,M,24.7,M,,*58
