0: $GPRMC,142211.00,A,5348.85161,N,02746.44668,E,53.677,133.22,241015,,,A*57
1: $GPRMC,142212.00,A,5348.84172,N,02746.46524,E,53.241,131.66,241015,,,A*5D
2: $GPRMC,142213.00,A,5348.83184,N,02746.48396,E,53.510,131.50,241015,,,A*55
3: $GPRMC,142214.00,A,5348.82211,N,02746.50298,E,53.515,130.45,241015,,,A*5A
4: $GPRMC,142215.00,A,5348.81259,N,02746.52243,E,53.840,129.54,241015,,,A*55
5: $GPRMC,142216.00,A,5348.80310,N,02746.54204,E,54.087,129.27,241015,,,A*5E
6: $GPRMC,142217.00,A,5348.79351,N,02746.56191,E,54.475,129.17,241015,,,A*5B
7: $GPRMC,142218.00,A,5348.78402,N,02746.58181,E,54.668,128.78,241015,,,A*5D
8: $GPRMC,142219.00,A,5348.77450,N,02746.60183,E,54.903,128.71,241015,,,A*56
9: $GPRMC,142220.00,A,5348.76494,N,02746.62202,E,55.186,128.28,241015,,,A*55
10: $GPRMC,142221.00,A,5348.75548,N,02746.64236,E,55.409,128.06,241015,,,A*58
11: $GPRMC,142222.00,A,5348.74598,N,02746.66281,E,55.506,128.09,241015,,,A*58
12: $GPRMC,142223.00,A,5348.73617,N,02746.68316,E,55.782,128.07,241015,,,A*5B
13: $GPRMC,142224.00,A,5348.72648,N,02746.70374,E,56.103,128.32,241015,,,A*50
14: $GPRMC,142225.00,A,5348.71669,N,02746.72427,E,56.365,128.22,241015,,,A*51
15: $GPRMC,142226.00,A,5348.70700,N,02746.74500,E,56.557,128.10,241015,,,A*59
15: $GPRMC,142227.00,A,5348.69722,N,02746.76575,E,56.640,128.65,241015,,,A*57
16: $GPRMC,142228.00,A,5348.68729,N,02746.78632,E,56.739,129.50,241015,,,A*54
17: $GPRMC,142229.00,A,5348.67732,N,02746.80691,E,56.820,129.42,241015,,,A*5A
18: $GPRMC,142230.00,A,5348.66740,N,02746.82753,E,56.803,129.14,241015,,,A*59
19: $GPRMC,142231.00,A,5348.65753,N,02746.84814,E,56.606,129.13,241015,,,A*5F
20: $GPRMC,142232.00,A,5348.64764,N,02746.86866,E,56.460,129.26,241015,,,A*5A
21: $GPRMC,142233.00,A,5348.63779,N,02746.88904,E,56.244,129.25,241015,,,A*58
22: $GPRMC,142234.00,A,5348.62798,N,02746.90928,E,56.041,129.32,241015,,,A*57
23: $GPRMC,142235.00,A,5348.61824,N,02746.92953,E,55.672,129.36,241015,,,A*52
24: $GPRMC,142236.00,A,5348.60850,N,02746.94962,E,55.480,129.41,241015,,,A*58
25: $GPRMC,142237.00,A,5348.59893,N,02746.96957,E,54.845,129.14,241015,,,A*5C
26: $GPRMC,142238.00,A,5348.58949,N,02746.98907,E,53.881,129.52,241015,,,A*52
27: $GPRMC,142239.00,A,5348.58014,N,02747.00827,E,53.134,129.42,241015,,,A*57
28: $GPRMC,142240.00,A,5348.57094,N,02747.02724,E,52.482,129.34,241015,,,A*58
29: $GPRMC,142241.00,A,5348.56193,N,02747.04628,E,52.005,128.70,241015,,,A*5F
29: $GPRMC,142242.00,A,5348.55287,N,02747.06517,E,51.959,129.11,241015,,,A*51
30: $GPRMC,142243.00,A,5348.54380,N,02747.08392,E,51.765,129.26,241015,,,A*57
31: $GPRMC,142244.00,A,5348.53479,N,02747.10253,E,51.316,129.40,241015,,,A*53
32: $GPRMC,142245.00,A,5348.52583,N,02747.12102,E,51.070,129.34,241015,,,A*52
33: $GPRMC,142246.00,A,5348.51689,N,02747.13945,E,50.959,129.20,241015,,,A*57
34: $GPRMC,142247.00,A,5348.50800,N,02747.15797,E,50.906,129.22,241015,,,A*57
35: $GPRMC,142248.00,A,5348.49912,N,02747.17649,E,51.002,129.00,241015,,,A*5E
36: $GPRMC,142249.00,A,5348.49016,N,02747.19493,E,50.980,129.30,241015,,,A*58
37: $GPRMC,142250.00,A,5348.48118,N,02747.21332,E,50.900,129.46,241015,,,A*50
38: $GPRMC,142251.00,A,5348.47223,N,02747.23172,E,50.880,129.21,241015,,,A*59
39: $GPRMC,142252.00,A,5348.46322,N,02747.25012,E,50.937,129.18,241015,,,A*5D
40: $GPRMC,142253.00,A,5348.45426,N,02747.26854,E,50.892,129.27,241015,,,A*57
41: $GPRMC,142254.00,A,5348.44538,N,02747.28691,E,50.636,128.98,241015,,,A*53
42: $GPRMC,142255.00,A,5348.43658,N,02747.30532,E,50.447,129.00,241015,,,A*57
43: $GPRMC,142256.00,A,5348.42768,N,02747.32365,E,50.536,129.42,241015,,,A*50
44: $GPRMC,142257.00,A,5348.41884,N,02747.34195,E,50.506,129.21,241015,,,A*52
44: $GPRMC,142258.00,A,5348.40989,N,02747.36036,E,50.969,129.38,241015,,,A*57
45: $GPRMC,142259.00,A,5348.40095,N,02747.37894,E,51.144,128.84,241015,,,A*53
46: $GPRMC,142300.00,A,5348.39194,N,02747.39760,E,51.457,129.07,241015,,,A*57
47: $GPRMC,142301.00,A,5348.38284,N,02747.41628,E,51.518,129.18,241015,,,A*53
48: $GPRMC,142302.00,A,5348.37369,N,02747.43496,E,51.740,129.41,241015,,,A*5B
49: $GPRMC,142303.00,A,5348.36450,N,02747.45372,E,51.996,129.37,241015,,,A*59
50: $GPRMC,142304.00,A,5348.35536,N,02747.47268,E,52.221,128.78,241015,,,A*5A
51: $GPRMC,142305.00,A,5348.34620,N,02747.49187,E,52.755,128.91,241015,,,A*53
52: $GPRMC,142306.00,A,5348.33689,N,02747.51103,E,52.924,129.21,241015,,,A*53
53: $GPRMC,142307.00,A,5348.32759,N,02747.53024,E,53.023,129.25,241015,,,A*52
54: $GPRMC,142308.00,A,5348.31812,N,02747.54939,E,53.239,129.86,241015,,,A*5C
55: $GPRMC,142309.00,A,5348.30878,N,02747.56860,E,53.043,129.28,241015,,,A*54
56: $GPRMC,142310.00,A,5348.29945,N,02747.58781,E,53.059,129.33,241015,,,A*54
57: $GPRMC,142311.00,A,5348.29011,N,02747.60700,E,52.983,129.21,241015,,,A*53
58: $GPRMC,142312.00,A,5348.28084,N,02747.62644,E,53.407,128.80,241015,,,A*54
59: $GPRMC,142313.00,A,5348.27039,N,02747.64508,E,54.758,133.22,241015,,,A*5D
60: $GPRMC,142314.00,A,5348.26103,N,02747.66446,E,53.828,129.60,241015,,,A*58
61: $GPRMC,142315.00,A,5348.25167,N,02747.68398,E,53.856,129.23,241015,,,A*5C
62: $GPRMC,142316.00,A,5348.24225,N,02747.70355,E,54.074,129.20,241015,,,A*5F
63: $GPRMC,142317.00,A,5348.23269,N,02747.72329,E,54.592,129.47,241015,,,A*54
64: $GPRMC,142318.00,A,5348.22317,N,02747.74306,E,54.859,129.25,241015,,,A*57
65: $GPRMC,142319.00,A,5348.21362,N,02747.76311,E,55.228,129.15,241015,,,A*5D
65: $GPRMC,142320.00,A,5348.20395,N,02747.78332,E,55.775,129.13,241015,,,A*5A
66: $GPRMC,142321.00,A,5348.19416,N,02747.80372,E,56.142,129.34,241015,,,A*5A
67: $GPRMC,142322.00,A,5348.18421,N,02747.82413,E,56.461,129.71,241015,,,A*5B
68: $GPRMC,142323.00,A,5348.17426,N,02747.84462,E,56.503,129.44,241015,,,A*51
69: $GPRMC,142324.00,A,5348.16435,N,02747.86512,E,56.459,129.23,241015,,,A*5E
70: $GPRMC,142325.00,A,5348.15450,N,02747.88563,E,56.405,129.21,241015,,,A*5C
71: $GPRMC,142326.00,A,5348.14463,N,02747.90614,E,56.422,129.12,241015,,,A*51
72: $GPRMC,142327.00,A,5348.13481,N,02747.92655,E,56.147,129.18,241015,,,A*50
73: $GPRMC,142328.00,A,5348.12502,N,02747.94683,E,55.959,129.36,241015,,,A*51
74: $GPRMC,142329.00,A,5348.11530,N,02747.96699,E,55.523,129.14,241015,,,A*5A
75: $GPRMC,142330.00,A,5348.10567,N,02747.98692,E,55.024,129.11,241015,,,A*53
76: $GPRMC,142331.00,A,5348.09612,N,02748.00678,E,54.499,129.03,241015,,,A*51
77: $GPRMC,142332.00,A,5348.08669,N,02748.02638,E,53.819,129.12,241015,,,A*5A
78: $GPRMC,142333.00,A,5348.07737,N,02748.04573,E,53.130,129.18,241015,,,A*5C
79: $GPRMC,142334.00,A,5348.06815,N,02748.06488,E,52.580,129.12,241015,,,A*56
80: $GPRMC,142335.00,A,5348.05901,N,02748.08379,E,52.151,129.24,241015,,,A*5A
80: $GPRMC,142336.00,A,5348.04989,N,02748.10257,E,51.933,129.29,241015,,,A*5E
81: $GPRMC,142337.00,A,5348.04083,N,02748.12143,E,51.891,128.91,241015,,,A*53
82: $GPRMC,142338.00,A,5348.03176,N,02748.14028,E,51.816,129.23,241015,,,A*5D
83: $GPRMC,142339.00,A,5348.02262,N,02748.15916,E,52.195,129.34,241015,,,A*59
84: $GPRMC,142340.00,A,5348.01335,N,02748.17812,E,52.741,129.47,241015,,,A*5B
85: $GPRMC,142341.00,A,5348.00404,N,02748.19719,E,53.027,129.29,241015,,,A*5A
86: $GPRMC,142342.00,A,5347.99462,N,02748.21657,E,53.745,129.41,241015,,,A*5B
87: $GPRMC,142343.00,A,5347.98502,N,02748.23626,E,54.559,129.52,241015,,,A*52
88: $GPRMC,142344.00,A,5347.97539,N,02748.25619,E,55.116,129.21,241015,,,A*52
89: $GPRMC,142345.00,A,5347.96577,N,02748.27632,E,55.397,128.91,241015,,,A*52
90: $GPRMC,142346.00,A,5347.95615,N,02748.29655,E,55.707,128.91,241015,,,A*57
91: $GPRMC,142347.00,A,5347.94643,N,02748.31702,E,56.260,129.15,241015,,,A*54
92: $GPRMC,142348.00,A,5347.93654,N,02748.33779,E,56.977,129.05,241015,,,A*58
93: $GPRMC,142349.00,A,5347.92649,N,02748.35851,E,57.398,129.50,241015,,,A*5D
94: $GPRMC,142350.00,A,5347.91632,N,02748.37933,E,57.663,129.57,241015,,,A*5B
95: $GPRMC,142351.00,A,5347.90605,N,02748.40026,E,57.851,129.45,241015,,,A*5E
96: $GPRMC,142352.00,A,5347.89587,N,02748.42124,E,57.844,129.39,241015,,,A*52
96: $GPRMC,142353.00,A,5347.88574,N,02748.44223,E,57.872,129.22,241015,,,A*53
97: $GPRMC,142354.00,A,5347.87563,N,02748.46322,E,57.777,129.12,241015,,,A*56
98: $GPRMC,142355.00,A,5347.86556,N,02748.48415,E,57.616,129.18,241015,,,A*51
99: $GPRMC,142356.00,A,5347.85553,N,02748.50503,E,57.314,129.05,241015,,,A*50
100: $GPRMC,142357.00,A,5347.84557,N,02748.52553,E,56.656,129.49,241015,,,A*59
101: $GPRMC,142358.00,A,5347.83577,N,02748.54573,E,55.405,129.33,241015,,,A*5D
102: $GPRMC,142359.00,A,5347.82625,N,02748.56550,E,54.036,129.13,241015,,,A*5D
103: $GPRMC,142400.00,A,5347.81692,N,02748.58482,E,53.004,129.30,241015,,,A*5E
104: $GPRMC,142401.00,A,5347.80772,N,02748.60373,E,52.124,129.43,241015,,,A*55
105: $GPRMC,142402.00,A,5347.79866,N,02748.62236,E,51.083,129.62,241015,,,A*54
106: $GPRMC,142403.00,A,5347.78977,N,02748.64058,E,49.987,129.51,241015,,,A*5D
107: $GPRMC,142404.00,A,5347.78102,N,02748.65857,E,49.666,129.43,241015,,,A*55
108: $GPRMC,142405.00,A,5347.77230,N,02748.67662,E,49.795,129.36,241015,,,A*5C
108: $GPRMC,142406.00,A,5347.76358,N,02748.69467,E,49.746,129.17,241015,,,A*55
109: $GPRMC,142407.00,A,5347.75496,N,02748.71265,E,49.476,129.15,241015,,,A*5D
110: $GPRMC,142408.00,A,5347.74640,N,02748.73050,E,49.064,129.17,241015,,,A*59
111: $GPRMC,142409.00,A,5347.73787,N,02748.74821,E,48.726,129.22,241015,,,A*5A
112: $GPRMC,142410.00,A,5347.72937,N,02748.76580,E,48.589,129.35,241015,,,A*53
113: $GPRMC,142411.00,A,5347.72088,N,02748.78335,E,48.542,129.45,241015,,,A*59
114: $GPRMC,142412.00,A,5347.71235,N,02748.80094,E,48.774,129.41,241015,,,A*51
115: $GPRMC,142413.00,A,5347.70379,N,02748.81857,E,48.859,129.45,241015,,,A*5A
116: $GPRMC,142414.00,A,5347.69514,N,02748.83627,E,49.084,129.45,241015,,,A*5A
117: $GPRMC,142415.00,A,5347.68648,N,02748.85407,E,49.318,129.36,241015,,,A*54
118: $GPRMC,142416.00,A,5347.67779,N,02748.87196,E,49.518,129.31,241015,,,A*55
119: $GPRMC,142417.00,A,5347.66901,N,02748.88991,E,49.796,129.67,241015,,,A*53
120: $GPRMC,142418.00,A,5347.66020,N,02748.90791,E,49.952,129.73,241015,,,A*52
121: $GPRMC,142419.00,A,5347.65126,N,02748.92602,E,50.447,129.92,241015,,,A*50
122: $GPRMC,142420.00,A,5347.64229,N,02748.94428,E,50.579,129.53,241015,,,A*5A
123: $GPRMC,142421.00,A,5347.63342,N,02748.96257,E,50.586,129.16,241015,,,A*5D
124: $GPRMC,142422.00,A,5347.62465,N,02748.98082,E,50.167,129.05,241015,,,A*50
125: $GPRMC,142423.00,A,5347.61598,N,02748.99885,E,49.246,129.07,241015,,,A*55
126: $GPRMC,142424.00,A,5347.60743,N,02749.01650,E,48.379,129.26,241015,,,A*5E
127: $GPRMC,142425.00,A,5347.59907,N,02749.03368,E,47.182,129.39,241015,,,A*50
127: $GPRMC,142426.00,A,5347.59081,N,02749.05065,E,46.605,129.52,241015,,,A*58
128: $GPRMC,142427.00,A,5347.58259,N,02749.06745,E,46.356,129.63,241015,,,A*58
129: $GPRMC,142428.00,A,5347.57442,N,02749.08419,E,46.231,129.45,241015,,,A*54
130: $GPRMC,142429.00,A,5347.56630,N,02749.10103,E,46.385,129.21,241015,,,A*58
131: $GPRMC,142430.00,A,5347.55812,N,02749.11793,E,46.652,129.37,241015,,,A*5B
132: $GPRMC,142431.00,A,5347.54995,N,02749.13494,E,46.895,129.05,241015,,,A*57
133: $GPRMC,142432.00,A,5347.54168,N,02749.15208,E,47.072,129.13,241015,,,A*5C
134: $GPRMC,142433.00,A,5347.53340,N,02749.16941,E,47.599,128.95,241015,,,A*58
135: $GPRMC,142434.00,A,5347.52509,N,02749.18662,E,47.365,129.19,241015,,,A*55
136: $GPRMC,142435.00,A,5347.51681,N,02749.20397,E,47.386,128.99,241015,,,A*54
137: $GPRMC,142436.00,A,5347.50839,N,02749.22135,E,48.073,129.24,241015,,,A*52
138: $GPRMC,142437.00,A,5347.49997,N,02749.23874,E,48.139,128.96,241015,,,A*54
139: $GPRMC,142438.00,A,5347.49155,N,02749.25635,E,48.534,128.88,241015,,,A*56
140: $GPRMC,142439.00,A,5347.48307,N,02749.27408,E,48.693,129.39,241015,,,A*58
141: $GPRMC,142440.00,A,5347.47456,N,02749.29175,E,48.637,129.25,241015,,,A*58
142: $GPRMC,142441.00,A,5347.46599,N,02749.30940,E,48.595,129.35,241015,,,A*56
143: $GPRMC,142442.00,A,5347.45751,N,02749.32704,E,48.624,129.17,241015,,,A*55
144: $GPRMC,142443.00,A,5347.44904,N,02749.34469,E,48.552,129.00,241015,,,A*51
145: $GPRMC,142444.00,A,5347.44047,N,02749.36235,E,48.535,129.36,241015,,,A*51
146: $GPRMC,142445.00,A,5347.43191,N,02749.37999,E,48.491,129.21,241015,,,A*58
146: $GPRMC,142446.00,A,5347.42345,N,02749.39770,E,48.322,129.08,241015,,,A*52
147: $GPRMC,142447.00,A,5347.41494,N,02749.41535,E,48.373,129.24,241015,,,A*5D
148: $GPRMC,142448.00,A,5347.40638,N,02749.43291,E,48.539,129.27,241015,,,A*57
149: $GPRMC,142449.00,A,5347.39775,N,02749.45055,E,48.897,129.39,241015,,,A*5A
150: $GPRMC,142450.00,A,5347.38909,N,02749.46838,E,49.271,129.27,241015,,,A*5A
151: $GPRMC,142451.00,A,5347.38035,N,02749.48632,E,49.722,129.26,241015,,,A*55
152: $GPRMC,142452.00,A,5347.37151,N,02749.50440,E,50.089,129.48,241015,,,A*52
153: $GPRMC,142453.00,A,5347.36258,N,02749.52256,E,50.414,129.58,241015,,,A*5A
154: $GPRMC,142454.00,A,5347.35358,N,02749.54083,E,50.740,129.48,241015,,,A*50
155: $GPRMC,142455.00,A,5347.34464,N,02749.55929,E,50.920,128.95,241015,,,A*59
156: $GPRMC,142456.00,A,5347.33562,N,02749.57788,E,51.290,128.99,241015,,,A*50
157: $GPRMC,142457.00,A,5347.32659,N,02749.59657,E,51.565,129.00,241015,,,A*5A
158: $GPRMC,142458.00,A,5347.31743,N,02749.61528,E,51.863,129.37,241015,,,A*53
159: $GPRMC,142459.00,A,5347.30827,N,02749.63408,E,52.172,129.71,241015,,,A*57
160: $GPRMC,142500.00,A,5347.29903,N,02749.65293,E,52.413,129.70,241015,,,A*54
161: $GPRMC,142501.00,A,5347.28974,N,02749.67190,E,52.654,129.45,241015,,,A*51
162: $GPRMC,142502.00,A,5347.28044,N,02749.69102,E,52.934,129.24,241015,,,A*53
162: $GPRMC,142503.00,A,5347.27108,N,02749.71027,E,53.326,129.43,241015,,,A*52
163: $GPRMC,142504.00,A,5347.26162,N,02749.72961,E,53.735,129.62,241015,,,A*55
164: $GPRMC,142505.00,A,5347.25207,N,02749.74907,E,54.074,129.68,241015,,,A*5E
165: $GPRMC,142506.00,A,5347.24248,N,02749.76869,E,54.405,129.54,241015,,,A*51
166: $GPRMC,142507.00,A,5347.23275,N,02749.78841,E,54.857,129.75,241015,,,A*55
167: $GPRMC,142508.00,A,5347.22305,N,02749.80825,E,54.973,129.53,241015,,,A*5B
168: $GPRMC,142509.00,A,5347.21329,N,02749.82813,E,55.152,129.68,241015,,,A*52
169: $GPRMC,142510.00,A,5347.20348,N,02749.84807,E,55.397,129.74,241015,,,A*59
170: $GPRMC,142511.00,A,5347.19376,N,02749.86819,E,55.598,129.20,241015,,,A*5A
171: $GPRMC,142512.00,A,5347.18401,N,02749.88847,E,55.895,128.93,241015,,,A*53
172: $GPRMC,142513.00,A,5347.17413,N,02749.90879,E,56.148,129.24,241015,,,A*5D
173: $GPRMC,142514.00,A,5347.16419,N,02749.92913,E,56.320,129.51,241015,,,A*50
174: $GPRMC,142515.00,A,5347.15421,N,02749.94943,E,56.293,129.61,241015,,,A*50
175: $GPRMC,142516.00,A,5347.14431,N,02749.96963,E,55.875,129.37,241015,,,A*51
176: $GPRMC,142517.00,A,5347.13454,N,02749.98973,E,55.380,129.37,241015,,,A*5A
177: $GPRMC,142518.00,A,5347.12489,N,02750.00971,E,54.960,129.20,241015,,,A*5C
178: $GPRMC,142519.00,A,5347.11527,N,02750.02965,E,54.869,129.21,241015,,,A*55
178: $GPRMC,142520.00,A,5347.10554,N,02750.04958,E,55.118,129.26,241015,,,A*5B
179: $GPRMC,142521.00,A,5347.09589,N,02750.06968,E,55.322,129.02,241015,,,A*5E
180: $GPRMC,142522.00,A,5347.08627,N,02750.08989,E,55.519,128.87,241015,,,A*58
181: $GPRMC,142523.00,A,5347.07657,N,02750.11017,E,55.741,128.87,241015,,,A*58
182: $GPRMC,142524.00,A,5347.06678,N,02750.13038,E,55.708,129.31,241015,,,A*5D
183: $GPRMC,142525.00,A,5347.05691,N,02750.15047,E,55.665,129.55,241015,,,A*5E
184: $GPRMC,142526.00,A,5347.04706,N,02750.17045,E,55.624,129.62,241015,,,A*52
185: $GPRMC,142527.00,A,5347.03720,N,02750.19043,E,55.569,129.53,241015,,,A*50
186: $GPRMC,142528.00,A,5347.02740,N,02750.21054,E,55.656,129.28,241015,,,A*56
187: $GPRMC,142529.00,A,5347.01763,N,02750.23069,E,55.692,129.09,241015,,,A*52
188: $GPRMC,142530.00,A,5347.00792,N,02750.25076,E,55.025,128.71,241015,,,A*59
189: $GPRMC,142531.00,A,5346.99862,N,02750.27079,E,54.007,128.16,241015,,,A*54
190: $GPRMC,142532.00,A,5346.98931,N,02750.29070,E,54.119,127.81,241015,,,A*59
191: $GPRMC,142533.00,A,5346.98022,N,02750.31090,E,54.361,127.06,241015,,,A*56
192: $GPRMC,142534.00,A,5346.97106,N,02750.33113,E,54.429,127.39,241015,,,A*56
193: $GPRMC,142535.00,A,5346.96173,N,02750.35132,E,54.788,128.05,241015,,,A*59
194: $GPRMC,142536.00,A,5346.95211,N,02750.37136,E,55.232,128.98,241015,,,A*59
195: $GPRMC,142537.00,A,5346.94242,N,02750.39154,E,55.508,128.94,241015,,,A*57
196: $GPRMC,142538.00,A,5346.93270,N,02750.41182,E,55.790,128.95,241015,,,A*58
197: $GPRMC,142539.00,A,5346.92287,N,02750.43218,E,56.122,129.08,241015,,,A*5B
197: $GPRMC,142540.00,A,5346.91296,N,02750.45266,E,56.525,129.22,241015,,,A*52
198: $GPRMC,142541.00,A,5346.90299,N,02750.47327,E,56.962,129.25,241015,,,A*53
199: $GPRMC,142542.00,A,5346.89292,N,02750.49393,E,57.237,129.42,241015,,,A*59
200: $GPRMC,142543.00,A,5346.88283,N,02750.51468,E,57.383,129.30,241015,,,A*58
201: $GPRMC,142544.00,A,5346.87264,N,02750.53550,E,57.719,129.59,241015,,,A*59
202: $GPRMC,142545.00,A,5346.86244,N,02750.55638,E,57.776,129.44,241015,,,A*55
203: $GPRMC,142546.00,A,5346.85223,N,02750.57730,E,57.872,129.52,241015,,,A*53
204: $GPRMC,142547.00,A,5346.84204,N,02750.59830,E,57.931,129.26,241015,,,A*52
205: $GPRMC,142548.00,A,5346.83195,N,02750.61944,E,57.961,128.79,241015,,,A*56
206: $GPRMC,142549.00,A,5346.82184,N,02750.64058,E,57.965,128.81,241015,,,A*54
207: $GPRMC,142550.00,A,5346.81176,N,02750.66173,E,57.899,128.91,241015,,,A*5B
208: $GPRMC,142551.00,A,5346.80164,N,02750.68280,E,57.879,129.10,241015,,,A*5F
209: $GPRMC,142552.00,A,5346.79153,N,02750.70381,E,57.813,129.20,241015,,,A*58
210: $GPRMC,142553.00,A,5346.78134,N,02750.72477,E,57.894,129.54,241015,,,A*59
211: $GPRMC,142554.00,A,5346.77100,N,02750.74553,E,57.954,130.35,241015,,,A*55
212: $GPRMC,142555.00,A,5346.76043,N,02750.76608,E,58.119,131.20,241015,,,A*57
213: $GPRMC,142556.00,A,5346.74973,N,02750.78655,E,58.392,131.66,241015,,,A*59
214: $GPRMC,142557.00,A,5346.73904,N,02750.80725,E,58.800,130.97,241015,,,A*51
214: $GPRMC,142558.00,A,5346.72850,N,02750.82833,E,59.009,129.94,241015,,,A*5E
215: $GPRMC,142559.00,A,5346.71803,N,02750.84975,E,59.407,129.24,241015,,,A*5E
216: $GPRMC,142600.00,A,5346.70757,N,02750.87140,E,59.697,129.13,241015,,,A*5C
217: $GPRMC,142601.00,A,5346.69700,N,02750.89312,E,60.080,129.38,241015,,,A*5F
218: $GPRMC,142602.00,A,5346.68634,N,02750.91490,E,60.314,129.51,241015,,,A*5E
219: $GPRMC,142603.00,A,5346.67568,N,02750.93678,E,60.540,129.51,241015,,,A*5B
220: $GPRMC,142604.00,A,5346.66490,N,02750.95871,E,60.779,129.54,241015,,,A*57
221: $GPRMC,142605.00,A,5346.65417,N,02750.98078,E,60.963,129.09,241015,,,A*5B
222: $GPRMC,142606.00,A,5346.64339,N,02751.00301,E,61.347,129.06,241015,,,A*5D
223: $GPRMC,142607.00,A,5346.63259,N,02751.02534,E,61.522,129.21,241015,,,A*5E
224: $GPRMC,142608.00,A,5346.62177,N,02751.04774,E,61.662,129.19,241015,,,A*53
225: $GPRMC,142609.00,A,5346.61088,N,02751.07016,E,61.877,129.40,241015,,,A*56
226: $GPRMC,142610.00,A,5346.59990,N,02751.09250,E,61.829,129.53,241015,,,A*52
227: $GPRMC,142611.00,A,5346.58887,N,02751.11475,E,61.858,129.80,241015,,,A*55
228: $GPRMC,142612.00,A,5346.57781,N,02751.13692,E,61.763,129.95,241015,,,A*5A
229: $GPRMC,142613.00,A,5346.56673,N,02751.15906,E,61.837,130.10,241015,,,A*59
230: $GPRMC,142614.00,A,5346.55559,N,02751.18106,E,61.708,130.53,241015,,,A*57
231: $GPRMC,142615.00,A,5346.54424,N,02751.20269,E,61.674,131.89,241015,,,A*51
231: $GPRMC,142616.00,A,5346.53268,N,02751.22393,E,61.675,133.03,241015,,,A*5C
232: $GPRMC,142617.00,A,5346.52094,N,02751.24490,E,61.746,133.73,241015,,,A*59
233: $GPRMC,142618.00,A,5346.50912,N,02751.26573,E,61.805,134.23,241015,,,A*57
234: $GPRMC,142619.00,A,5346.49716,N,02751.28645,E,61.892,134.42,241015,,,A*55
235: $GPRMC,142620.00,A,5346.48506,N,02751.30704,E,61.954,134.92,241015,,,A*56
236: $GPRMC,142621.00,A,5346.47290,N,02751.32741,E,61.780,135.55,241015,,,A*5E
237: $GPRMC,142622.00,A,5346.46070,N,02751.34750,E,61.490,136.06,241015,,,A*51
238: $GPRMC,142623.00,A,5346.44845,N,02751.36731,E,61.087,136.48,241015,,,A*51
239: $GPRMC,142624.00,A,5346.43613,N,02751.38677,E,60.769,137.15,241015,,,A*5E
240: $GPRMC,142625.00,A,5346.42373,N,02751.40589,E,60.413,137.80,241015,,,A*52
241: $GPRMC,142626.00,A,5346.41128,N,02751.42470,E,60.090,138.31,241015,,,A*51
242: $GPRMC,142627.00,A,5346.39878,N,02751.44315,E,59.715,139.08,241015,,,A*5A
243: $GPRMC,142628.00,A,5346.38620,N,02751.46126,E,59.443,139.80,241015,,,A*57
244: $GPRMC,142629.00,A,5346.37356,N,02751.47899,E,59.082,140.63,241015,,,A*5B
245: $GPRMC,142630.00,A,5346.36079,N,02751.49624,E,58.928,141.95,241015,,,A*5A
245: $GPRMC,142631.00,A,5346.34791,N,02751.51316,E,58.764,142.48,241015,,,A*50
246: $GPRMC,142632.00,A,5346.33493,N,02751.52984,E,58.688,142.90,241015,,,A*51
247: $GPRMC,142633.00,A,5346.32192,N,02751.54642,E,58.740,143.09,241015,,,A*52
248: $GPRMC,142634.00,A,5346.30882,N,02751.56285,E,58.779,143.58,241015,,,A*5C
249: $GPRMC,142635.00,A,5346.29577,N,02751.57933,E,58.768,143.28,241015,,,A*52
250: $GPRMC,142636.00,A,5346.28261,N,02751.59567,E,58.954,143.87,241015,,,A*57
251: $GPRMC,142637.00,A,5346.26924,N,02751.61167,E,59.067,144.73,241015,,,A*59
252: $GPRMC,142638.00,A,5346.25571,N,02751.62747,E,59.295,145.49,241015,,,A*59
253: $GPRMC,142639.00,A,5346.24198,N,02751.64302,E,59.564,146.19,241015,,,A*56
254: $GPRMC,142640.00,A,5346.22815,N,02751.65850,E,59.826,146.45,241015,,,A*5D
255: $GPRMC,142641.00,A,5346.21422,N,02751.67400,E,60.126,146.48,241015,,,A*52
256: $GPRMC,142642.00,A,5346.20024,N,02751.68960,E,60.461,146.42,241015,,,A*5A
257: $GPRMC,142643.00,A,5346.18614,N,02751.70524,E,60.709,146.64,241015,,,A*59
258: $GPRMC,142644.00,A,5346.17196,N,02751.72078,E,60.880,147.00,241015,,,A*5F
259: $GPRMC,142645.00,A,5346.15777,N,02751.73631,E,60.918,146.97,241015,,,A*50
260: $GPRMC,142646.00,A,5346.14355,N,02751.75188,E,60.979,146.95,241015,,,A*50
260: $GPRMC,142647.00,A,5346.12938,N,02751.76748,E,60.888,146.69,241015,,,A*53
261: $GPRMC,142648.00,A,5346.11526,N,02751.78313,E,60.763,146.55,241015,,,A*5D
262: $GPRMC,142649.00,A,5346.10121,N,02751.79869,E,60.428,146.70,241015,,,A*52
263: $GPRMC,142650.00,A,5346.08722,N,02751.81410,E,59.988,146.76,241015,,,A*58
264: $GPRMC,142651.00,A,5346.07334,N,02751.82935,E,59.493,146.87,241015,,,A*55
265: $GPRMC,142652.00,A,5346.05960,N,02751.84445,E,58.780,146.80,241015,,,A*54
266: $GPRMC,142653.00,A,5346.04603,N,02751.85939,E,58.119,146.85,241015,,,A*5A
267: $GPRMC,142654.00,A,5346.03262,N,02751.87416,E,57.377,146.88,241015,,,A*53
268: $GPRMC,142655.00,A,5346.01943,N,02751.88880,E,56.637,146.60,241015,,,A*52
269: $GPRMC,142656.00,A,5346.00642,N,02751.90337,E,56.041,146.30,241015,,,A*52
270: $GPRMC,142657.00,A,5345.99356,N,02751.91807,E,55.877,145.64,241015,,,A*55
271: $GPRMC,142658.00,A,5345.98102,N,02751.93333,E,55.724,143.77,241015,,,A*5B
272: $GPRMC,142659.00,A,5345.96884,N,02751.94926,E,55.680,142.03,241015,,,A*57
273: $GPRMC,142700.00,A,5345.95690,N,02751.96567,E,55.546,140.82,241015,,,A*5B
274: $GPRMC,142701.00,A,5345.94515,N,02751.98248,E,55.380,139.30,241015,,,A*5A
275: $GPRMC,142702.00,A,5345.93372,N,02751.99972,E,55.141,137.69,241015,,,A*57
276: $GPRMC,142703.00,A,5345.92265,N,02752.01741,E,54.884,136.00,241015,,,A*53
277: $GPRMC,142704.00,A,5345.91195,N,02752.03556,E,54.609,134.36,241015,,,A*51
278: $GPRMC,142705.00,A,5345.90161,N,02752.05410,E,54.354,132.87,241015,,,A*5E
278: $GPRMC,142706.00,A,5345.89155,N,02752.07290,E,54.115,131.80,241015,,,A*5D
279: $GPRMC,142707.00,A,5345.88186,N,02752.09206,E,53.826,130.26,241015,,,A*51
280: $GPRMC,142708.00,A,5345.87253,N,02752.11163,E,53.725,128.17,241015,,,A*54
281: $GPRMC,142709.00,A,5345.86360,N,02752.13165,E,53.565,126.33,241015,,,A*5F
282: $GPRMC,142710.00,A,5345.85498,N,02752.15199,E,53.601,125.11,241015,,,A*53
283: $GPRMC,142711.00,A,5345.84659,N,02752.17257,E,53.460,123.96,241015,,,A*53
284: $GPRMC,142712.00,A,5345.83843,N,02752.19335,E,53.251,122.85,241015,,,A*5E
285: $GPRMC,142713.00,A,5345.83072,N,02752.21443,E,52.976,121.15,241015,,,A*5D
286: $GPRMC,142714.00,A,5345.82347,N,02752.23586,E,52.807,119.34,241015,,,A*5B
287: $GPRMC,142715.00,A,5345.81657,N,02752.25769,E,52.844,117.66,241015,,,A*56
288: $GPRMC,142716.00,A,5345.81002,N,02752.27999,E,53.106,116.21,241015,,,A*5C
289: $GPRMC,142717.00,A,5345.80379,N,02752.30276,E,53.558,114.85,241015,,,A*5C
290: $GPRMC,142718.00,A,5345.79791,N,02752.32580,E,53.737,113.14,241015,,,A*5F
291: $GPRMC,142719.00,A,5345.79233,N,02752.34923,E,54.073,111.69,241015,,,A*58
292: $GPRMC,142720.00,A,5345.78709,N,02752.37295,E,54.296,110.08,241015,,,A*55
293: $GPRMC,142721.00,A,5345.78221,N,02752.39703,E,54.387,108.44,241015,,,A*5F
294: $GPRMC,142722.00,A,5345.77761,N,02752.42148,E,54.711,107.35,241015,,,A*55
295: $GPRMC,142723.00,A,5345.77319,N,02752.44603,E,54.976,106.70,241015,,,A*5E
296: $GPRMC,142724.00,A,5345.76899,N,02752.47090,E,55.097,105.78,241015,,,A*58
297: $GPRMC,142725.00,A,5345.76483,N,02752.49594,E,55.259,105.46,241015,,,A*5C
298: $GPRMC,142726.00,A,5345.76079,N,02752.52101,E,55.305,105.26,241015,,,A*52
299: $GPRMC,142727.00,A,5345.75674,N,02752.54601,E,55.264,105.11,241015,,,A*58
299: $GPRMC,142728.00,A,5345.75277,N,02752.57117,E,55.357,105.07,241015,,,A*55
300: $GPRMC,142729.00,A,5345.74874,N,02752.59642,E,55.666,105.44,241015,,,A*55
301: $GPRMC,142730.00,A,5345.74460,N,02752.62175,E,55.950,105.52,241015,,,A*52
302: $GPRMC,142731.00,A,5345.74050,N,02752.64711,E,56.036,105.13,241015,,,A*59
303: $GPRMC,142732.00,A,5345.73643,N,02752.67253,E,56.109,104.95,241015,,,A*5B
304: $GPRMC,142733.00,A,5345.73238,N,02752.69791,E,56.033,105.10,241015,,,A*53
305: $GPRMC,142734.00,A,5345.72831,N,02752.72315,E,55.712,105.29,241015,,,A*59
306: $GPRMC,142735.00,A,5345.72425,N,02752.74824,E,55.377,105.32,241015,,,A*53
307: $GPRMC,142736.00,A,5345.72026,N,02752.77319,E,54.926,105.10,241015,,,A*5E
308: $GPRMC,142737.00,A,5345.71649,N,02752.79805,E,54.625,104.18,241015,,,A*5E
309: $GPRMC,142738.00,A,5345.71297,N,02752.82303,E,54.638,103.22,241015,,,A*5D
310: $GPRMC,142739.00,A,5345.70965,N,02752.84808,E,54.752,102.35,241015,,,A*57
311: $GPRMC,142740.00,A,5345.70656,N,02752.87323,E,54.822,101.38,241015,,,A*51
312: $GPRMC,142741.00,A,5345.70374,N,02752.89852,E,54.956,100.24,241015,,,A*58
313: $GPRMC,142742.00,A,5345.70102,N,02752.92394,E,55.132,100.01,241015,,,A*5F
314: $GPRMC,142743.00,A,5345.69829,N,02752.94962,E,55.252,99.64,241015,,,A*64
314: $GPRMC,142744.00,A,5345.69571,N,02752.97539,E,55.308,99.02,241015,,,A*6C
315: $GPRMC,142745.00,A,5345.69340,N,02753.00125,E,55.296,97.83,241015,,,A*6E
316: $GPRMC,142746.00,A,5345.69140,N,02753.02714,E,55.173,96.54,241015,,,A*6A
317: $GPRMC,142747.00,A,5345.68970,N,02753.05306,E,55.396,95.69,241015,,,A*65
318: $GPRMC,142748.00,A,5345.68832,N,02753.07893,E,55.518,94.80,241015,,,A*6E
319: $GPRMC,142749.00,A,5345.68722,N,02753.10483,E,55.546,93.87,241015,,,A*61
320: $GPRMC,142750.00,A,5345.68641,N,02753.13075,E,55.560,92.87,241015,,,A*66
321: $GPRMC,142751.00,A,5345.68581,N,02753.15660,E,55.485,92.26,241015,,,A*6D
322: $GPRMC,142752.00,A,5345.68540,N,02753.18253,E,55.562,91.22,241015,,,A*65
323: $GPRMC,142753.00,A,5345.68522,N,02753.20846,E,55.577,90.31,241015,,,A*62
324: $GPRMC,142754.00,A,5345.68511,N,02753.23441,E,55.564,90.19,241015,,,A*65
325: $GPRMC,142755.00,A,5345.68505,N,02753.26033,E,55.450,90.08,241015,,,A*63
326: $GPRMC,142756.00,A,5345.68502,N,02753.28635,E,55.563,89.71,241015,,,A*6E
327: $GPRMC,142757.00,A,5345.68510,N,02753.31225,E,55.494,89.38,241015,,,A*65
328: $GPRMC,142758.00,A,5345.68522,N,02753.33804,E,55.336,89.37,241015,,,A*60
329: $GPRMC,142759.00,A,5345.68534,N,02753.36377,E,55.176,89.52,241015,,,A*69
329: $GPRMC,142800.00,A,5345.68547,N,02753.38955,E,55.222,89.51,241015,,,A*6B
330: $GPRMC,142801.00,A,5345.68559,N,02753.41535,E,55.362,89.45,241015,,,A*61
331: $GPRMC,142802.00,A,5345.68566,N,02753.44129,E,55.521,89.56,241015,,,A*61
332: $GPRMC,142803.00,A,5345.68574,N,02753.46729,E,55.560,89.51,241015,,,A*65
333: $GPRMC,142804.00,A,5345.68583,N,02753.49325,E,55.539,89.51,241015,,,A*61
334: $GPRMC,142805.00,A,5345.68591,N,02753.51912,E,55.344,89.62,241015,,,A*68
335: $GPRMC,142806.00,A,5345.68597,N,02753.54486,E,55.032,89.74,241015,,,A*6D
336: $GPRMC,142807.00,A,5345.68609,N,02753.57048,E,54.712,89.39,241015,,,A*60
337: $GPRMC,142808.00,A,5345.68627,N,02753.59604,E,54.619,89.18,241015,,,A*6A
338: $GPRMC,142809.00,A,5345.68648,N,02753.62160,E,54.696,89.08,241015,,,A*69
339: $GPRMC,142810.00,A,5345.68667,N,02753.64718,E,54.720,89.27,241015,,,A*62
340: $GPRMC,142811.00,A,5345.68676,N,02753.67280,E,54.757,89.70,241015,,,A*66
341: $GPRMC,142812.00,A,5345.68675,N,02753.69844,E,54.763,90.06,241015,,,A*64
342: $GPRMC,142813.00,A,5345.68670,N,02753.72404,E,54.699,90.03,241015,,,A*63
342: $GPRMC,142814.00,A,5345.68669,N,02753.74963,E,54.682,89.95,241015,,,A*6B
343: $GPRMC,142815.00,A,5345.68675,N,02753.77522,E,54.654,89.54,241015,,,A*6B
344: $GPRMC,142816.00,A,5345.68692,N,02753.80080,E,54.680,89.19,241015,,,A*64
345: $GPRMC,142817.00,A,5345.68712,N,02753.82643,E,54.811,89.22,241015,,,A*69
346: $GPRMC,142818.00,A,5345.68724,N,02753.85209,E,54.929,89.56,241015,,,A*67
347: $GPRMC,142819.00,A,5345.68729,N,02753.87783,E,55.114,89.84,241015,,,A*66
348: $GPRMC,142820.00,A,5345.68735,N,02753.90362,E,55.139,89.73,241015,,,A*6B
349: $GPRMC,142821.00,A,5345.68741,N,02753.92939,E,55.084,89.72,241015,,,A*69
350: $GPRMC,142822.00,A,5345.68749,N,02753.95514,E,55.070,89.62,241015,,,A*6C
351: $GPRMC,142823.00,A,5345.68763,N,02753.98086,E,55.003,89.34,241015,,,A*61
352: $GPRMC,142824.00,A,5345.68781,N,02754.00657,E,54.960,89.19,241015,,,A*64
353: $GPRMC,142825.00,A,5345.68801,N,02754.03225,E,54.815,89.22,241015,,,A*6B
354: $GPRMC,142826.00,A,5345.68819,N,02754.05785,E,54.676,89.34,241015,,,A*64
355: $GPRMC,142827.00,A,5345.68833,N,02754.08338,E,54.632,89.42,241015,,,A*63
356: $GPRMC,142828.00,A,5345.68847,N,02754.10890,E,54.533,89.45,241015,,,A*6A
357: $GPRMC,142829.00,A,5345.68854,N,02754.13438,E,54.485,89.84,241015,,,A*65
358: $GPRMC,142830.00,A,5345.68859,N,02754.15994,E,54.647,89.72,241015,,,A*68
358: $GPRMC,142831.00,A,5345.68863,N,02754.18554,E,54.739,89.79,241015,,,A*6E
359: $GPRMC,142832.00,A,5345.68870,N,02754.21114,E,54.736,89.60,241015,,,A*62
360: $GPRMC,142833.00,A,5345.68882,N,02754.23664,E,54.400,89.46,241015,,,A*6E
361: $GPRMC,142834.00,A,5345.68897,N,02754.26192,E,53.840,89.41,241015,,,A*6E
362: $GPRMC,142835.00,A,5345.68912,N,02754.28691,E,53.222,89.49,241015,,,A*6F
363: $GPRMC,142836.00,A,5345.68926,N,02754.31161,E,52.587,89.41,241015,,,A*6A
364: $GPRMC,142837.00,A,5345.68943,N,02754.33607,E,52.133,89.33,241015,,,A*63
365: $GPRMC,142838.00,A,5345.68958,N,02754.36032,E,51.649,89.46,241015,,,A*68
366: $GPRMC,142839.00,A,5345.68970,N,02754.38433,E,51.211,89.56,241015,,,A*60
367: $GPRMC,142840.00,A,5345.68975,N,02754.40820,E,50.970,89.81,241015,,,A*6D
368: $GPRMC,142841.00,A,5345.68982,N,02754.43200,E,50.786,89.65,241015,,,A*62
369: $GPRMC,142842.00,A,5345.68992,N,02754.45563,E,50.322,89.64,241015,,,A*6F
370: $GPRMC,142843.00,A,5345.69005,N,02754.47904,E,49.846,89.41,241015,,,A*61
371: $GPRMC,142844.00,A,5345.69017,N,02754.50206,E,48.929,89.48,241015,,,A*6A
372: $GPRMC,142845.00,A,5345.69034,N,02754.52463,E,47.901,89.24,241015,,,A*62
373: $GPRMC,142846.00,A,5345.69050,N,02754.54685,E,47.258,89.30,241015,,,A*6D
374: $GPRMC,142847.00,A,5345.69064,N,02754.56905,E,47.466,89.49,241015,,,A*6B
375: $GPRMC,142848.00,A,5345.69072,N,02754.59134,E,47.743,89.71,241015,,,A*69
376: $GPRMC,142849.00,A,5345.69078,N,02754.61377,E,48.063,89.75,241015,,,A*62
376: $GPRMC,142850.00,A,5345.69087,N,02754.63628,E,48.176,89.55,241015,,,A*60
377: $GPRMC,142851.00,A,5345.69102,N,02754.65890,E,48.385,89.23,241015,,,A*69
378: $GPRMC,142852.00,A,5345.69112,N,02754.68158,E,48.535,89.67,241015,,,A*66
379: $GPRMC,142853.00,A,5345.69118,N,02754.70440,E,48.917,89.73,241015,,,A*61
380: $GPRMC,142854.00,A,5345.69125,N,02754.72740,E,49.224,89.59,241015,,,A*6B
381: $GPRMC,142855.00,A,5345.69133,N,02754.75052,E,49.472,89.63,241015,,,A*62
382: $GPRMC,142856.00,A,5345.69140,N,02754.77376,E,49.753,89.63,241015,,,A*62
383: $GPRMC,142857.00,A,5345.69147,N,02754.79710,E,49.974,89.66,241015,,,A*60
384: $GPRMC,142858.00,A,5345.69156,N,02754.82052,E,50.146,89.61,241015,,,A*6C
385: $GPRMC,142859.00,A,5345.69164,N,02754.84406,E,50.348,89.65,241015,,,A*67
386: $GPRMC,142900.00,A,5345.69170,N,02754.86765,E,50.465,89.70,241015,,,A*67
387: $GPRMC,142901.00,A,5345.69176,N,02754.89120,E,50.261,89.75,241015,,,A*6F
388: $GPRMC,142902.00,A,5345.69184,N,02754.91462,E,49.991,89.55,241015,,,A*65
389: $GPRMC,142903.00,A,5345.69198,N,02754.93793,E,49.729,89.32,241015,,,A*6A
389: $GPRMC,142904.00,A,5345.69214,N,02754.96118,E,49.659,89.32,241015,,,A*6C
390: $GPRMC,142905.00,A,5345.69231,N,02754.98440,E,49.630,89.22,241015,,,A*62
391: $GPRMC,142906.00,A,5345.69249,N,02755.00765,E,49.753,89.24,241015,,,A*68
392: $GPRMC,142907.00,A,5345.69265,N,02755.03101,E,49.966,89.29,241015,,,A*65
393: $GPRMC,142908.00,A,5345.69278,N,02755.05452,E,50.323,89.43,241015,,,A*6C
394: $GPRMC,142909.00,A,5345.69289,N,02755.07822,E,50.739,89.53,241015,,,A*64
395: $GPRMC,142910.00,A,5345.69302,N,02755.10209,E,51.139,89.33,241015,,,A*6A
396: $GPRMC,142911.00,A,5345.69315,N,02755.12616,E,51.491,89.42,241015,,,A*64
397: $GPRMC,142912.00,A,5345.69325,N,02755.15039,E,51.865,89.61,241015,,,A*6E
398: $GPRMC,142913.00,A,5345.69324,N,02755.17486,E,52.448,90.15,241015,,,A*67
399: $GPRMC,142914.00,A,5345.69316,N,02755.19959,E,52.999,90.31,241015,,,A*67
400: $GPRMC,142915.00,A,5345.69313,N,02755.22459,E,53.541,89.87,241015,,,A*6B
401: $GPRMC,142916.00,A,5345.69326,N,02755.24980,E,53.988,89.28,241015,,,A*6D
402: $GPRMC,142917.00,A,5345.69349,N,02755.27522,E,54.540,89.09,241015,,,A*6E
403: $GPRMC,142918.00,A,5345.69372,N,02755.30092,E,55.133,89.10,241015,,,A*68
404: $GPRMC,142919.00,A,5345.69394,N,02755.32688,E,55.691,89.11,241015,,,A*60
404: $GPRMC,142920.00,A,5345.69413,N,02755.35309,E,56.215,89.33,241015,,,A*62
405: $GPRMC,142921.00,A,5345.69427,N,02755.37955,E,56.722,89.54,241015,,,A*65
406: $GPRMC,142922.00,A,5345.69439,N,02755.40624,E,57.185,89.54,241015,,,A*6A
407: $GPRMC,142923.00,A,5345.69452,N,02755.43309,E,57.556,89.46,241015,,,A*66
408: $GPRMC,142924.00,A,5345.69465,N,02755.46010,E,57.778,89.52,241015,,,A*60
409: $GPRMC,142925.00,A,5345.69479,N,02755.48720,E,57.974,89.48,241015,,,A*6F
410: $GPRMC,142926.00,A,5345.69494,N,02755.51436,E,58.088,89.51,241015,,,A*6E
411: $GPRMC,142927.00,A,5345.69509,N,02755.54156,E,58.173,89.47,241015,,,A*6E
412: $GPRMC,142928.00,A,5345.69526,N,02755.56875,E,58.103,89.37,241015,,,A*66
413: $GPRMC,142929.00,A,5345.69544,N,02755.59590,E,58.014,89.32,241015,,,A*68
414: $GPRMC,142930.00,A,5345.69565,N,02755.62297,E,57.847,89.25,241015,,,A*6C
415: $GPRMC,142931.00,A,5345.69588,N,02755.64995,E,57.661,89.20,241015,,,A*6E
416: $GPRMC,142932.00,A,5345.69612,N,02755.67682,E,57.347,89.21,241015,,,A*67
417: $GPRMC,142933.00,A,5345.69626,N,02755.70350,E,56.935,89.63,241015,,,A*65
418: $GPRMC,142934.00,A,5345.69640,N,02755.73000,E,56.506,89.46,241015,,,A*6C
419: $GPRMC,142935.00,A,5345.69660,N,02755.75634,E,56.209,89.23,241015,,,A*63
420: $GPRMC,142936.00,A,5345.69682,N,02755.78241,E,55.574,89.23,241015,,,A*69
420: $GPRMC,142937.00,A,5345.69699,N,02755.80802,E,54.365,89.49,241015,,,A*63
421: $GPRMC,142938.00,A,5345.69709,N,02755.83308,E,53.211,89.70,241015,,,A*69
422: $GPRMC,142939.00,A,5345.69714,N,02755.85761,E,52.130,89.87,241015,,,A*60
423: $GPRMC,142940.00,A,5345.69719,N,02755.88165,E,51.124,89.79,241015,,,A*6B
424: $GPRMC,142941.00,A,5345.69728,N,02755.90521,E,50.058,89.65,241015,,,A*63
425: $GPRMC,142942.00,A,5345.69743,N,02755.92834,E,49.193,89.41,241015,,,A*6E
426: $GPRMC,142943.00,A,5345.69760,N,02755.95127,E,48.955,89.23,241015,,,A*65
427: $GPRMC,142944.00,A,5345.69779,N,02755.97416,E,48.931,89.20,241015,,,A*6E
428: $GPRMC,142945.00,A,5345.69800,N,02755.99707,E,49.047,89.03,241015,,,A*6B
429: $GPRMC,142946.00,A,5345.69823,N,02756.02005,E,49.176,88.98,241015,,,A*6D
430: $GPRMC,142947.00,A,5345.69844,N,02756.04295,E,49.003,89.16,241015,,,A*64
431: $GPRMC,142948.00,A,5345.69864,N,02756.06576,E,48.745,89.11,241015,,,A*62
432: $GPRMC,142949.00,A,5345.69891,N,02756.08851,E,48.649,88.69,241015,,,A*6C
433: $GPRMC,142950.00,A,5345.69938,N,02756.11126,E,48.722,87.68,241015,,,A*65
434: $GPRMC,142951.00,A,5345.69987,N,02756.13408,E,48.830,88.01,241015,,,A*67
435: $GPRMC,142952.00,A,5345.70010,N,02756.15697,E,49.019,89.46,241015,,,A*69
436: $GPRMC,142953.00,A,5345.69994,N,02756.17997,E,49.360,91.20,241015,,,A*6C
437: $GPRMC,142954.00,A,5345.69946,N,02756.20312,E,49.725,92.38,241015,,,A*68
438: $GPRMC,142955.00,A,5345.69872,N,02756.22642,E,50.006,93.45,241015,,,A*68
439: $GPRMC,142956.00,A,5345.69781,N,02756.24985,E,50.388,93.80,241015,,,A*66
440: $GPRMC,142957.00,A,5345.69672,N,02756.27338,E,50.677,94.51,241015,,,A*6B
440: $GPRMC,142958.00,A,5345.69551,N,02756.29705,E,50.959,95.05,241015,,,A*61
441: $GPRMC,142959.00,A,5345.69410,N,02756.32090,E,51.241,95.77,241015,,,A*63
442: $GPRMC,143000.00,A,5345.69248,N,02756.34496,E,51.588,96.61,241015,,,A*6E
443: $GPRMC,143001.00,A,5345.69062,N,02756.36916,E,51.891,97.45,241015,,,A*60
444: $GPRMC,143002.00,A,5345.68851,N,02756.39344,E,52.148,98.41,241015,,,A*6D
445: $GPRMC,143003.00,A,5345.68613,N,02756.41785,E,52.556,99.50,241015,,,A*68
446: $GPRMC,143004.00,A,5345.68348,N,02756.44230,E,53.007,100.53,241015,,,A*58
447: $GPRMC,143005.00,A,5345.68065,N,02756.46682,E,53.532,101.22,241015,,,A*5E
448: $GPRMC,143006.00,A,5345.67760,N,02756.49147,E,53.897,102.01,241015,,,A*51
449: $GPRMC,143007.00,A,5345.67421,N,02756.51619,E,54.206,103.44,241015,,,A*56
450: $GPRMC,143008.00,A,5345.67045,N,02756.54096,E,54.622,104.72,241015,,,A*5B
451: $GPRMC,143009.00,A,5345.66658,N,02756.56587,E,54.998,104.79,241015,,,A*53
452: $GPRMC,143010.00,A,5345.66276,N,02756.59094,E,55.300,104.51,241015,,,A*5B
453: $GPRMC,143011.00,A,5345.65897,N,02756.61623,E,55.829,104.33,241015,,,A*59
454: $GPRMC,143012.00,A,5345.65518,N,02756.64177,E,56.350,104.16,241015,,,A*52
455: $GPRMC,143013.00,A,5345.65139,N,02756.66752,E,56.755,104.10,241015,,,A*50
456: $GPRMC,143014.00,A,5345.64758,N,02756.69344,E,57.084,104.01,241015,,,A*51
457: $GPRMC,143015.00,A,5345.64380,N,02756.71959,E,57.488,103.79,241015,,,A*5E
457: $GPRMC,143016.00,A,5345.64000,N,02756.74587,E,57.710,103.82,241015,,,A*5A
458: $GPRMC,143017.00,A,5345.63612,N,02756.77220,E,57.845,104.10,241015,,,A*53
459: $GPRMC,143018.00,A,5345.63222,N,02756.79854,E,57.932,104.16,241015,,,A*5B
460: $GPRMC,143019.00,A,5345.62833,N,02756.82492,E,57.993,104.09,241015,,,A*56
461: $GPRMC,143020.00,A,5345.62444,N,02756.85135,E,58.125,104.09,241015,,,A*55
462: $GPRMC,143021.00,A,5345.62058,N,02756.87783,E,58.190,103.81,241015,,,A*5D
463: $GPRMC,143022.00,A,5345.61675,N,02756.90438,E,58.293,103.71,241015,,,A*5E
464: $GPRMC,143023.00,A,5345.61291,N,02756.93090,E,58.411,103.94,241015,,,A*53
465: $GPRMC,143024.00,A,5345.60906,N,02756.95743,E,58.377,103.84,241015,,,A*59
466: $GPRMC,143025.00,A,5345.60519,N,02756.98398,E,58.462,103.95,241015,,,A*56
467: $GPRMC,143026.00,A,5345.60130,N,02757.01060,E,58.567,103.96,241015,,,A*58
468: $GPRMC,143027.00,A,5345.59736,N,02757.03721,E,58.588,104.13,241015,,,A*58
469: $GPRMC,143028.00,A,5345.59341,N,02757.06383,E,58.630,104.09,241015,,,A*51
470: $GPRMC,143029.00,A,5345.58952,N,02757.09043,E,58.445,103.85,241015,,,A*5A
471: $GPRMC,143030.00,A,5345.58571,N,02757.11693,E,58.169,103.59,241015,,,A*57
472: $GPRMC,143031.00,A,5345.58192,N,02757.14315,E,57.485,103.72,241015,,,A*50
472: $GPRMC,143032.00,A,5345.57817,N,02757.16893,E,56.309,103.86,241015,,,A*56
473: $GPRMC,143033.00,A,5345.57443,N,02757.19418,E,55.242,104.18,241015,,,A*57
474: $GPRMC,143034.00,A,5345.57069,N,02757.21887,E,54.057,104.45,241015,,,A*52
475: $GPRMC,143035.00,A,5345.56698,N,02757.24305,E,53.011,104.53,241015,,,A*5C
476: $GPRMC,143036.00,A,5345.56333,N,02757.26691,E,52.335,104.48,241015,,,A*5F
477: $GPRMC,143037.00,A,5345.55979,N,02757.29037,E,51.316,104.20,241015,,,A*50
478: $GPRMC,143038.00,A,5345.55633,N,02757.31341,E,50.430,104.20,241015,,,A*57
479: $GPRMC,143039.00,A,5345.55288,N,02757.33630,E,50.193,104.17,241015,,,A*5B
480: $GPRMC,143040.00,A,5345.54948,N,02757.35915,E,50.161,104.03,241015,,,A*55
481: $GPRMC,143041.00,A,5345.54612,N,02757.38193,E,50.066,103.99,241015,,,A*5D
482: $GPRMC,143042.00,A,5345.54276,N,02757.40466,E,49.905,104.00,241015,,,A*5B
483: $GPRMC,143043.00,A,5345.53943,N,02757.42731,E,49.861,104.05,241015,,,A*55
484: $GPRMC,143044.00,A,5345.53603,N,02757.44994,E,49.865,104.30,241015,,,A*5C
485: $GPRMC,143045.00,A,5345.53259,N,02757.47255,E,49.785,104.43,241015,,,A*56
485: $GPRMC,143046.00,A,5345.52921,N,02757.49513,E,49.814,104.18,241015,,,A*52
486: $GPRMC,143047.00,A,5345.52591,N,02757.51766,E,49.588,103.96,241015,,,A*54
487: $GPRMC,143048.00,A,5345.52265,N,02757.54022,E,49.667,103.74,241015,,,A*5B
488: $GPRMC,143049.00,A,5345.51946,N,02757.56283,E,49.741,103.37,241015,,,A*5A
489: $GPRMC,143050.00,A,5345.51629,N,02757.58551,E,49.815,103.23,241015,,,A*59
490: $GPRMC,143051.00,A,5345.51322,N,02757.60827,E,49.909,102.76,241015,,,A*5C
491: $GPRMC,143052.00,A,5345.51033,N,02757.63125,E,50.308,101.75,241015,,,A*57
492: $GPRMC,143053.00,A,5345.50771,N,02757.65445,E,50.817,100.84,241015,,,A*59
493: $GPRMC,143054.00,A,5345.50523,N,02757.67803,E,51.388,99.97,241015,,,A*68
494: $GPRMC,143055.00,A,5345.50295,N,02757.70208,E,52.007,98.74,241015,,,A*6F
495: $GPRMC,143056.00,A,5345.50086,N,02757.72657,E,52.537,97.68,241015,,,A*64
496: $GPRMC,143057.00,A,5345.49889,N,02757.75134,E,53.138,97.27,241015,,,A*6E
497: $GPRMC,143058.00,A,5345.49700,N,02757.77633,E,53.567,96.98,241015,,,A*66
497: $GPRMC,143059.00,A,5345.49533,N,02757.80140,E,53.738,96.28,241015,,,A*6D
498: $GPRMC,143100.00,A,5345.49374,N,02757.82652,E,53.768,95.85,241015,,,A*62
499: $GPRMC,143101.00,A,5345.49222,N,02757.85164,E,53.667,95.75,241015,,,A*65
500: $GPRMC,143102.00,A,5345.49078,N,02757.87680,E,53.670,95.22,241015,,,A*60
501: $GPRMC,143103.00,A,5345.48962,N,02757.90187,E,53.668,93.93,241015,,,A*61
502: $GPRMC,143104.00,A,5345.48883,N,02757.92683,E,53.579,92.69,241015,,,A*6E
503: $GPRMC,143105.00,A,5345.48830,N,02757.95177,E,53.409,91.90,241015,,,A*6F
504: $GPRMC,143106.00,A,5345.48801,N,02757.97663,E,53.523,91.22,241015,,,A*6E
505: $GPRMC,143107.00,A,5345.48777,N,02758.00165,E,53.671,90.79,241015,,,A*6A
506: $GPRMC,143108.00,A,5345.48758,N,02758.02674,E,53.851,90.70,241015,,,A*68
507: $GPRMC,143109.00,A,5345.48775,N,02758.05178,E,53.792,88.94,241015,,,A*69
508: $GPRMC,143110.00,A,5345.48842,N,02758.07674,E,53.694,87.04,241015,,,A*62
508: $GPRMC,143111.00,A,5345.48945,N,02758.10171,E,53.732,85.80,241015,,,A*62
509: $GPRMC,143112.00,A,5345.49062,N,02758.12677,E,53.896,85.36,241015,,,A*63
510: $GPRMC,143113.00,A,5345.49186,N,02758.15183,E,53.961,85.14,241015,,,A*6B
511: $GPRMC,143114.00,A,5345.49317,N,02758.17691,E,53.928,84.88,241015,,,A*69
512: $GPRMC,143115.00,A,5345.49451,N,02758.20201,E,53.956,84.65,241015,,,A*6E
513: $GPRMC,143116.00,A,5345.49596,N,02758.22714,E,53.951,84.01,241015,,,A*61
514: $GPRMC,143117.00,A,5345.49782,N,02758.25206,E,54.035,82.30,241015,,,A*6E
515: $GPRMC,143118.00,A,5345.49998,N,02758.27699,E,54.064,81.33,241015,,,A*60
516: $GPRMC,143119.00,A,5345.50241,N,02758.30199,E,54.290,80.50,241015,,,A*6A
517: $GPRMC,143120.00,A,5345.50510,N,02758.32707,E,54.551,79.52,241015,,,A*6E
518: $GPRMC,143121.00,A,5345.50791,N,02758.35225,E,54.863,79.15,241015,,,A*69
519: $GPRMC,143122.00,A,5345.51082,N,02758.37750,E,55.034,78.87,241015,,,A*6A
520: $GPRMC,143123.00,A,5345.51377,N,02758.40286,E,55.131,78.71,241015,,,A*61
521: $GPRMC,143124.00,A,5345.51685,N,02758.42826,E,55.362,78.33,241015,,,A*6E
522: $GPRMC,143125.00,A,5345.52014,N,02758.45367,E,55.636,77.26,241015,,,A*64
523: $GPRMC,143126.00,A,5345.52368,N,02758.47902,E,55.640,76.36,241015,,,A*65
524: $GPRMC,143127.00,A,5345.52725,N,02758.50432,E,55.725,76.54,241015,,,A*67
525: $GPRMC,143128.00,A,5345.53082,N,02758.52961,E,55.704,76.53,241015,,,A*6E
526: $GPRMC,143129.00,A,5345.53433,N,02758.55489,E,55.570,76.81,241015,,,A*63
527: $GPRMC,143130.00,A,5345.53779,N,02758.58025,E,55.653,76.98,241015,,,A*63
528: $GPRMC,143131.00,A,5345.54121,N,02758.60569,E,55.757,77.20,241015,,,A*6F
529: $GPRMC,143132.00,A,5345.54458,N,02758.63126,E,56.046,77.41,241015,,,A*68
530: $GPRMC,143133.00,A,5345.54787,N,02758.65702,E,56.343,77.82,241015,,,A*67
530: $GPRMC,143134.00,A,5345.55110,N,02758.68293,E,56.529,78.08,241015,,,A*6E
531: $GPRMC,143135.00,A,5345.55421,N,02758.70897,E,56.764,78.56,241015,,,A*6F
532: $GPRMC,143136.00,A,5345.55725,N,02758.73511,E,56.965,78.89,241015,,,A*66
533: $GPRMC,143137.00,A,5345.56021,N,02758.76145,E,57.460,79.22,241015,,,A*6E
534: $GPRMC,143138.00,A,5345.56310,N,02758.78785,E,57.615,79.55,241015,,,A*64
535: $GPRMC,143139.00,A,5345.56578,N,02758.81424,E,57.386,80.39,241015,,,A*60
536: $GPRMC,143140.00,A,5345.56818,N,02758.84079,E,57.464,81.66,241015,,,A*6C
537: $GPRMC,143141.00,A,5345.57020,N,02758.86735,E,57.385,83.05,241015,,,A*6D
538: $GPRMC,143142.00,A,5345.57178,N,02758.89377,E,57.041,84.66,241015,,,A*66
539: $GPRMC,143143.00,A,5345.57289,N,02758.92036,E,57.144,86.47,241015,,,A*63
540: $GPRMC,143144.00,A,5345.57343,N,02758.94699,E,57.063,88.60,241015,,,A*69
541: $GPRMC,143145.00,A,5345.57362,N,02758.97366,E,57.161,89.51,241015,,,A*6D
542: $GPRMC,143146.00,A,5345.57369,N,02759.00029,E,57.220,89.80,241015,,,A*68
543: $GPRMC,143147.00,A,5345.57365,N,02759.02695,E,56.996,90.32,241015,,,A*60
544: $GPRMC,143148.00,A,5345.57363,N,02759.05378,E,57.010,90.25,241015,,,A*68
545: $GPRMC,143149.00,A,5345.57357,N,02759.08045,E,57.184,90.25,241015,,,A*62
546: $GPRMC,143150.00,A,5345.57346,N,02759.10708,E,57.246,90.46,241015,,,A*65
547: $GPRMC,143151.00,A,5345.57337,N,02759.13381,E,57.439,90.38,241015,,,A*63
548: $GPRMC,143152.00,A,5345.57326,N,02759.16060,E,57.494,90.43,241015,,,A*62
549: $GPRMC,143153.00,A,5345.57318,N,02759.18751,E,57.640,90.24,241015,,,A*6F
550: $GPRMC,143154.00,A,5345.57314,N,02759.21443,E,57.703,90.16,241015,,,A*69
551: $GPRMC,143155.00,A,5345.57305,N,02759.24136,E,57.536,90.23,241015,,,A*68
552: $GPRMC,143156.00,A,5345.57296,N,02759.26824,E,57.393,90.38,241015,,,A*6B
553: $GPRMC,143157.00,A,5345.57279,N,02759.29498,E,57.169,90.74,241015,,,A*60
553: $GPRMC,143158.00,A,5345.57256,N,02759.32156,E,56.869,90.90,241015,,,A*6D
554: $GPRMC,143159.00,A,5345.57232,N,02759.34807,E,56.722,90.85,241015,,,A*61
555: $GPRMC,143200.00,A,5345.57212,N,02759.37453,E,56.674,90.70,241015,,,A*6A
556: $GPRMC,143201.00,A,5345.57198,N,02759.40093,E,56.535,90.53,241015,,,A*65
557: $GPRMC,143202.00,A,5345.57189,N,02759.42732,E,56.580,90.27,241015,,,A*65
558: $GPRMC,143203.00,A,5345.57183,N,02759.45373,E,56.597,90.25,241015,,,A*6C
559: $GPRMC,143204.00,A,5345.57177,N,02759.48015,E,56.568,90.32,241015,,,A*68
560: $GPRMC,143205.00,A,5345.57169,N,02759.50658,E,56.635,90.41,241015,,,A*6F
561: $GPRMC,143206.00,A,5345.57160,N,02759.53299,E,56.555,90.45,241015,,,A*6E
562: $GPRMC,143207.00,A,5345.57145,N,02759.55938,E,56.535,90.67,241015,,,A*68
563: $GPRMC,143208.00,A,5345.57127,N,02759.58577,E,56.531,90.74,241015,,,A*6F
564: $GPRMC,143209.00,A,5345.57113,N,02759.61209,E,56.299,90.56,241015,,,A*68
565: $GPRMC,143210.00,A,5345.57102,N,02759.63833,E,56.111,90.33,241015,,,A*61
