1: $GPRMC,110011.00,A,5351.46919,N,02729.10708,E,1.204,,211015,,,A*70
1: $GPVTG,,T,,M,1.204,N,2.230,K,A*27
1: $GPGGA,110011.00,5351.46919,N,02729.10708,E,1,03,3.72,125.8,M,25.1,M,,*50
1: $GPGSA,A,2,28,18,15,,,,,,,,,,3.85,3.72,1.00*0D
1: $GPGSV,2,1,08,01,03,276,,04,28,276,,08,55,287,,15,12,032,36*78
1: $GPGSV,2,2,08,18,46,066,13,27,67,203,15,28,03,345,27,32,05,221,*72
1: $GPGLL,5351.46919,N,02729.10708,E,110011.00,A,A*68
2: $GPRMC,110012.00,A,5351.47073,N,02729.10768,E,2.076,,211015,,,A*75
2: $GPVTG,,T,,M,2.076,N,3.844,K,A*2B
2: $GPGGA,110012.00,5351.47073,N,02729.10768,E,1,03,3.72,124.8,M,25.1,M,,*50
2: $GPGSA,A,2,28,18,15,,,,,,,,,,3.85,3.72,1.00*0D
2: $GPGSV,2,1,08,01,03,276,,04,28,276,,08,55,287,,15,12,032,36*78
2: $GPGSV,2,2,08,18,46,066,13,27,67,203,14,28,03,345,27,32,05,221,*73
2: $GPGLL,5351.47073,N,02729.10768,E,110012.00,A,A*69
3: $GPRMC,110013.00,A,5351.47370,N,02729.10835,E,3.506,,211015,,,A*70
3: $GPVTG,,T,,M,3.506,N,6.494,K,A*2C
3: $GPGGA,110013.00,5351.47370,N,02729.10835,E,1,03,3.72,123.6,M,25.1,M,,*5F
3: $GPGSA,A,2,28,18,15,,,,,,,,,,3.85,3.72,1.00*0D
3: $GPGSV,2,1,08,01,03,276,,04,28,276,,08,55,287,,15,12,032,36*78
3: $GPGSV,2,2,08,18,46,066,15,27,67,203,13,28,03,345,27,32,05,221,*72
3: $GPGLL,5351.47370,N,02729.10835,E,110013.00,A,A*6F
4: $GPRMC,110014.00,A,5351.47567,N,02729.10909,E,2.683,,211015,,,A*76
4: $GPVTG,,T,,M,2.683,N,4.970,K,A*26
4: $GPGGA,110014.00,5351.47567,N,02729.10909,E,1,03,3.72,124.4,M,25.1,M,,*53
4: $GPGSA,A,2,28,18,15,,,,,,,,,,3.85,3.72,1.00*0D
4: $GPGSV,2,1,08,01,03,276,,04,28,276,,08,55,287,,15,12,032,36*78
4: $GPGSV,2,2,08,18,46,066,15,27,67,203,14,28,03,345,27,32,05,221,*75
4: $GPGLL,5351.47567,N,02729.10909,E,110014.00,A,A*66
5: $GPRMC,110015.00,A,5351.47771,N,02729.10979,E,2.715,,211015,,,A*7B
5: $GPVTG,,T,,M,2.715,N,5.028,K,A*2D
5: $GPGGA,110015.00,5351.47771,N,02729.10979,E,1,03,3.72,124.6,M,25.1,M,,*52
5: $GPGSA,A,2,28,18,15,,,,,,,,,,3.85,3.72,1.00*0D
5: $GPGSV,2,1,08,01,03,276,,04,28,276,,08,55,287,,15,12,032,36*78
5: $GPGSV,2,2,08,18,46,066,15,27,67,203,14,28,03,345,27,32,05,221,*75
5: $GPGLL,5351.47771,N,02729.10979,E,110015.00,A,A*65
6: $GPRMC,110016.00,A,5351.47797,N,02729.10990,E,2.355,,211015,,,A*77
6: $GPVTG,,T,,M,2.355,N,4.361,K,A*22
6: $GPGGA,110016.00,5351.47797,N,02729.10990,E,1,03,3.72,125.2,M,25.1,M,,*5B
6: $GPGSA,A,2,28,18,15,,,,,,,,,,3.85,3.72,1.00*0D
6: $GPGSV,3,1,09,01,03,276,,04,28,276,,08,55,287,,11,15,288,*7D
6: $GPGSV,3,2,09,15,12,032,36,18,46,066,14,27,67,203,13,28,03,345,27*75
6: $GPGSV,3,3,09,32,05,221,*45
6: $GPGLL,5351.47797,N,02729.10990,E,110016.00,A,A*69
7: $GPRMC,110017.00,A,5351.47951,N,02729.11045,E,3.834,95.28,211015,,,A*57
7: $GPVTG,95.28,T,,M,3.834,N,7.101,K,A*00
7: $GPGGA,110017.00,5351.47951,N,02729.11045,E,1,03,3.72,125.3,M,25.1,M,,*5F
7: $GPGSA,A,2,28,18,15,,,,,,,,,,3.85,3.72,1.00*0D
7: $GPGSV,3,1,09,01,03,276,,04,28,276,,08,55,287,,11,15,288,*7D
7: $GPGSV,3,2,09,15,12,032,36,18,46,066,16,27,67,203,12,28,03,345,27*76
7: $GPGSV,3,3,09,32,05,221,*45
7: $GPGLL,5351.47951,N,02729.11045,E,110017.00,A,A*6C
8: $GPRMC,110018.00,A,5351.48091,N,02729.11094,E,2.968,,211015,,,A*7F
8: $GPVTG,,T,,M,2.968,N,5.496,K,A*28
8: $GPGGA,110018.00,5351.48091,N,02729.11094,E,1,03,3.72,124.4,M,25.1,M,,*50
8: $GPGSA,A,2,28,18,15,,,,,,,,,,3.85,3.72,1.00*0D
8: $GPGSV,3,1,09,01,03,276,,04,28,276,,08,55,287,,11,15,288,*7D
8: $GPGSV,3,2,09,15,12,032,36,18,46,066,16,27,67,203,09,28,03,345,27*7C
8: $GPGSV,3,3,09,32,05,221,*45
8: $GPGLL,5351.48091,N,02729.11094,E,110018.00,A,A*65
9: $GPRMC,110019.00,A,5351.48210,N,02729.11163,E,1.360,,211015,,,A*7D
9: $GPVTG,,T,,M,1.360,N,2.518,K,A*29
9: $GPGGA,110019.00,5351.48210,N,02729.11163,E,1,03,3.72,123.0,M,25.1,M,,*50
9: $GPGSA,A,2,28,18,15,,,,,,,,,,3.85,3.72,1.00*0D
9: $GPGSV,3,1,09,01,03,276,,04,28,276,,08,55,287,,11,15,288,*7D
9: $GPGSV,3,2,09,15,11,032,36,18,46,066,16,27,67,203,,28,03,345,28*79
9: $GPGSV,3,3,09,32,05,221,*45
9: $GPGLL,5351.48210,N,02729.11163,E,110019.00,A,A*66
10: $GPRMC,110020.00,A,5351.48439,N,02729.11264,E,2.394,,211015,,,A*76
10: $GPVTG,,T,,M,2.394,N,4.433,K,A*2F
10: $GPGGA,110020.00,5351.48439,N,02729.11264,E,1,03,3.72,123.6,M,25.1,M,,*55
10: $GPGSA,A,2,28,18,15,,,,,,,,,,3.86,3.72,1.00*0E
10: $GPGSV,3,1,09,01,03,276,,04,28,276,,08,55,287,,11,15,288,*7D
10: $GPGSV,3,2,09,15,11,032,36,18,46,066,13,27,67,203,,28,03,345,28*7C
10: $GPGSV,3,3,09,32,05,221,*45
10: $GPGLL,5351.48439,N,02729.11264,E,110020.00,A,A*65
11: $GPRMC,110021.00,A,5351.48602,N,02729.11334,E,3.258,,211015,,,A*79
11: $GPVTG,,T,,M,3.258,N,6.034,K,A*2E
11: $GPGGA,110021.00,5351.48602,N,02729.11334,E,1,03,3.72,124.1,M,25.1,M,,*5A
11: $GPGSA,A,2,28,18,15,,,,,,,,,,3.86,3.72,1.00*0E
11: $GPGSV,3,1,09,01,03,276,,04,28,276,,08,55,287,,11,15,288,*7D
11: $GPGSV,3,2,09,15,11,032,36,18,46,066,13,27,67,203,,28,03,345,28*7C
11: $GPGSV,3,3,09,32,05,221,*45
11: $GPGLL,5351.48602,N,02729.11334,E,110021.00,A,A*6A
12: $GPRMC,110022.00,A,5351.48772,N,02729.11389,E,4.150,46.24,211015,,,A*5C
12: $GPVTG,46.24,T,,M,4.150,N,7.685,K,A*05
12: $GPGGA,110022.00,5351.48772,N,02729.11389,E,1,03,3.72,123.7,M,25.1,M,,*58
12: $GPGSA,A,2,28,18,15,,,,,,,,,,3.86,3.72,1.00*0E
12: $GPGSV,3,1,09,01,03,276,,04,28,276,,08,55,287,,11,15,288,*7D
12: $GPGSV,3,2,09,15,11,032,37,18,46,066,13,27,67,203,,28,03,345,27*72
12: $GPGSV,3,3,09,32,05,221,*45
13: $GPGLL,5351.48772,N,02729.11389,E,110022.00,A,A*69
14: $GPRMC,110023.00,A,5351.48611,N,02729.11336,E,0.210,,211015,,,A*74
14: $GPVTG,,T,,M,0.210,N,0.389,K,A*22
14: $GPGGA,110023.00,5351.48611,N,02729.11336,E,1,03,3.72,121.7,M,25.1,M,,*5B
14: $GPGSA,A,2,28,18,15,,,,,,,,,,3.86,3.72,1.00*0E
14: $GPGSV,3,1,09,01,03,276,,04,28,276,,08,55,287,,11,15,288,*7D
14: $GPGSV,3,2,09,15,11,032,37,18,46,066,16,27,67,203,,28,03,345,27*77
14: $GPGSV,3,3,09,32,05,221,*45
14: $GPGLL,5351.48611,N,02729.11336,E,110023.00,A,A*68
15: $GPRMC,110024.00,A,5351.48844,N,02729.11432,E,0.094,,211015,,,A*70
15: $GPVTG,,T,,M,0.094,N,0.175,K,A*2D
15: $GPGGA,110024.00,5351.48844,N,02729.11432,E,1,03,3.72,118.5,M,25.1,M,,*59
15: $GPGSA,A,2,28,18,15,,,,,,,,,,3.86,3.72,1.00*0E
15: $GPGSV,3,1,09,01,03,276,,04,28,276,,08,55,287,,11,15,288,*7D
15: $GPGSV,3,2,09,15,11,032,37,18,46,066,19,27,67,203,,28,03,345,28*77
15: $GPGSV,3,3,09,32,05,221,*45
15: $GPGLL,5351.48844,N,02729.11432,E,110024.00,A,A*62
16: $GPRMC,110025.00,A,5351.48977,N,02729.11498,E,0.233,,211015,,,A*7F
16: $GPVTG,,T,,M,0.233,N,0.432,K,A*24
16: $GPGGA,110025.00,5351.48977,N,02729.11498,E,1,03,3.72,117.9,M,25.1,M,,*5A
16: $GPGSA,A,2,28,18,15,,,,,,,,,,3.86,3.72,1.00*0E
16: $GPGSV,3,1,09,01,03,276,,04,28,276,,08,55,287,,11,15,288,*7D
16: $GPGSV,3,2,09,15,11,032,37,18,46,066,21,27,67,203,,28,03,345,28*7C
16: $GPGSV,3,3,09,32,05,221,*45
17: $GPGLL,5351.48977,N,02729.11498,E,110025.00,A,A*62
18: $GPRMC,110026.00,A,5351.48986,N,02729.11503,E,0.317,,211015,,,A*76
18: $GPVTG,,T,,M,0.317,N,0.588,K,A*23
18: $GPGGA,110026.00,5351.48986,N,02729.11503,E,1,03,3.72,117.7,M,25.1,M,,*5A
18: $GPGSA,A,2,28,18,15,,,,,,,,,,3.86,3.72,1.00*0E
18: $GPGSV,3,1,09,01,03,276,,04,28,276,,08,55,287,,11,15,288,*7D
18: $GPGSV,3,2,09,15,11,032,37,18,46,066,21,27,67,203,,28,03,345,28*7C
18: $GPGSV,3,3,09,32,05,221,*45
18: $GPGLL,5351.48986,N,02729.11503,E,110026.00,A,A*6C
19: $GPRMC,110027.00,A,5351.49062,N,02729.11529,E,0.403,,211015,,,A*7F
19: $GPVTG,,T,,M,0.403,N,0.745,K,A*22
19: $GPGGA,110027.00,5351.49062,N,02729.11529,E,1,03,3.72,117.4,M,25.1,M,,*52
19: $GPGSA,A,2,28,18,15,,,,,,,,,,3.86,3.72,1.00*0E
19: $GPGSV,3,1,09,01,03,276,,04,28,276,,08,55,287,,11,15,288,*7D
19: $GPGSV,3,2,09,15,11,032,37,18,46,066,20,27,67,203,,28,03,345,28*7D
19: $GPGSV,3,3,09,32,05,221,*45
19: $GPGLL,5351.49062,N,02729.11529,E,110027.00,A,A*67
20: $GPRMC,110028.00,A,5351.49151,N,02729.11535,E,1.195,,211015,,,A*77
20: $GPVTG,,T,,M,1.195,N,2.213,K,A*2D
20: $GPGGA,110028.00,5351.49151,N,02729.11535,E,1,03,3.72,118.4,M,25.1,M,,*5E
20: $GPGSA,A,2,28,18,15,,,,,,,,,,3.86,3.72,1.00*0E
20: $GPGSV,3,1,10,01,03,276,,04,28,276,,08,55,287,,11,15,288,*75
20: $GPGSV,3,2,10,15,11,032,37,18,46,066,20,24,00,068,,27,67,203,*7C
20: $GPGSV,3,3,10,28,03,345,28,32,05,221,*7C
21: $GPGLL,5351.49151,N,02729.11535,E,110028.00,A,A*64
22: $GPRMC,110029.00,A,5351.49178,N,02729.11531,E,0.828,,211015,,,A*77
22: $GPVTG,,T,,M,0.828,N,1.533,K,A*25
22: $GPGGA,110029.00,5351.49178,N,02729.11531,E,1,03,3.72,119.9,M,25.1,M,,*5C
22: $GPGSA,A,2,28,18,15,,,,,,,,,,3.86,3.72,1.00*0E
22: $GPGSV,3,1,10,01,03,276,,04,28,276,,08,55,287,,11,15,288,*75
22: $GPGSV,3,2,10,15,11,032,37,18,46,066,20,24,00,068,,27,67,203,*7C
22: $GPGSV,3,3,10,28,03,345,29,32,05,221,*7D
23: $GPGLL,5351.49178,N,02729.11531,E,110029.00,A,A*6A
24: $GPRMC,110030.00,A,5351.49254,N,02729.11549,E,0.919,,211015,,,A*7E
24: $GPVTG,,T,,M,0.919,N,1.701,K,A*25
24: $GPGGA,110030.00,5351.49254,N,02729.11549,E,1,03,3.72,121.3,M,25.1,M,,*57
24: $GPGSA,A,2,28,18,15,,,,,,,,,,3.86,3.72,1.00*0E
24: $GPGSV,3,1,10,01,03,276,,04,28,276,,08,55,287,,11,15,288,*75
24: $GPGSV,3,2,10,15,11,032,36,18,46,066,21,24,00,068,,27,67,203,*7C
24: $GPGSV,3,3,10,28,03,345,29,32,05,221,*7D
24: $GPGLL,5351.49254,N,02729.11549,E,110030.00,A,A*60
25: $GPRMC,110031.00,A,5351.49324,N,02729.11555,E,0.499,,211015,,,A*71
25: $GPVTG,,T,,M,0.499,N,0.924,K,A*28
25: $GPGGA,110031.00,5351.49324,N,02729.11555,E,1,03,3.73,120.8,M,25.1,M,,*56
25: $GPGSA,A,2,28,18,15,,,,,,,,,,3.86,3.73,1.00*0F
25: $GPGSV,3,1,10,01,03,276,,04,28,276,,08,55,287,,11,15,288,*75
25: $GPGSV,3,2,10,15,11,032,37,18,46,066,22,24,00,068,32,27,66,202,*7F
25: $GPGSV,3,3,10,28,03,345,29,32,05,221,*7D
26: $GPGLL,5351.49324,N,02729.11555,E,110031.00,A,A*6A
27: $GPRMC,110032.00,A,5351.49356,N,02729.11556,E,2.075,,211015,,,A*70
27: $GPVTG,,T,,M,2.075,N,3.843,K,A*2F
27: $GPGGA,110032.00,5351.49356,N,02729.11556,E,1,03,3.73,120.4,M,25.1,M,,*5F
27: $GPGSA,A,2,28,18,15,,,,,,,,,,3.86,3.73,1.00*0F
27: $GPGSV,3,1,10,01,03,276,,04,28,276,,08,55,287,,11,15,288,*75
27: $GPGSV,3,2,10,15,11,032,37,18,46,066,23,24,00,068,32,27,66,202,*7E
27: $GPGSV,3,3,10,28,04,345,29,32,05,221,*7A
27: $GPGLL,5351.49356,N,02729.11556,E,110032.00,A,A*6F
28: $GPRMC,110033.00,A,5351.49533,N,02729.11637,E,1.690,,211015,,,A*7E
28: $GPVTG,,T,,M,1.690,N,3.129,K,A*24
28: $GPGGA,110033.00,5351.49533,N,02729.11637,E,1,03,3.73,117.7,M,25.1,M,,*58
28: $GPGSA,A,2,28,18,15,,,,,,,,,,3.86,3.73,1.00*0F
28: $GPGSV,3,1,10,01,03,276,,04,28,276,,08,55,287,,11,15,288,*75
28: $GPGSV,3,2,10,15,11,032,37,18,46,066,22,24,00,068,32,27,66,202,*7F
28: $GPGSV,3,3,10,28,04,345,29,32,05,221,*7A
28: $GPGLL,5351.49533,N,02729.11637,E,110033.00,A,A*6F
29: $GPRMC,110034.00,A,5351.49744,N,02729.11714,E,0.432,,211015,,,A*70
29: $GPVTG,,T,,M,0.432,N,0.799,K,A*21
29: $GPGGA,110034.00,5351.49744,N,02729.11714,E,1,03,3.73,118.7,M,25.1,M,,*52
29: $GPGSA,A,2,28,18,15,,,,,,,,,,3.86,3.73,1.00*0F
29: $GPGSV,3,1,10,01,03,276,,04,28,276,,08,55,287,,11,15,288,*75
29: $GPGSV,3,2,10,15,11,032,37,18,46,066,22,24,00,068,32,27,66,202,*7F
29: $GPGSV,3,3,10,28,04,345,28,32,05,221,*7B
29: $GPGLL,5351.49744,N,02729.11714,E,110034.00,A,A*6A
30: $GPRMC,110035.00,A,5351.49886,N,02729.11749,E,1.187,,211015,,,A*72
30: $GPVTG,,T,,M,1.187,N,2.198,K,A*2E
30: $GPGGA,110035.00,5351.49886,N,02729.11749,E,1,03,3.73,121.4,M,25.1,M,,*53
30: $GPGSA,A,2,28,18,15,,,,,,,,,,3.86,3.73,1.00*0F
30: $GPGSV,3,1,10,01,03,276,,04,28,276,,08,55,287,,11,15,288,*75
30: $GPGSV,3,2,10,15,11,032,37,18,46,066,21,24,00,068,31,27,66,202,*7F
30: $GPGSV,3,3,10,28,04,345,28,32,05,221,*7B
30: $GPGLL,5351.49886,N,02729.11749,E,110035.00,A,A*62
31: $GPRMC,110036.00,A,5351.49783,N,02729.11711,E,1.354,,211015,,,A*7A
31: $GPVTG,,T,,M,1.354,N,2.507,K,A*20
31: $GPGGA,110036.00,5351.49783,N,02729.11711,E,1,03,3.73,127.1,M,25.1,M,,*54
31: $GPGSA,A,2,28,18,15,,,,,,,,,,3.86,3.73,1.00*0F
31: $GPGSV,3,1,10,01,03,276,,04,28,276,,08,55,287,,11,15,288,*75
31: $GPGSV,3,2,10,15,11,032,37,18,46,066,20,24,00,068,31,27,66,202,*7E
31: $GPGSV,3,3,10,28,04,345,28,32,05,221,*7B
31: $GPGLL,5351.49783,N,02729.11711,E,110036.00,A,A*66
32: $GPRMC,110037.00,A,5351.49735,N,02729.11705,E,3.909,127.20,211015,,,A*6B
32: $GPVTG,127.20,T,,M,3.909,N,7.240,K,A*39
32: $GPGGA,110037.00,5351.49735,N,02729.11705,E,1,03,3.73,123.6,M,25.1,M,,*5E
32: $GPGSA,A,2,28,18,15,,,,,,,,,,3.86,3.73,1.00*0F
32: $GPGSV,3,1,10,01,03,276,,04,28,276,,08,55,287,,11,15,288,*75
32: $GPGSV,3,2,10,15,11,032,37,18,46,066,20,24,00,068,30,27,66,202,*7F
32: $GPGSV,3,3,10,28,04,345,28,32,05,221,*7B
33: $GPGLL,5351.49735,N,02729.11705,E,110037.00,A,A*6F
34: $GPRMC,110038.00,A,5351.49688,N,02729.11689,E,4.188,162.24,211015,,,A*65
34: $GPVTG,162.24,T,,M,4.188,N,7.756,K,A*38
34: $GPGGA,110038.00,5351.49688,N,02729.11689,E,1,03,3.73,120.0,M,25.1,M,,*56
34: $GPGSA,A,2,28,18,15,,,,,,,,,,3.86,3.73,1.00*0F
34: $GPGSV,3,1,10,01,03,276,,04,28,276,,08,55,287,,11,15,288,*75
34: $GPGSV,3,2,10,15,11,032,38,18,46,066,19,24,00,068,29,27,66,202,*72
34: $GPGSV,3,3,10,28,04,345,29,32,05,221,*7A
35: $GPGLL,5351.49688,N,02729.11689,E,110038.00,A,A*62
36: $GPRMC,110039.00,A,5351.49705,N,02729.11683,E,2.699,,211015,,,A*76
36: $GPVTG,,T,,M,2.699,N,4.998,K,A*2B
36: $GPGGA,110039.00,5351.49705,N,02729.11683,E,1,03,3.73,120.0,M,25.1,M,,*59
36: $GPGSA,A,2,28,18,15,,,,,,,,,,3.86,3.73,1.00*0F
36: $GPGSV,3,1,10,01,03,276,,04,28,276,,08,55,287,,11,15,288,*75
36: $GPGSV,3,2,10,15,11,032,38,18,46,066,18,24,00,068,29,27,66,202,*73
36: $GPGSV,3,3,10,28,04,345,29,32,05,221,*7A
37: $GPGLL,5351.49705,N,02729.11683,E,110039.00,A,A*6D
38: $GPRMC,110040.00,A,5351.49699,N,02729.11665,E,3.373,175.97,211015,,,A*67
38: $GPVTG,175.97,T,,M,3.373,N,6.248,K,A*3C
38: $GPGGA,110040.00,5351.49699,N,02729.11665,E,1,03,3.73,119.8,M,25.1,M,,*59
38: $GPGSA,A,2,28,18,15,,,,,,,,,,3.86,3.73,1.00*0F
38: $GPGSV,3,1,10,01,03,276,,04,28,276,,08,55,287,,11,15,288,*75
38: $GPGSV,3,2,10,15,11,032,38,18,46,066,19,24,00,068,29,27,66,202,*72
38: $GPGSV,3,3,10,28,04,345,29,32,05,221,*7A
39: $GPGLL,5351.49699,N,02729.11665,E,110040.00,A,A*6F
40: $GPRMC,110041.00,A,5351.49802,N,02729.11677,E,3.992,189.19,211015,,,A*69
40: $GPVTG,189.19,T,,M,3.992,N,7.393,K,A*3A
40: $GPGGA,110041.00,5351.49802,N,02729.11677,E,1,03,3.73,116.8,M,25.1,M,,*58
40: $GPGSA,A,2,28,18,15,,,,,,,,,,3.86,3.73,1.00*0F
40: $GPGSV,3,1,10,01,03,276,,04,28,276,,08,55,287,,11,15,288,*75
40: $GPGSV,3,2,10,15,11,032,38,18,46,066,19,24,00,068,29,27,66,202,*72
40: $GPGSV,3,3,10,28,04,345,28,32,05,221,*7B
41: $GPGLL,5351.49802,N,02729.11677,E,110041.00,A,A*61
42: $GPRMC,110042.00,A,5351.49989,N,02729.11742,E,2.927,,211015,,,A*76
42: $GPVTG,,T,,M,2.927,N,5.420,K,A*2E
42: $GPGGA,110042.00,5351.49989,N,02729.11742,E,1,03,3.73,112.6,M,25.1,M,,*54
42: $GPGSA,A,2,28,18,15,,,,,,,,,,3.86,3.73,1.00*0F
42: $GPGSV,3,1,10,01,03,276,,04,28,276,,08,55,287,,11,15,288,*75
42: $GPGSV,3,2,10,15,11,032,38,18,46,066,20,24,00,068,29,27,66,202,*78
42: $GPGSV,3,3,10,28,04,345,28,32,05,221,*7B
43: $GPGLL,5351.49989,N,02729.11742,E,110042.00,A,A*67
44: $GPRMC,110043.00,A,5351.50156,N,02729.11806,E,0.786,,211015,,,A*7D
44: $GPVTG,,T,,M,0.786,N,1.456,K,A*2C
44: $GPGGA,110043.00,5351.50156,N,02729.11806,E,1,03,3.73,113.8,M,25.1,M,,*57
44: $GPGSA,A,2,28,18,15,,,,,,,,,,3.86,3.73,1.00*0F
44: $GPGSV,3,1,10,01,03,276,,04,28,276,,08,55,287,,11,15,288,*75
44: $GPGSV,3,2,10,15,11,032,38,18,46,066,19,24,00,068,29,27,66,202,*72
44: $GPGSV,3,3,10,28,04,345,29,32,05,221,*7A
44: $GPGLL,5351.50156,N,02729.11806,E,110043.00,A,A*6B
45: $GPRMC,110044.00,A,5351.50293,N,02729.11846,E,0.547,,211015,,,A*7B
45: $GPVTG,,T,,M,0.547,N,1.012,K,A*27
45: $GPGGA,110044.00,5351.50293,N,02729.11846,E,1,03,3.73,117.0,M,25.1,M,,*52
45: $GPGSA,A,2,28,18,15,,,,,,,,,,3.86,3.73,1.00*0F
45: $GPGSV,3,1,10,01,03,276,,04,28,276,,08,55,287,,11,15,288,*75
45: $GPGSV,3,2,10,15,11,032,38,18,46,066,19,24,00,068,29,27,66,202,*72
45: $GPGSV,3,3,10,28,04,345,29,32,05,221,*7A
45: $GPGLL,5351.50293,N,02729.11846,E,110044.00,A,A*62
46: $GPRMC,110045.00,A,5351.50247,N,02729.11815,E,2.784,,211015,,,A*7A
46: $GPVTG,,T,,M,2.784,N,5.155,K,A*2E
46: $GPGGA,110045.00,5351.50247,N,02729.11815,E,1,03,3.73,117.6,M,25.1,M,,*5A
46: $GPGSA,A,2,28,18,15,,,,,,,,,,3.86,3.73,1.00*0F
46: $GPGSV,3,1,10,01,03,276,,04,28,276,,08,55,287,,11,15,288,*75
46: $GPGSV,3,2,10,15,11,032,38,18,46,066,18,24,00,068,30,27,66,202,*7B
46: $GPGSV,3,3,10,28,04,345,29,32,05,221,*7A
47: $GPGLL,5351.50247,N,02729.11815,E,110045.00,A,A*6C
48: $GPRMC,110046.00,A,5351.50270,N,02729.11817,E,4.132,191.70,211015,,,A*62
48: $GPVTG,191.70,T,,M,4.132,N,7.653,K,A*30
48: $GPGGA,110046.00,5351.50270,N,02729.11817,E,1,03,3.73,117.5,M,25.1,M,,*5C
48: $GPGSA,A,2,28,18,15,,,,,,,,,,3.86,3.73,1.00*0F
48: $GPGSV,3,1,10,01,03,276,,04,28,276,,08,55,287,,11,15,288,*75
48: $GPGSV,3,2,10,15,11,032,38,18,46,066,20,24,00,068,29,27,66,202,*78
48: $GPGSV,3,3,10,28,04,345,28,32,05,221,*7B
49: $GPGLL,5351.50270,N,02729.11817,E,110046.00,A,A*69
50: $GPRMC,110047.00,A,5351.50316,N,02729.11816,E,3.001,,211015,,,A*75
50: $GPVTG,,T,,M,3.001,N,5.559,K,A*2D
50: $GPGGA,110047.00,5351.50316,N,02729.11816,E,1,03,3.73,119.9,M,25.1,M,,*5F
50: $GPGSA,A,2,28,18,15,,,,,,,,,,3.86,3.73,1.00*0F
50: $GPGSV,3,1,10,01,03,276,,04,28,276,,08,55,287,,11,15,288,*75
50: $GPGSV,3,2,10,15,11,032,37,18,46,066,21,24,00,068,30,27,66,202,*7E
50: $GPGSV,3,3,10,28,04,345,28,32,05,221,*7B
51: $GPGLL,5351.50316,N,02729.11816,E,110047.00,A,A*68
52: $GPRMC,110048.00,A,5351.50306,N,02729.11785,E,2.673,,211015,,,A*7C
52: $GPVTG,,T,,M,2.673,N,4.951,K,A*2A
52: $GPGGA,110048.00,5351.50306,N,02729.11785,E,1,03,3.73,120.9,M,25.1,M,,*5E
52: $GPGSA,A,2,28,18,15,,,,,,,,,,3.86,3.73,1.00*0F
52: $GPGSV,3,1,10,01,03,276,,04,28,276,,08,55,287,,11,15,288,*75
52: $GPGSV,3,2,10,15,11,032,37,18,46,066,22,24,00,068,30,27,66,202,*7D
52: $GPGSV,3,3,10,28,04,345,28,32,05,221,*7B
52: $GPGLL,5351.50306,N,02729.11785,E,110048.00,A,A*63
53: $GPRMC,110049.00,A,5351.50306,N,02729.11762,E,4.030,194.34,211015,,,A*66
53: $GPVTG,194.34,T,,M,4.030,N,7.464,K,A*30
53: $GPGGA,110049.00,5351.50306,N,02729.11762,E,1,03,3.73,120.7,M,25.1,M,,*58
53: $GPGSA,A,2,28,18,15,,,,,,,,,,3.86,3.73,1.00*0F
53: $GPGSV,3,1,10,01,03,276,,04,28,276,,08,55,287,,11,15,288,*75
53: $GPGSV,3,2,10,15,11,032,37,18,46,066,23,24,00,068,31,27,66,202,*7D
53: $GPGSV,3,3,10,28,04,345,27,32,05,221,*74
54: $GPGLL,5351.50306,N,02729.11762,E,110049.00,A,A*6B
55: $GPRMC,110050.00,A,5351.50286,N,02729.11739,E,5.590,196.12,211015,,,A*61
55: $GPVTG,196.12,T,,M,5.590,N,10.352,K,A*0C
55: $GPGGA,110050.00,5351.50286,N,02729.11739,E,1,03,3.73,122.9,M,25.1,M,,*5B
55: $GPGSA,A,2,28,18,15,,,,,,,,,,3.86,3.73,1.00*0F
55: $GPGSV,3,1,10,01,03,276,,04,28,276,,08,55,287,,11,15,288,*75
55: $GPGSV,3,2,10,15,11,032,37,18,46,066,22,24,00,068,31,27,66,202,*7C
55: $GPGSV,3,3,10,28,04,345,27,32,05,221,*74
56: $GPGLL,5351.50286,N,02729.11739,E,110050.00,A,A*64
57: $GPRMC,110051.00,A,5351.50368,N,02729.11759,E,4.232,196.29,211015,,,A*61
57: $GPVTG,196.29,T,,M,4.232,N,7.837,K,A*34
57: $GPGGA,110051.00,5351.50368,N,02729.11759,E,1,03,3.73,124.1,M,25.1,M,,*53
57: $GPGSA,A,2,28,18,15,,,,,,,,,,3.86,3.73,1.00*0F
57: $GPGSV,3,1,10,01,03,276,,04,28,276,,08,55,287,,11,15,288,*75
57: $GPGSV,3,2,10,15,11,032,37,18,46,066,22,24,00,068,31,27,66,202,*7C
57: $GPGSV,3,3,10,28,04,345,27,32,05,221,*74
58: $GPGLL,5351.50368,N,02729.11759,E,110051.00,A,A*62
59: $GPRMC,110052.00,A,5351.50395,N,02729.11768,E,3.435,,211015,,,A*7F
59: $GPVTG,,T,,M,3.435,N,6.362,K,A*23
59: $GPGGA,110052.00,5351.50395,N,02729.11768,E,1,03,3.73,124.9,M,25.1,M,,*58
59: $GPGSA,A,2,28,18,15,,,,,,,,,,3.86,3.73,1.00*0F
59: $GPGSV,3,1,10,01,03,276,,04,28,276,,08,55,287,,11,15,288,*75
59: $GPGSV,3,2,10,15,11,032,36,18,46,066,22,24,00,068,32,27,66,202,*7E
59: $GPGSV,3,3,10,28,04,345,28,32,05,221,*7B
60: $GPGLL,5351.50395,N,02729.11768,E,110052.00,A,A*61
61: $GPRMC,110053.00,A,5351.50399,N,02729.11760,E,3.854,197.75,211015,,,A*62
61: $GPVTG,197.75,T,,M,3.854,N,7.138,K,A*37
61: $GPGGA,110053.00,5351.50399,N,02729.11760,E,1,03,3.73,127.0,M,25.1,M,,*57
61: $GPGSA,A,2,28,18,15,,,,,,,,,,3.86,3.73,1.00*0F
61: $GPGSV,3,1,10,01,03,276,,04,28,276,,08,55,287,,11,15,288,*75
61: $GPGSV,3,2,10,15,11,032,36,18,46,066,23,24,00,068,32,27,66,202,*7F
61: $GPGSV,3,3,10,28,04,345,28,32,05,221,*7B
62: $GPGLL,5351.50399,N,02729.11760,E,110053.00,A,A*64
63: $GPRMC,110054.00,A,5351.50394,N,02729.11749,E,5.583,199.35,211015,,,A*68
63: $GPVTG,199.35,T,,M,5.583,N,10.340,K,A*07
63: $GPGGA,110054.00,5351.50394,N,02729.11749,E,1,03,3.73,127.6,M,25.1,M,,*50
63: $GPGSA,A,2,28,18,15,,,,,,,,,,3.86,3.73,1.00*0F
63: $GPGSV,3,1,10,01,03,276,,04,28,276,,08,55,287,,11,15,288,*75
63: $GPGSV,3,2,10,15,11,032,36,18,46,066,23,24,00,068,32,27,66,202,*7F
63: $GPGSV,3,3,10,28,04,345,28,32,05,221,*7B
64: $GPGLL,5351.50394,N,02729.11749,E,110054.00,A,A*65
65: $GPRMC,110055.00,A,5351.50478,N,02729.11777,E,5.326,199.70,211015,,,A*69
65: $GPVTG,199.70,T,,M,5.326,N,9.864,K,A*3A
65: $GPGGA,110055.00,5351.50478,N,02729.11777,E,1,03,3.73,128.3,M,25.1,M,,*53
65: $GPGSA,A,2,28,18,15,,,,,,,,,,3.86,3.73,1.00*0F
65: $GPGSV,3,1,10,01,03,276,,04,28,276,,08,55,287,,11,15,288,*75
65: $GPGSV,3,2,10,15,11,032,36,18,46,066,25,24,00,068,31,27,66,202,*7A
65: $GPGSV,3,3,10,28,04,345,28,32,05,221,*7B
66: $GPGLL,5351.50478,N,02729.11777,E,110055.00,A,A*6C
67: $GPRMC,110056.00,A,5351.50505,N,02729.11782,E,4.036,201.03,211015,,,A*6E
67: $GPVTG,201.03,T,,M,4.036,N,7.475,K,A*3D
67: $GPGGA,110056.00,5351.50505,N,02729.11782,E,1,03,3.73,132.8,M,25.1,M,,*51
67: $GPGSA,A,2,28,18,15,,,,,,,,,,3.86,3.73,1.00*0F
67: $GPGSV,3,1,10,01,03,276,,04,28,276,,08,55,287,,11,15,288,*75
67: $GPGSV,3,2,10,15,11,032,36,18,46,066,25,24,00,068,31,27,66,202,*7A
67: $GPGSV,3,3,10,28,04,345,27,32,05,221,*74
68: $GPGLL,5351.50505,N,02729.11782,E,110056.00,A,A*6E
69: $GPRMC,110057.00,A,5351.50485,N,02729.11764,E,2.957,,211015,,,A*78
69: $GPVTG,,T,,M,2.957,N,5.475,K,A*29
69: $GPGGA,110057.00,5351.50485,N,02729.11764,E,1,03,3.73,135.4,M,25.1,M,,*5A
69: $GPGSA,A,2,28,18,15,,,,,,,,,,3.86,3.73,1.00*0F
69: $GPGSV,3,1,10,01,03,276,,04,28,276,,08,55,287,,11,15,288,*75
69: $GPGSV,3,2,10,15,11,032,36,18,46,066,25,24,00,068,31,27,66,202,*7A
69: $GPGSV,3,3,10,28,04,345,28,32,05,221,*7B
70: $GPGLL,5351.50485,N,02729.11764,E,110057.00,A,A*6E
71: $GPRMC,110058.00,A,5351.50449,N,02729.11751,E,3.204,,211015,,,A*7D
71: $GPVTG,,T,,M,3.204,N,5.935,K,A*2C
71: $GPGGA,110058.00,5351.50449,N,02729.11751,E,1,03,3.73,136.6,M,25.1,M,,*52
71: $GPGSA,A,2,28,18,15,,,,,,,,,,3.86,3.73,1.00*0F
71: $GPGSV,3,1,10,01,03,276,,04,28,276,,08,55,287,,11,15,288,*75
71: $GPGSV,3,2,10,15,11,032,36,18,46,066,26,24,00,068,31,27,66,202,*79
71: $GPGSV,3,3,10,28,04,345,28,32,05,221,*7B
72: $GPGLL,5351.50449,N,02729.11751,E,110058.00,A,A*67
73: $GPRMC,110059.00,A,5351.50410,N,02729.11751,E,3.586,204.32,211015,,,A*64
73: $GPVTG,204.32,T,,M,3.586,N,6.642,K,A*34
73: $GPGGA,110059.00,5351.50410,N,02729.11751,E,1,03,3.73,137.2,M,25.1,M,,*5A
73: $GPGSA,A,2,28,18,15,,,,,,,,,,3.86,3.73,1.00*0F
73: $GPGSV,3,1,10,01,03,276,,04,28,276,,08,55,287,,11,15,288,*75
73: $GPGSV,3,2,10,15,11,032,36,18,46,066,27,24,00,068,31,27,66,202,*78
73: $GPGSV,3,3,10,28,04,345,28,32,05,221,*7B
74: $GPGLL,5351.50410,N,02729.11751,E,110059.00,A,A*6A
75: $GPRMC,110100.00,A,5351.50370,N,02729.11751,E,2.384,,211015,,,A*74
75: $GPVTG,,T,,M,2.384,N,4.416,K,A*29
75: $GPGGA,110100.00,5351.50370,N,02729.11751,E,1,03,3.73,137.5,M,25.1,M,,*51
75: $GPGSA,A,2,28,18,15,,,,,,,,,,3.86,3.73,1.00*0F
75: $GPGSV,3,1,10,01,03,276,,04,28,276,,08,55,287,,11,15,288,*75
75: $GPGSV,3,2,10,15,11,032,35,18,46,066,27,24,00,068,30,27,66,202,*7A
75: $GPGSV,3,3,10,28,04,345,28,32,05,221,*7B
76: $GPGLL,5351.50370,N,02729.11751,E,110100.00,A,A*66
77: $GPRMC,110101.00,A,5351.50324,N,02729.11734,E,1.642,,211015,,,A*7B
77: $GPVTG,,T,,M,1.642,N,3.040,K,A*25
77: $GPGGA,110101.00,5351.50324,N,02729.11734,E,1,03,3.73,138.1,M,25.1,M,,*59
77: $GPGSA,A,2,28,18,15,,,,,,,,,,3.86,3.73,1.00*0F
77: $GPGSV,3,1,10,01,03,276,,04,28,276,,08,55,287,,11,15,288,*75
77: $GPGSV,3,2,10,15,11,032,35,18,46,066,28,24,00,068,30,27,66,202,*75
77: $GPGSV,3,3,10,28,04,345,28,32,05,221,*7B
77: $GPGLL,5351.50324,N,02729.11734,E,110101.00,A,A*65
78: $GPRMC,110102.00,A,5351.50277,N,02729.11713,E,2.423,,211015,,,A*7C
78: $GPVTG,,T,,M,2.423,N,4.487,K,A*2B
78: $GPGGA,110102.00,5351.50277,N,02729.11713,E,1,03,3.73,138.8,M,25.1,M,,*51
78: $GPGSA,A,2,28,18,15,,,,,,,,,,3.86,3.73,1.00*0F
78: $GPGSV,3,1,10,01,03,276,,04,28,276,,08,55,287,,11,15,288,*75
78: $GPGSV,3,2,10,15,11,032,36,18,46,066,27,24,00,068,31,27,66,202,*78
78: $GPGSV,3,3,10,28,04,345,28,32,05,221,*7B
78: $GPGLL,5351.50277,N,02729.11713,E,110102.00,A,A*64
79: $GPRMC,110103.00,A,5351.50248,N,02729.11713,E,3.019,,211015,,,A*7D
79: $GPVTG,,T,,M,3.019,N,5.592,K,A*23
79: $GPGGA,110103.00,5351.50248,N,02729.11713,E,1,03,3.73,137.8,M,25.1,M,,*53
79: $GPGSA,A,2,28,18,15,,,,,,,,,,3.86,3.73,1.00*0F
79: $GPGSV,3,1,10,01,03,276,,04,28,276,,08,55,287,,11,15,288,*75
79: $GPGSV,3,2,10,15,11,032,36,18,46,066,27,24,00,068,31,27,66,202,*78
79: $GPGSV,3,3,10,28,04,345,28,32,05,221,*7B
79: $GPGLL,5351.50248,N,02729.11713,E,110103.00,A,A*69
80: $GPRMC,110104.00,A,5351.55861,N,02729.12081,E,0.511,,211015,,,A*7F
80: $GPVTG,,T,,M,0.511,N,0.946,K,A*2D
80: $GPGGA,110104.00,5351.55861,N,02729.12081,E,1,04,4.33,246.8,M,25.1,M,,*5E
80: $GPGSA,A,3,28,18,15,24,,,,,,,,,4.94,4.33,2.37*08
80: $GPGSV,3,1,10,01,03,276,,04,28,276,,08,55,287,,11,15,288,*75
80: $GPGSV,3,2,10,15,11,032,36,18,46,066,27,24,00,067,31,27,66,202,*77
80: $GPGSV,3,3,10,28,04,345,28,32,05,221,*7B
80: $GPGLL,5351.55861,N,02729.12081,E,110104.00,A,A*65
81: $GPRMC,110105.00,A,5351.55770,N,02729.12072,E,0.391,,211015,,,A*73
81: $GPVTG,,T,,M,0.391,N,0.725,K,A*28
81: $GPGGA,110105.00,5351.55770,N,02729.12072,E,1,04,4.34,248.7,M,25.1,M,,*5A
81: $GPGSA,A,3,28,18,15,24,,,,,,,,,4.94,4.34,2.37*0F
81: $GPGSV,3,1,10,01,03,276,,04,28,276,,08,55,287,,11,15,288,*75
81: $GPGSV,3,2,10,15,11,032,36,18,46,066,27,24,00,067,31,27,66,202,*77
81: $GPGSV,3,3,10,28,04,345,28,32,05,221,*7B
81: $GPGLL,5351.55770,N,02729.12072,E,110105.00,A,A*67
82: $GPRMC,110106.00,A,5351.55682,N,02729.11962,E,0.755,,211015,,,A*7B
82: $GPVTG,,T,,M,0.755,N,1.398,K,A*27
82: $GPGGA,110106.00,5351.55682,N,02729.11962,E,1,04,4.34,250.0,M,25.1,M,,*50
82: $GPGSA,A,3,28,18,15,24,,,,,,,,,4.94,4.34,2.37*0F
82: $GPGSV,3,1,10,01,03,276,,04,28,276,,08,55,287,,11,15,288,*75
82: $GPGSV,3,2,10,15,11,032,36,18,46,066,27,24,00,067,31,27,66,202,*77
82: $GPGSV,3,3,10,28,04,345,29,32,05,221,*7A
83: $GPGLL,5351.55682,N,02729.11962,E,110106.00,A,A*63
84: $GPRMC,110107.00,A,5351.55573,N,02729.11828,E,2.212,,211015,,,A*7C
84: $GPVTG,,T,,M,2.212,N,4.096,K,A*2B
84: $GPGGA,110107.00,5351.55573,N,02729.11828,E,1,04,4.34,250.2,M,25.1,M,,*51
84: $GPGSA,A,3,28,18,15,24,,,,,,,,,4.94,4.34,2.37*0F
84: $GPGSV,3,1,10,01,03,276,,04,28,276,,08,55,287,,11,15,288,*75
84: $GPGSV,3,2,10,15,11,032,37,18,46,066,27,24,00,067,31,27,66,202,*76
84: $GPGSV,3,3,10,28,04,345,28,32,05,221,*7B
84: $GPGLL,5351.55573,N,02729.11828,E,110107.00,A,A*60
85: $GPRMC,110108.00,A,5351.55465,N,02729.11672,E,2.258,214.45,211015,,,A*62
85: $GPVTG,214.45,T,,M,2.258,N,4.181,K,A*3A
85: $GPGGA,110108.00,5351.55465,N,02729.11672,E,1,04,4.34,250.3,M,25.1,M,,*58
85: $GPGSA,A,3,28,18,15,24,,,,,,,,,4.94,4.34,2.37*0F
85: $GPGSV,3,1,10,01,03,276,,04,28,276,,08,55,287,,11,15,288,*75
85: $GPGSV,3,2,10,15,11,032,37,18,46,066,27,24,00,067,31,27,66,202,*76
85: $GPGSV,3,3,10,28,04,345,28,32,05,221,*7B
86: $GPGLL,5351.55465,N,02729.11672,E,110108.00,A,A*68
87: $GPRMC,110109.00,A,5351.55398,N,02729.11580,E,1.148,,211015,,,A*71
87: $GPVTG,,T,,M,1.148,N,2.127,K,A*29
87: $GPGGA,110109.00,5351.55398,N,02729.11580,E,1,04,4.34,250.3,M,25.1,M,,*52
87: $GPGSA,A,3,28,18,15,24,,,,,,,,,4.94,4.34,2.37*0F
87: $GPGSV,3,1,10,01,03,276,,04,28,276,,08,55,287,,11,15,288,*75
87: $GPGSV,3,2,10,15,11,032,37,18,46,066,28,24,00,067,31,27,66,202,*79
87: $GPGSV,3,3,10,28,04,345,28,32,05,221,*7B
87: $GPGLL,5351.55398,N,02729.11580,E,110109.00,A,A*62
88: $GPRMC,110110.00,A,5351.55338,N,02729.11496,E,0.311,,211015,,,A*7A
88: $GPVTG,,T,,M,0.311,N,0.576,K,A*24
88: $GPGGA,110110.00,5351.55338,N,02729.11496,E,1,04,4.34,249.9,M,25.1,M,,*54
88: $GPGSA,A,3,28,18,15,24,,,,,,,,,4.94,4.34,2.37*0F
88: $GPGSV,3,1,10,01,03,276,,04,28,276,,08,55,287,,11,15,288,*75
88: $GPGSV,3,2,10,15,11,032,37,18,46,066,28,24,00,067,32,27,66,202,*7A
88: $GPGSV,3,3,10,28,04,345,27,32,05,221,*74
88: $GPGLL,5351.55338,N,02729.11496,E,110110.00,A,A*66
89: $GPRMC,110111.00,A,5351.55272,N,02729.11409,E,0.971,,211015,,,A*7E
89: $GPVTG,,T,,M,0.971,N,1.799,K,A*2A
89: $GPGGA,110111.00,5351.55272,N,02729.11409,E,1,04,4.34,249.2,M,25.1,M,,*57
89: $GPGSA,A,3,28,18,15,24,,,,,,,,,4.95,4.34,2.37*0E
89: $GPGSV,3,1,10,01,03,276,,04,28,276,,08,55,287,,11,15,288,*75
89: $GPGSV,3,2,10,15,11,032,37,18,46,066,28,24,00,067,32,27,66,202,*7A
89: $GPGSV,3,3,10,28,04,345,27,32,05,221,*74
89: $GPGLL,5351.55272,N,02729.11409,E,110111.00,A,A*6E
90: $GPRMC,110112.00,A,5351.55211,N,02729.11338,E,1.560,,211015,,,A*70
90: $GPVTG,,T,,M,1.560,N,2.889,K,A*2A
90: $GPGGA,110112.00,5351.55211,N,02729.11338,E,1,04,4.34,248.8,M,25.1,M,,*5F
90: $GPGSA,A,3,28,18,15,24,,,,,,,,,4.95,4.34,2.37*0E
90: $GPGSV,3,1,10,01,03,276,,04,28,276,,08,55,287,,11,15,288,*75
90: $GPGSV,3,2,10,15,11,032,37,18,46,066,27,24,00,067,32,27,66,202,*75
90: $GPGSV,3,3,10,28,04,345,27,32,05,221,*74
91: $GPGLL,5351.55211,N,02729.11338,E,110112.00,A,A*6D
92: $GPRMC,110113.00,A,5351.55146,N,02729.11285,E,1.234,,211015,,,A*71
92: $GPVTG,,T,,M,1.234,N,2.285,K,A*2A
92: $GPGGA,110113.00,5351.55146,N,02729.11285,E,1,04,4.34,248.7,M,25.1,M,,*57
92: $GPGSA,A,3,28,18,15,24,,,,,,,,,4.95,4.34,2.37*0E
92: $GPGSV,3,1,10,01,03,276,,04,28,276,,08,55,287,,11,15,288,*75
92: $GPGSV,3,2,10,15,11,032,37,18,46,066,27,24,00,067,32,27,66,202,*75
92: $GPGSV,3,3,10,28,04,345,27,32,05,221,*74
92: $GPGLL,5351.55146,N,02729.11285,E,110113.00,A,A*6A
93: $GPRMC,110114.00,A,5351.55088,N,02729.11242,E,0.414,,211015,,,A*7B
93: $GPVTG,,T,,M,0.414,N,0.766,K,A*25
93: $GPGGA,110114.00,5351.55088,N,02729.11242,E,1,04,4.34,248.7,M,25.1,M,,*58
93: $GPGSA,A,3,28,18,15,24,,,,,,,,,4.95,4.34,2.37*0E
93: $GPGSV,3,1,10,01,03,276,,04,28,276,,08,55,287,,11,15,288,*75
93: $GPGSV,3,2,10,15,11,032,37,18,46,066,26,24,00,067,32,27,66,202,*74
93: $GPGSV,3,3,10,28,04,345,26,32,05,221,*75
93: $GPGLL,5351.55088,N,02729.11242,E,110114.00,A,A*65
94: $GPRMC,110115.00,A,5351.55019,N,02729.11169,E,0.730,,211015,,,A*7D
94: $GPVTG,,T,,M,0.730,N,1.352,K,A*22
94: $GPGGA,110115.00,5351.55019,N,02729.11169,E,1,04,4.34,248.7,M,25.1,M,,*5B
94: $GPGSA,A,3,28,18,15,24,,,,,,,,,4.95,4.34,2.38*01
94: $GPGSV,3,1,10,01,03,276,,04,28,276,,08,55,287,,11,15,288,*75
94: $GPGSV,3,2,10,15,11,032,37,18,46,066,26,24,00,067,32,27,66,202,*74
94: $GPGSV,3,3,10,28,04,345,26,32,05,221,*75
94: $GPGLL,5351.55019,N,02729.11169,E,110115.00,A,A*66
95: $GPRMC,110116.00,A,5351.54965,N,02729.11101,E,0.503,,211015,,,A*71
95: $GPVTG,,T,,M,0.503,N,0.931,K,A*2E
95: $GPGGA,110116.00,5351.54965,N,02729.11101,E,1,04,4.34,248.7,M,25.1,M,,*55
95: $GPGSA,A,3,28,18,15,24,,,,,,,,,4.95,4.34,2.38*01
95: $GPGSV,3,1,10,01,04,276,,04,28,276,,08,55,287,,11,15,288,*72
95: $GPGSV,3,2,10,15,11,032,37,18,46,066,25,24,00,067,31,27,66,202,*74
95: $GPGSV,3,3,10,28,04,345,25,32,05,221,*76
95: $GPGLL,5351.54965,N,02729.11101,E,110116.00,A,A*68
96: $GPRMC,110117.00,A,5351.54921,N,02729.11054,E,1.133,,211015,,,A*77
96: $GPVTG,,T,,M,1.133,N,2.098,K,A*20
96: $GPGGA,110117.00,5351.54921,N,02729.11054,E,1,04,4.34,248.7,M,25.1,M,,*55
96: $GPGSA,A,3,28,18,15,24,,,,,,,,,4.95,4.34,2.38*01
96: $GPGSV,3,1,10,01,04,276,,04,28,276,,08,55,287,,11,15,288,*72
96: $GPGSV,3,2,10,15,11,032,37,18,46,066,26,24,00,067,32,27,66,202,*74
96: $GPGSV,3,3,10,28,04,345,26,32,05,221,*75
97: $GPGLL,5351.54921,N,02729.11054,E,110117.00,A,A*68
98: $GPRMC,110118.00,A,5351.54892,N,02729.11026,E,0.479,,211015,,,A*7E
98: $GPVTG,,T,,M,0.479,N,0.887,K,A*2E
98: $GPGGA,110118.00,5351.54892,N,02729.11026,E,1,04,4.34,248.5,M,25.1,M,,*54
98: $GPGSA,A,3,28,18,15,24,,,,,,,,,4.95,4.34,2.38*01
98: $GPGSV,3,1,10,01,04,276,,04,28,276,,08,55,287,,11,15,288,*72
98: $GPGSV,3,2,10,15,11,032,37,18,46,066,25,24,00,067,32,27,66,202,*77
98: $GPGSV,3,3,10,28,04,345,27,32,05,221,*74
98: $GPGLL,5351.54892,N,02729.11026,E,110118.00,A,A*6B
99: $GPRMC,110119.00,A,5351.54863,N,02729.11001,E,0.427,,211015,,,A*7F
99: $GPVTG,,T,,M,0.427,N,0.790,K,A*2C
99: $GPGGA,110119.00,5351.54863,N,02729.11001,E,1,04,4.34,248.2,M,25.1,M,,*59
99: $GPGSA,A,3,28,18,15,24,,,,,,,,,4.95,4.34,2.38*01
99: $GPGSV,3,1,10,01,04,276,,04,29,277,,08,55,287,,11,15,288,*72
99: $GPGSV,3,2,10,15,11,032,36,18,46,066,25,24,00,067,32,27,66,202,*76
99: $GPGSV,3,3,10,28,04,345,28,32,05,221,*7B
100: $GPGLL,5351.54863,N,02729.11001,E,110119.00,A,A*61
101: $GPRMC,110120.00,A,5351.54848,N,02729.10985,E,0.303,,211015,,,A*79
101: $GPVTG,,T,,M,0.303,N,0.562,K,A*22
101: $GPGGA,110120.00,5351.54848,N,02729.10985,E,1,04,4.35,248.0,M,25.1,M,,*5D
101: $GPGSA,A,3,28,18,15,24,,,,,,,,,4.95,4.35,2.38*00
101: $GPGSV,3,1,10,01,04,276,,04,29,277,,08,55,287,,11,15,288,*72
101: $GPGSV,3,2,10,15,11,032,36,18,46,066,24,24,00,067,32,27,66,202,*77
101: $GPGSV,3,3,10,28,04,345,27,32,05,221,*74
102: $GPGLL,5351.54848,N,02729.10985,E,110120.00,A,A*66
103: $GPRMC,110121.00,A,5351.54829,N,02729.10963,E,1.227,,211015,,,A*71
103: $GPVTG,,T,,M,1.227,N,2.273,K,A*21
103: $GPGGA,110121.00,5351.54829,N,02729.10963,E,1,04,4.35,247.4,M,25.1,M,,*58
103: $GPGSA,A,3,28,18,15,24,,,,,,,,,4.95,4.35,2.38*00
103: $GPGSV,3,1,10,01,04,276,,04,29,277,,08,55,287,,11,15,288,*72
103: $GPGSV,3,2,10,15,11,032,36,18,46,066,24,24,00,067,32,27,66,202,*77
103: $GPGSV,3,3,10,28,04,345,28,32,05,221,*7B
103: $GPGLL,5351.54829,N,02729.10963,E,110121.00,A,A*68
104: $GPRMC,110122.00,A,5351.54829,N,02729.10972,E,0.498,,211015,,,A*71
104: $GPVTG,,T,,M,0.498,N,0.923,K,A*2E
104: $GPGGA,110122.00,5351.54829,N,02729.10972,E,1,04,4.35,246.8,M,25.1,M,,*56
104: $GPGSA,A,3,28,18,15,24,,,,,,,,,4.96,4.35,2.38*03
104: $GPGSV,3,1,10,01,04,276,,04,29,277,,08,55,287,,11,15,288,*72
104: $GPGSV,3,2,10,15,11,032,36,18,46,066,24,24,00,067,32,27,66,202,*77
104: $GPGSV,3,3,10,28,04,345,28,32,05,221,*7B
104: $GPGLL,5351.54829,N,02729.10972,E,110122.00,A,A*6B
105: $GPRMC,110123.00,A,5351.54826,N,02729.10987,E,0.836,,211015,,,A*7D
105: $GPVTG,,T,,M,0.836,N,1.549,K,A*27
105: $GPGGA,110123.00,5351.54826,N,02729.10987,E,1,04,4.35,246.1,M,25.1,M,,*5B
105: $GPGSA,A,3,28,18,15,24,,,,,,,,,4.96,4.35,2.38*03
105: $GPGSV,3,1,10,01,04,276,,04,29,277,,08,56,286,,11,15,288,*70
105: $GPGSV,3,2,10,15,11,032,36,18,46,066,25,24,00,067,32,27,66,202,*76
105: $GPGSV,3,3,10,28,04,345,28,32,05,221,*7B
105: $GPGLL,5351.54826,N,02729.10987,E,110123.00,A,A*6F
106: $GPRMC,110124.00,A,5351.54824,N,02729.10991,E,0.296,,211015,,,A*7F
106: $GPVTG,,T,,M,0.296,N,0.548,K,A*27
106: $GPGGA,110124.00,5351.54824,N,02729.10991,E,1,04,4.35,245.5,M,25.1,M,,*5E
106: $GPGSA,A,3,28,18,15,24,,,,,,,,,4.96,4.35,2.38*03
106: $GPGSV,3,1,10,01,04,276,,04,29,277,,08,56,286,,11,15,288,*70
106: $GPGSV,3,2,10,15,11,032,36,18,46,066,25,24,00,067,32,27,66,202,*76
106: $GPGSV,3,3,10,28,04,345,28,32,05,221,*7B
106: $GPGLL,5351.54824,N,02729.10991,E,110124.00,A,A*6D
107: $GPRMC,110125.00,A,5351.54840,N,02729.11005,E,0.702,,211015,,,A*71
107: $GPVTG,,T,,M,0.702,N,1.301,K,A*25
107: $GPGGA,110125.00,5351.54840,N,02729.11005,E,1,04,4.35,244.9,M,25.1,M,,*55
107: $GPGSA,A,3,28,18,15,24,,,,,,,,,4.96,4.35,2.38*03
107: $GPGSV,3,1,10,01,04,276,,04,29,277,,08,56,286,,11,15,288,*70
107: $GPGSV,3,2,10,15,11,032,36,18,46,066,25,24,00,067,32,27,66,202,*76
107: $GPGSV,3,3,10,28,04,345,28,32,05,221,*7B
108: $GPGLL,5351.54840,N,02729.11005,E,110125.00,A,A*6B
109: $GPRMC,110126.00,A,5351.54841,N,02729.11005,E,0.790,,211015,,,A*78
109: $GPVTG,,T,,M,0.790,N,1.463,K,A*2D
109: $GPGGA,110126.00,5351.54841,N,02729.11005,E,1,04,4.35,244.1,M,25.1,M,,*5F
109: $GPGSA,A,3,28,18,15,24,,,,,,,,,4.96,4.35,2.38*03
109: $GPGSV,3,1,10,01,04,276,,04,29,277,,08,56,286,,11,15,288,*70
109: $GPGSV,3,2,10,15,11,032,37,18,46,066,25,24,00,067,32,27,66,202,*77
109: $GPGSV,3,3,10,28,04,345,28,32,05,221,*7B
109: $GPGLL,5351.54841,N,02729.11005,E,110126.00,A,A*69
110: $GPRMC,110127.00,A,5351.54831,N,02729.10996,E,0.612,,211015,,,A*77
110: $GPVTG,,T,,M,0.612,N,1.133,K,A*26
110: $GPGGA,110127.00,5351.54831,N,02729.10996,E,1,04,4.35,243.3,M,25.1,M,,*5E
110: $GPGSA,A,3,28,18,15,24,,,,,,,,,4.96,4.35,2.38*03
110: $GPGSV,3,1,10,01,04,276,,04,29,277,,08,56,286,,11,15,288,*70
110: $GPGSV,3,2,10,15,11,032,36,18,46,066,25,24,00,067,32,27,66,202,*76
110: $GPGSV,3,3,10,28,04,345,28,32,05,221,*7B
111: $GPGLL,5351.54831,N,02729.10996,E,110127.00,A,A*6D
112: $GPRMC,110128.00,A,5351.54839,N,02729.10998,E,1.398,,211015,,,A*78
112: $GPVTG,,T,,M,1.398,N,2.589,K,A*26
112: $GPGGA,110128.00,5351.54839,N,02729.10998,E,1,04,4.35,242.4,M,25.1,M,,*51
112: $GPGSA,A,3,28,18,15,24,,,,,,,,,4.96,4.35,2.38*03
112: $GPGSV,3,1,10,01,04,276,,04,29,277,,08,56,286,,11,15,288,*70
112: $GPGSV,3,2,10,15,11,032,36,18,46,066,25,24,00,067,32,27,66,202,*76
112: $GPGSV,3,3,10,28,04,345,28,32,05,221,*7B
112: $GPGLL,5351.54839,N,02729.10998,E,110128.00,A,A*64
113: $GPRMC,110129.00,A,5351.54854,N,02729.11003,E,0.813,,211015,,,A*71
113: $GPVTG,,T,,M,0.813,N,1.506,K,A*2B
113: $GPGGA,110129.00,5351.54854,N,02729.11003,E,1,04,4.35,241.7,M,25.1,M,,*51
113: $GPGSA,A,3,28,18,15,24,,,,,,,,,4.96,4.35,2.39*02
113: $GPGSV,3,1,10,01,04,276,,04,29,277,,08,56,286,,11,15,288,*70
113: $GPGSV,3,2,10,15,11,032,36,18,46,066,26,24,00,067,32,27,66,202,*75
113: $GPGSV,3,3,10,28,04,345,27,32,05,221,*74
114: $GPGLL,5351.54854,N,02729.11003,E,110129.00,A,A*64
115: $GPRMC,110130.00,A,5351.54864,N,02729.10999,E,0.659,,211015,,,A*71
115: $GPVTG,,T,,M,0.659,N,1.221,K,A*29
115: $GPGGA,110130.00,5351.54864,N,02729.10999,E,1,04,4.35,241.0,M,25.1,M,,*56
115: $GPGSA,A,3,28,18,15,24,,,,,,,,,4.96,4.35,2.39*02
115: $GPGSV,3,1,10,01,04,276,,04,29,277,,08,56,286,,11,15,288,*70
115: $GPGSV,3,2,10,15,11,032,35,18,46,066,26,24,00,067,32,27,66,202,*76
115: $GPGSV,3,3,10,28,04,345,27,32,05,221,*74
116: $GPGLL,5351.54864,N,02729.10999,E,110130.00,A,A*64
117: $GPRMC,110131.00,A,5351.54885,N,02729.11020,E,0.612,,211015,,,A*7A
117: $GPVTG,,T,,M,0.612,N,1.134,K,A*21
117: $GPGGA,110131.00,5351.54885,N,02729.11020,E,1,04,4.35,240.1,M,25.1,M,,*52
117: $GPGSA,A,3,28,18,15,24,,,,,,,,,4.96,4.35,2.39*02
117: $GPGSV,3,1,10,01,04,276,,04,29,277,,08,56,286,,11,15,288,*70
117: $GPGSV,3,2,10,15,11,032,35,18,46,066,26,24,00,067,31,27,66,202,*75
117: $GPGSV,3,3,10,28,04,345,27,32,05,221,*74
118: $GPGLL,5351.54885,N,02729.11020,E,110131.00,A,A*60
119: $GPRMC,110132.00,A,5351.54907,N,02729.11046,E,0.333,,211015,,,A*74
119: $GPVTG,,T,,M,0.333,N,0.617,K,A*20
119: $GPGGA,110132.00,5351.54907,N,02729.11046,E,1,04,4.35,239.4,M,25.1,M,,*51
119: $GPGSA,A,3,28,18,15,24,,,,,,,,,4.97,4.35,2.39*03
119: $GPGSV,3,1,10,01,04,276,,04,29,277,,08,56,286,,11,15,288,*70
119: $GPGSV,3,2,10,15,11,032,35,18,46,066,26,24,00,067,31,27,66,202,*75
119: $GPGSV,3,3,10,28,04,345,28,32,05,221,*7B
120: $GPGLL,5351.54907,N,02729.11046,E,110132.00,A,A*68
121: $GPRMC,110133.00,A,5351.54916,N,02729.11048,E,0.130,,211015,,,A*7A
121: $GPVTG,,T,,M,0.130,N,0.241,K,A*26
121: $GPGGA,110133.00,5351.54916,N,02729.11048,E,1,04,4.35,238.7,M,25.1,M,,*5C
121: $GPGSA,A,3,28,18,15,24,,,,,,,,,4.97,4.35,2.39*03
121: $GPGSV,3,1,10,01,04,276,,04,29,277,,08,56,286,,11,15,288,*70
121: $GPGSV,3,2,10,15,11,032,35,18,45,066,27,24,00,067,31,27,66,202,*77
121: $GPGSV,3,3,10,28,04,345,27,32,05,221,*74
122: $GPGLL,5351.54916,N,02729.11048,E,110133.00,A,A*67
123: $GPRMC,110134.00,A,5351.54949,N,02729.11078,E,0.826,,211015,,,A*7A
123: $GPVTG,,T,,M,0.826,N,1.529,K,A*20
123: $GPGGA,110134.00,5351.54949,N,02729.11078,E,1,04,4.35,237.9,M,25.1,M,,*53
123: $GPGSA,A,3,28,18,15,24,,,,,,,,,4.97,4.35,2.39*03
123: $GPGSV,3,1,10,01,04,276,,04,29,277,,08,56,286,,11,15,288,*70
123: $GPGSV,3,2,10,15,11,032,35,18,45,066,28,24,00,067,30,27,66,202,*79
123: $GPGSV,3,3,10,28,04,345,28,32,05,221,*7B
124: $GPGLL,5351.54949,N,02729.11078,E,110134.00,A,A*69
125: $GPRMC,110135.00,A,5351.54946,N,02729.11118,E,1.281,,211015,,,A*75
125: $GPVTG,,T,,M,1.281,N,2.372,K,A*2D
125: $GPGGA,110135.00,5351.54946,N,02729.11118,E,1,04,4.36,236.9,M,25.1,M,,*58
125: $GPGSA,A,3,28,18,15,24,,,,,,,,,4.97,4.36,2.39*00
125: $GPGSV,3,1,10,01,04,276,,04,29,277,,08,56,286,,11,15,288,*70
125: $GPGSV,3,2,10,15,11,032,35,18,45,066,28,24,00,067,30,27,66,202,*79
125: $GPGSV,3,3,10,28,04,345,28,32,05,221,*7B
126: $GPGLL,5351.54946,N,02729.11118,E,110135.00,A,A*60
127: $GPRMC,110136.00,A,5351.54932,N,02729.11144,E,0.289,,211015,,,A*75
127: $GPVTG,,T,,M,0.289,N,0.535,K,A*23
127: $GPGGA,110136.00,5351.54932,N,02729.11144,E,1,04,4.36,235.9,M,25.1,M,,*52
127: $GPGSA,A,3,28,18,15,24,,,,,,,,,4.97,4.36,2.39*00
127: $GPGSV,3,1,10,01,04,276,,04,29,277,,08,56,286,,11,15,288,*70
127: $GPGSV,3,2,10,15,11,032,35,18,45,066,28,24,00,067,30,27,66,202,*79
127: $GPGSV,3,3,10,28,04,345,28,32,05,221,*7B
128: $GPGLL,5351.54932,N,02729.11144,E,110136.00,A,A*69
129: $GPRMC,110137.00,A,5351.54922,N,02729.11175,E,0.589,,211015,,,A*70
129: $GPVTG,,T,,M,0.589,N,1.092,K,A*2D
129: $GPGGA,110137.00,5351.54922,N,02729.11175,E,1,04,4.36,235.1,M,25.1,M,,*58
129: $GPGSA,A,3,28,18,15,24,,,,,,,,,4.97,4.36,2.39*00
129: $GPGSV,3,1,10,01,04,276,,04,29,277,,08,56,286,,11,15,288,*70
129: $GPGSV,3,2,10,15,11,032,35,18,45,066,28,24,00,067,30,27,66,202,*79
129: $GPGSV,3,3,10,28,04,345,28,32,05,221,*7B
130: $GPGLL,5351.54922,N,02729.11175,E,110137.00,A,A*6B
131: $GPRMC,110138.00,A,5351.54914,N,02729.11211,E,0.645,,211015,,,A*78
131: $GPVTG,,T,,M,0.645,N,1.195,K,A*28
131: $GPGGA,110138.00,5351.54914,N,02729.11211,E,1,04,4.36,234.3,M,25.1,M,,*50
131: $GPGSA,A,3,28,18,15,24,,,,,,,,,4.97,4.36,2.39*00
131: $GPGSV,3,1,10,01,04,276,,04,29,277,,08,56,286,,11,15,288,*70
131: $GPGSV,3,2,10,15,11,032,35,18,45,066,28,24,00,067,30,27,66,202,*79
131: $GPGSV,3,3,10,28,04,345,28,32,05,221,*7B
132: $GPGLL,5351.54914,N,02729.11211,E,110138.00,A,A*60
133: $GPRMC,110139.00,A,5351.54897,N,02729.11240,E,1.753,,211015,,,A*70
133: $GPVTG,,T,,M,1.753,N,3.246,K,A*20
133: $GPGGA,110139.00,5351.54897,N,02729.11240,E,1,04,4.36,233.6,M,25.1,M,,*5D
133: $GPGSA,A,3,28,18,15,24,,,,,,,,,4.97,4.36,2.39*00
133: $GPGSV,3,1,10,01,04,276,,04,29,277,,08,56,286,,11,15,288,*70
133: $GPGSV,3,2,10,15,11,032,35,18,45,066,28,24,00,067,30,27,66,202,*79
133: $GPGSV,3,3,10,28,04,345,28,32,05,221,*7B
134: $GPGLL,5351.54897,N,02729.11240,E,110139.00,A,A*6F
135: $GPRMC,110140.00,A,5351.54875,N,02729.11261,E,0.965,,211015,,,A*7B
135: $GPVTG,,T,,M,0.965,N,1.787,K,A*20
135: $GPGGA,110140.00,5351.54875,N,02729.11261,E,1,04,4.36,233.1,M,25.1,M,,*5B
135: $GPGSA,A,3,28,18,15,24,,,,,,,,,4.97,4.36,2.39*00
135: $GPGSV,3,1,10,01,04,276,,04,29,277,,08,56,286,,11,15,288,*70
135: $GPGSV,3,2,10,15,11,032,35,18,45,066,28,24,00,067,31,27,66,202,*78
135: $GPGSV,3,3,10,28,04,345,28,32,05,221,*7B
136: $GPGLL,5351.54875,N,02729.11261,E,110140.00,A,A*6E
137: $GPRMC,110141.00,A,5351.54848,N,02729.11271,E,0.435,,211015,,,A*7D
137: $GPVTG,,T,,M,0.435,N,0.806,K,A*2F
137: $GPGGA,110141.00,5351.54848,N,02729.11271,E,1,04,4.36,232.4,M,25.1,M,,*51
137: $GPGSA,A,3,28,18,15,24,,,,,,,,,4.97,4.36,2.39*00
137: $GPGSV,3,1,10,01,04,276,,04,29,277,,08,56,286,,11,15,288,*70
137: $GPGSV,3,2,10,15,11,032,35,18,45,066,28,24,00,067,31,27,66,202,*78
137: $GPGSV,3,3,10,28,04,345,28,32,05,221,*7B
138: $GPGLL,5351.54848,N,02729.11271,E,110141.00,A,A*60
139: $GPRMC,110142.00,A,5351.54811,N,02729.11276,E,0.743,,211015,,,A*77
139: $GPVTG,,T,,M,0.743,N,1.375,K,A*23
139: $GPGGA,110142.00,5351.54811,N,02729.11276,E,1,04,4.36,232.0,M,25.1,M,,*5D
139: $GPGSA,A,3,28,18,15,24,,,,,,,,,4.97,4.36,2.40*0E
139: $GPGSV,3,1,10,01,04,276,,04,29,277,,08,56,286,,11,15,288,*70
139: $GPGSV,3,2,10,15,11,032,35,18,45,066,28,24,00,067,31,27,66,201,*7B
139: $GPGSV,3,3,10,28,04,345,28,32,05,221,*7B
140: $GPGLL,5351.54811,N,02729.11276,E,110142.00,A,A*68
141: $GPRMC,110143.00,A,5351.54778,N,02729.11277,E,1.030,,211015,,,A*75
141: $GPVTG,,T,,M,1.030,N,1.907,K,A*2E
141: $GPGGA,110143.00,5351.54778,N,02729.11277,E,1,04,4.36,231.5,M,25.1,M,,*5B
141: $GPGSA,A,3,28,18,15,24,,,,,,,,,4.98,4.36,2.40*01
141: $GPGSV,3,1,10,01,04,276,,04,29,277,,08,56,286,,11,15,288,*70
141: $GPGSV,3,2,10,15,11,032,36,18,45,066,29,24,00,067,31,27,66,201,*79
141: $GPGSV,3,3,10,28,04,345,28,32,05,221,*7B
142: $GPGLL,5351.54778,N,02729.11277,E,110143.00,A,A*68
143: $GPRMC,110144.00,A,5351.54742,N,02729.11275,E,1.173,,211015,,,A*7F
143: $GPVTG,,T,,M,1.173,N,2.173,K,A*20
143: $GPGGA,110144.00,5351.54742,N,02729.11275,E,1,04,4.36,230.8,M,25.1,M,,*5B
143: $GPGSA,A,3,28,18,15,24,,,,,,,,,4.98,4.36,2.40*01
143: $GPGSV,3,1,10,01,04,276,,04,29,277,,08,56,286,,11,15,288,*70
143: $GPGSV,3,2,10,15,11,032,36,18,45,066,29,24,00,067,31,27,66,201,*79
143: $GPGSV,3,3,10,28,04,345,28,32,05,221,*7B
144: $GPGLL,5351.54742,N,02729.11275,E,110144.00,A,A*64
145: $GPRMC,110145.00,A,5351.54700,N,02729.11273,E,0.339,,211015,,,A*73
145: $GPVTG,,T,,M,0.339,N,0.627,K,A*29
145: $GPGGA,110145.00,5351.54700,N,02729.11273,E,1,04,4.36,230.3,M,25.1,M,,*51
145: $GPGSA,A,3,28,18,15,24,,,,,,,,,4.98,4.36,2.40*01
145: $GPGSV,3,1,10,01,04,276,,04,29,277,,08,56,286,,11,15,288,*70
145: $GPGSV,3,2,10,15,11,032,36,18,45,066,28,24,00,067,31,27,66,201,*78
145: $GPGSV,3,3,10,28,04,345,29,32,05,221,*7A
146: $GPGLL,5351.54700,N,02729.11273,E,110145.00,A,A*65
147: $GPRMC,110146.00,A,5351.54642,N,02729.11251,E,0.209,,211015,,,A*75
147: $GPVTG,,T,,M,0.209,N,0.387,K,A*24
147: $GPGGA,110146.00,5351.54642,N,02729.11251,E,1,04,4.36,229.9,M,25.1,M,,*57
147: $GPGSA,A,3,28,18,15,24,,,,,,,,,4.98,4.36,2.40*01
147: $GPGSV,3,1,11,01,04,276,,04,29,277,,08,56,286,,11,15,288,*71
147: $GPGSV,3,2,11,14,23,142,,15,11,032,37,18,45,066,28,24,00,067,31*7D
147: $GPGSV,3,3,11,27,66,201,,28,04,345,29,32,05,221,*4D
148: $GPGLL,5351.54642,N,02729.11251,E,110146.00,A,A*61
149: $GPRMC,110147.00,A,5351.54586,N,02729.11229,E,0.841,,211015,,,A*76
149: $GPVTG,,T,,M,0.841,N,1.557,K,A*28
149: $GPGGA,110147.00,5351.54586,N,02729.11229,E,1,04,4.36,229.5,M,25.1,M,,*5E
149: $GPGSA,A,3,28,18,15,24,,,,,,,,,4.98,4.36,2.40*01
149: $GPGSV,3,1,11,01,04,276,,04,29,277,,08,56,286,,11,15,288,*71
149: $GPGSV,3,2,11,14,23,142,,15,11,032,37,18,45,066,27,24,00,067,31*72
149: $GPGSV,3,3,11,27,66,201,,28,04,345,29,32,06,221,*4E
150: $GPGLL,5351.54586,N,02729.11229,E,110147.00,A,A*64
151: $GPRMC,110148.00,A,5351.54526,N,02729.11201,E,1.467,,211015,,,A*70
151: $GPVTG,,T,,M,1.467,N,2.718,K,A*2B
151: $GPGGA,110148.00,5351.54526,N,02729.11201,E,1,04,4.36,229.3,M,25.1,M,,*57
151: $GPGSA,A,3,28,18,15,24,,,,,,,,,4.98,4.36,2.40*01
151: $GPGSV,3,1,11,01,04,276,,04,29,277,,08,56,286,,11,15,288,*71
151: $GPGSV,3,2,11,14,23,142,,15,11,032,37,18,45,066,27,24,00,067,31*72
151: $GPGSV,3,3,11,27,66,201,,28,04,345,29,32,06,221,*4E
152: $GPGLL,5351.54526,N,02729.11201,E,110148.00,A,A*6B
153: $GPRMC,110149.00,A,5351.54472,N,02729.11184,E,0.667,,211015,,,A*7C
153: $GPVTG,,T,,M,0.667,N,1.235,K,A*21
153: $GPGGA,110149.00,5351.54472,N,02729.11184,E,1,04,4.36,229.2,M,25.1,M,,*59
153: $GPGSA,A,3,28,18,15,24,,,,,,,,,4.98,4.36,2.40*01
153: $GPGSV,3,1,11,01,04,276,,04,29,277,,08,56,286,,11,15,288,*71
153: $GPGSV,3,2,11,14,23,142,,15,11,032,37,18,45,066,26,24,00,067,31*73
153: $GPGSV,3,3,11,27,66,201,,28,04,345,29,32,06,221,*4E
154: $GPGLL,5351.54472,N,02729.11184,E,110149.00,A,A*64
155: $GPRMC,110150.00,A,5351.54418,N,02729.11163,E,0.382,,211015,,,A*7F
155: $GPVTG,,T,,M,0.382,N,0.707,K,A*2A
155: $GPGGA,110150.00,5351.54418,N,02729.11163,E,1,04,4.37,229.1,M,25.1,M,,*56
155: $GPGSA,A,3,28,18,15,24,,,,,,,,,4.98,4.37,2.40*00
155: $GPGSV,3,1,11,01,04,276,,04,29,277,,08,56,286,,11,15,288,*71
155: $GPGSV,3,2,11,14,23,142,,15,11,032,37,18,45,066,26,24,00,067,31*73
155: $GPGSV,3,3,11,27,66,201,,28,04,345,28,32,06,221,*4F
156: $GPGLL,5351.54418,N,02729.11163,E,110150.00,A,A*69
157: $GPRMC,110151.00,A,5351.54367,N,02729.11144,E,0.350,,211015,,,A*7B
157: $GPVTG,,T,,M,0.350,N,0.649,K,A*2E
157: $GPGGA,110151.00,5351.54367,N,02729.11144,E,1,04,4.37,228.9,M,25.1,M,,*54
157: $GPGSA,A,3,28,18,15,24,,,,,,,,,4.98,4.37,2.40*00
157: $GPGSV,3,1,11,01,04,276,,04,29,277,,08,56,286,,11,15,288,*71
157: $GPGSV,3,2,11,14,23,142,,15,11,032,37,18,45,066,26,24,00,067,31*73
157: $GPGSV,3,3,11,27,66,201,,28,04,345,29,32,06,221,*4E
158: $GPGLL,5351.54367,N,02729.11144,E,110151.00,A,A*62
159: $GPRMC,110152.00,A,5351.54327,N,02729.11137,E,1.134,,211015,,,A*79
159: $GPVTG,,T,,M,1.134,N,2.101,K,A*26
159: $GPGGA,110152.00,5351.54327,N,02729.11137,E,1,04,4.37,228.6,M,25.1,M,,*58
159: $GPGSA,A,3,28,18,15,24,,,,,,,,,4.98,4.37,2.40*00
159: $GPGSV,3,1,11,01,04,276,,04,29,277,,08,56,286,,11,15,288,*71
159: $GPGSV,3,2,11,14,23,142,,15,11,032,37,18,45,066,26,24,00,067,31*73
159: $GPGSV,3,3,11,27,66,201,,28,04,345,29,32,06,221,*4E
160: $GPGLL,5351.54327,N,02729.11137,E,110152.00,A,A*61
161: $GPRMC,110153.00,A,5351.54307,N,02729.11155,E,0.541,,211015,,,A*79
161: $GPVTG,,T,,M,0.541,N,1.002,K,A*20
161: $GPGGA,110153.00,5351.54307,N,02729.11155,E,1,04,4.37,228.4,M,25.1,M,,*5D
161: $GPGSA,A,3,28,18,15,24,,,,,,,,,4.99,4.37,2.40*01
161: $GPGSV,3,1,11,01,04,276,,04,29,277,,08,56,286,,11,15,288,*71
161: $GPGSV,3,2,11,14,23,142,,15,11,032,37,18,45,066,26,24,00,067,31*73
161: $GPGSV,3,3,11,27,66,201,,28,04,345,29,32,06,221,*4E
162: $GPGLL,5351.54307,N,02729.11155,E,110153.00,A,A*66
163: $GPRMC,110154.00,A,5351.54273,N,02729.11153,E,1.067,,211015,,,A*7A
163: $GPVTG,,T,,M,1.067,N,1.977,K,A*2B
163: $GPGGA,110154.00,5351.54273,N,02729.11153,E,1,04,4.37,228.0,M,25.1,M,,*5A
163: $GPGSA,A,3,28,18,15,24,,,,,,,,,4.99,4.37,2.40*01
163: $GPGSV,3,1,11,01,04,276,,04,29,277,,08,56,286,,11,15,288,*71
163: $GPGSV,3,2,11,14,23,142,,15,11,032,37,18,45,066,26,24,00,067,31*73
163: $GPGSV,3,3,11,27,66,201,,28,04,345,29,32,06,221,*4E
164: $GPGLL,5351.54273,N,02729.11153,E,110154.00,A,A*65
165: $GPRMC,110155.00,A,5351.54254,N,02729.11146,E,1.578,,211015,,,A*71
165: $GPVTG,,T,,M,1.578,N,2.923,K,A*22
165: $GPGGA,110155.00,5351.54254,N,02729.11146,E,1,04,4.37,227.9,M,25.1,M,,*5C
165: $GPGSA,A,3,28,18,15,24,,,,,,,,,4.99,4.37,2.40*01
165: $GPGSV,3,1,11,01,04,276,,04,29,277,,08,56,286,,11,15,288,*71
165: $GPGSV,3,2,11,14,23,142,,15,11,032,37,18,45,066,25,24,00,067,30*71
165: $GPGSV,3,3,11,27,66,201,,28,04,345,29,32,06,221,*4E
166: $GPGLL,5351.54254,N,02729.11146,E,110155.00,A,A*65
167: $GPRMC,110156.00,A,5351.54247,N,02729.11165,E,0.621,,211015,,,A*7F
167: $GPVTG,,T,,M,0.621,N,1.151,K,A*22
167: $GPGGA,110156.00,5351.54247,N,02729.11165,E,1,04,4.37,227.5,M,25.1,M,,*50
167: $GPGSA,A,3,28,18,15,24,,,,,,,,,4.99,4.37,2.41*00
167: $GPGSV,3,1,11,01,04,276,,04,29,277,,08,56,286,,11,15,288,*71
167: $GPGSV,3,2,11,14,23,142,,15,11,032,36,18,45,066,25,24,00,067,29*78
167: $GPGSV,3,3,11,27,66,201,,28,04,345,30,32,06,221,*46
168: $GPGLL,5351.54247,N,02729.11165,E,110156.00,A,A*65
169: $GPRMC,110157.00,A,5351.54230,N,02729.11181,E,0.446,,211015,,,A*77
169: $GPVTG,,T,,M,0.446,N,0.826,K,A*29
169: $GPGGA,110157.00,5351.54230,N,02729.11181,E,1,04,4.37,227.2,M,25.1,M,,*5C
169: $GPGSA,A,3,28,18,15,24,,,,,,,,,4.99,4.37,2.41*00
169: $GPGSV,3,1,11,01,04,276,,04,29,277,,08,56,286,,11,15,288,*71
169: $GPGSV,3,2,11,14,23,142,,15,11,032,37,18,45,066,24,24,00,067,30*70
169: $GPGSV,3,3,11,27,66,201,,28,04,345,30,32,06,221,*46
170: $GPGLL,5351.54230,N,02729.11181,E,110157.00,A,A*6E
171: $GPRMC,110158.00,A,5351.54197,N,02729.11172,E,0.244,,211015,,,A*7E
171: $GPVTG,,T,,M,0.244,N,0.451,K,A*21
171: $GPGGA,110158.00,5351.54197,N,02729.11172,E,1,04,4.37,227.1,M,25.1,M,,*52
171: $GPGSA,A,3,28,18,15,24,,,,,,,,,4.99,4.37,2.41*00
171: $GPGSV,3,1,11,01,04,276,,04,29,277,,08,56,286,,11,15,288,*71
171: $GPGSV,3,2,11,14,23,142,,15,11,032,36,18,45,066,22,24,00,067,30*77
171: $GPGSV,3,3,11,27,66,201,,28,04,345,30,32,06,221,*46
172: $GPGLL,5351.54197,N,02729.11172,E,110158.00,A,A*63
173: $GPRMC,110159.00,A,5351.54173,N,02729.11168,E,0.530,,211015,,,A*7A
173: $GPVTG,,T,,M,0.530,N,0.982,K,A*26
173: $GPGGA,110159.00,5351.54173,N,02729.11168,E,1,04,4.37,226.5,M,25.1,M,,*57
173: $GPGSA,A,3,28,18,15,24,,,,,,,,,4.99,4.37,2.41*00
173: $GPGSV,3,1,11,01,04,276,,04,29,277,,08,56,286,,11,15,288,*71
173: $GPGSV,3,2,11,14,23,142,,15,11,032,36,18,45,066,21,24,00,067,30*74
173: $GPGSV,3,3,11,27,66,201,,28,04,345,30,32,06,221,*46
174: $GPGLL,5351.54173,N,02729.11168,E,110159.00,A,A*63
175: $GPRMC,110200.00,A,5351.54153,N,02729.11146,E,0.538,,211015,,,A*73
175: $GPVTG,,T,,M,0.538,N,0.997,K,A*2A
175: $GPGGA,110200.00,5351.54153,N,02729.11146,E,1,04,4.37,225.7,M,25.1,M,,*57
175: $GPGSA,A,3,28,18,15,24,,,,,,,,,4.99,4.37,2.41*00
175: $GPGSV,3,1,11,01,04,276,,04,29,277,,08,56,286,,11,15,288,*71
175: $GPGSV,3,2,11,14,23,142,,15,11,032,36,18,45,066,21,24,00,067,29*7C
175: $GPGSV,3,3,11,27,66,201,,28,04,345,30,32,06,221,*46
176: $GPGLL,5351.54153,N,02729.11146,E,110200.00,A,A*62
177: $GPRMC,110201.00,A,5351.54118,N,02729.11142,E,0.991,,211015,,,A*76
177: $GPVTG,,T,,M,0.991,N,1.836,K,A*2E
177: $GPGGA,110201.00,5351.54118,N,02729.11142,E,1,04,4.37,225.8,M,25.1,M,,*52
177: $GPGSA,A,3,28,18,15,24,,,,,,,,,4.99,4.37,2.41*00
177: $GPGSV,3,1,11,01,04,276,,04,29,277,,08,56,286,,11,15,288,*71
177: $GPGSV,3,2,11,14,23,142,,15,11,032,36,18,45,066,20,24,00,067,30*75
177: $GPGSV,3,3,11,27,66,201,,28,04,345,30,32,06,221,*46
178: $GPGLL,5351.54118,N,02729.11142,E,110201.00,A,A*68
179: $GPRMC,110202.00,A,5351.54102,N,02729.11148,E,0.566,,211015,,,A*70
179: $GPVTG,,T,,M,0.566,N,1.047,K,A*24
179: $GPGGA,110202.00,5351.54102,N,02729.11148,E,1,04,4.37,225.3,M,25.1,M,,*5B
179: $GPGSA,A,3,28,18,15,24,,,,,,,,,4.99,4.37,2.41*00
179: $GPGSV,3,1,11,01,04,276,,04,29,277,,08,56,286,,11,15,288,*71
179: $GPGSV,3,2,11,14,23,142,,15,11,032,36,18,45,066,20,24,00,067,30*75
179: $GPGSV,3,3,11,27,66,201,,28,04,345,30,32,06,221,*46
180: $GPGLL,5351.54102,N,02729.11148,E,110202.00,A,A*6A
181: $GPRMC,110203.00,A,5351.54096,N,02729.11167,E,0.269,,211015,,,A*78
181: $GPVTG,,T,,M,0.269,N,0.498,K,A*2B
181: $GPGGA,110203.00,5351.54096,N,02729.11167,E,1,04,4.37,224.7,M,25.1,M,,*5E
181: $GPGSA,A,3,28,18,15,24,,,,,,,,,4.99,4.37,2.41*00
181: $GPGSV,3,1,11,01,04,276,,04,29,277,,08,56,286,,11,15,288,*71
181: $GPGSV,3,2,11,14,23,142,,15,11,032,36,18,45,066,21,24,00,067,31*75
181: $GPGSV,3,3,11,27,66,201,,28,04,345,30,32,06,221,*46
182: $GPGLL,5351.54096,N,02729.11167,E,110203.00,A,A*6A
183: $GPRMC,110204.00,A,5351.54094,N,02729.11188,E,0.389,,211015,,,A*73
183: $GPVTG,,T,,M,0.389,N,0.721,K,A*25
183: $GPGGA,110204.00,5351.54094,N,02729.11188,E,1,04,4.38,224.0,M,25.1,M,,*52
183: $GPGSA,A,3,28,18,15,24,,,,,,,,,5.00,4.38,2.41*0E
183: $GPGSV,3,1,11,01,04,276,,04,29,277,,08,56,286,,11,15,288,*71
183: $GPGSV,3,2,11,14,23,142,,15,11,032,36,18,45,066,22,24,00,067,31*76
183: $GPGSV,3,3,11,27,66,201,18,28,04,345,29,32,06,221,*47
184: $GPGLL,5351.54094,N,02729.11188,E,110204.00,A,A*6E
185: $GPRMC,110205.00,A,5351.54076,N,02729.11183,E,1.312,,211015,,,A*76
185: $GPVTG,,T,,M,1.312,N,2.430,K,A*27
185: $GPGGA,110205.00,5351.54076,N,02729.11183,E,1,04,4.38,223.4,M,25.1,M,,*57
185: $GPGSA,A,3,28,18,15,24,,,,,,,,,5.00,4.38,2.41*0E
185: $GPGSV,3,1,11,01,04,276,,04,29,277,,08,56,286,,11,15,288,*71
185: $GPGSV,3,2,11,14,23,142,,15,11,032,37,18,45,066,22,24,00,067,32*74
185: $GPGSV,3,3,11,27,66,201,17,28,04,345,29,32,06,221,*48
186: $GPGLL,5351.54076,N,02729.11183,E,110205.00,A,A*68
187: $GPRMC,110206.00,A,5351.54060,N,02729.11191,E,1.273,208.41,211015,,,A*66
187: $GPVTG,208.41,T,,M,1.273,N,2.358,K,A*39
187: $GPGGA,110206.00,5351.54060,N,02729.11191,E,1,04,4.38,223.0,M,25.1,M,,*54
187: $GPGSA,A,3,28,18,15,24,,,,,,,,,5.00,4.38,2.41*0E
187: $GPGSV,3,1,11,01,04,276,,04,29,277,,08,56,286,,11,15,288,*71
187: $GPGSV,3,2,11,14,23,142,,15,11,032,36,18,45,066,23,24,00,067,32*74
187: $GPGSV,3,3,11,27,66,201,16,28,04,345,29,32,06,221,*49
188: $GPGLL,5351.54060,N,02729.11191,E,110206.00,A,A*6F
189: $GPRMC,110207.00,A,5351.54051,N,02729.11200,E,0.215,,211015,,,A*7E
189: $GPVTG,,T,,M,0.215,N,0.399,K,A*26
189: $GPGGA,110207.00,5351.54051,N,02729.11200,E,1,04,4.38,222.3,M,25.1,M,,*5E
189: $GPGSA,A,3,28,18,15,24,,,,,,,,,5.00,4.38,2.41*0E
189: $GPGSV,3,1,11,01,04,276,,04,29,277,,08,56,286,,11,15,288,*71
189: $GPGSV,3,2,11,14,23,142,,15,11,032,36,18,45,066,23,24,00,067,31*77
189: $GPGSV,3,3,11,27,66,201,16,28,04,345,29,32,06,221,*49
190: $GPGLL,5351.54051,N,02729.11200,E,110207.00,A,A*67
191: $GPRMC,110208.00,A,5351.54047,N,02729.11194,E,0.597,,211015,,,A*75
191: $GPVTG,,T,,M,0.597,N,1.106,K,A*2E
191: $GPGGA,110208.00,5351.54047,N,02729.11194,E,1,04,4.38,221.1,M,25.1,M,,*59
191: $GPGSA,A,3,28,18,15,24,,,,,,,,,5.00,4.38,2.41*0E
191: $GPGSV,3,1,11,01,04,276,,04,29,277,,08,56,286,,11,15,288,*71
191: $GPGSV,3,2,11,14,23,142,,15,11,032,36,18,45,066,22,24,00,067,31*76
191: $GPGSV,3,3,11,27,66,201,15,28,04,345,29,32,06,221,*4A
192: $GPGLL,5351.54047,N,02729.11194,E,110208.00,A,A*61
193: $GPRMC,110209.00,A,5351.54073,N,02729.11224,E,0.254,,211015,,,A*73
193: $GPVTG,,T,,M,0.254,N,0.470,K,A*23
193: $GPGGA,110209.00,5351.54073,N,02729.11224,E,1,04,4.38,219.8,M,25.1,M,,*55
193: $GPGSA,A,3,28,18,15,24,,,,,,,,,5.00,4.38,2.42*0D
193: $GPGSV,3,1,11,01,04,276,,04,29,277,,08,56,286,,11,15,288,*71
193: $GPGSV,3,2,11,14,23,142,,15,11,032,36,18,45,066,20,24,00,067,31*74
193: $GPGSV,3,3,11,27,66,201,15,28,04,345,29,32,06,221,*4A
194: $GPGLL,5351.54073,N,02729.11224,E,110209.00,A,A*6F
195: $GPRMC,110210.00,A,5351.54134,N,02729.11283,E,0.078,,211015,,,A*78
195: $GPVTG,,T,,M,0.078,N,0.144,K,A*2D
195: $GPGGA,110210.00,5351.54134,N,02729.11283,E,1,04,4.38,217.4,M,25.1,M,,*50
195: $GPGSA,A,3,28,18,15,24,,,,,,,,,5.00,4.38,2.42*0D
195: $GPGSV,3,1,11,01,04,276,,04,29,277,,08,56,286,,11,15,288,*71
195: $GPGSV,3,2,11,14,23,142,,15,11,032,36,18,45,066,18,24,00,067,32*7C
195: $GPGSV,3,3,11,27,66,201,14,28,04,345,29,32,06,221,*4B
196: $GPGLL,5351.54134,N,02729.11283,E,110210.00,A,A*68
197: $GPRMC,110211.00,A,5351.54157,N,02729.11308,E,0.675,,211015,,,A*75
197: $GPVTG,,T,,M,0.675,N,1.251,K,A*20
197: $GPGGA,110211.00,5351.54157,N,02729.11308,E,1,04,4.38,215.6,M,25.1,M,,*56
197: $GPGSA,A,3,28,18,15,24,,,,,,,,,5.00,4.38,2.42*0D
197: $GPGSV,3,1,11,01,04,276,,04,29,277,,08,56,286,,11,15,288,*71
197: $GPGSV,3,2,11,14,23,142,,15,11,032,37,18,45,066,18,24,00,067,32*7D
197: $GPGSV,3,3,11,27,66,201,14,28,04,345,29,32,06,221,*4B
198: $GPGLL,5351.54157,N,02729.11308,E,110211.00,A,A*6E
199: $GPRMC,110212.00,A,5351.54175,N,02729.11330,E,2.330,,211015,,,A*7B
199: $GPVTG,,T,,M,2.330,N,4.315,K,A*22
199: $GPGGA,110212.00,5351.54175,N,02729.11330,E,1,04,4.38,214.4,M,25.1,M,,*5D
199: $GPGSA,A,3,28,18,15,24,,,,,,,,,5.00,4.38,2.42*0D
199: $GPGSV,3,1,11,01,04,276,,04,29,277,,08,56,286,,11,15,288,*71
199: $GPGSV,3,2,11,14,23,142,,15,11,032,37,18,45,066,19,24,00,067,31*7F
199: $GPGSV,3,3,11,27,66,201,15,28,04,345,29,32,06,221,*4A
200: $GPGLL,5351.54175,N,02729.11330,E,110212.00,A,A*66
201: $GPRMC,110213.00,A,5351.54189,N,02729.11349,E,3.237,,211015,,,A*70
201: $GPVTG,,T,,M,3.237,N,5.996,K,A*25
201: $GPGGA,110213.00,5351.54189,N,02729.11349,E,1,04,4.38,213.5,M,25.1,M,,*57
201: $GPGSA,A,3,28,18,15,24,,,,,,,,,5.00,4.38,2.42*0D
201: $GPGSV,3,1,11,01,04,276,,04,29,277,,08,56,286,,11,15,288,*71
201: $GPGSV,3,2,11,14,23,142,,15,11,032,37,18,45,066,19,24,00,067,31*7F
201: $GPGSV,3,3,11,27,66,201,15,28,04,345,29,32,06,221,*4A
202: $GPGLL,5351.54189,N,02729.11349,E,110213.00,A,A*6A
203: $GPRMC,110214.00,A,5351.54154,N,02729.11341,E,1.733,,211015,,,A*7C
203: $GPVTG,,T,,M,1.733,N,3.209,K,A*2D
203: $GPGGA,110214.00,5351.54154,N,02729.11341,E,1,04,4.38,213.0,M,25.1,M,,*5D
203: $GPGSA,A,3,28,18,15,24,,,,,,,,,5.01,4.38,2.42*0C
203: $GPGSV,3,1,11,01,04,276,,04,29,277,,08,56,286,,11,15,288,*71
203: $GPGSV,3,2,11,14,23,142,,15,11,032,37,18,45,066,21,24,00,067,32*77
203: $GPGSV,3,3,11,27,66,201,15,28,04,345,29,32,06,221,*4A
204: $GPGLL,5351.54154,N,02729.11341,E,110214.00,A,A*65
205: $GPRMC,110215.00,A,5351.54125,N,02729.11334,E,0.601,,211015,,,A*78
205: $GPVTG,,T,,M,0.601,N,1.114,K,A*21
205: $GPGGA,110215.00,5351.54125,N,02729.11334,E,1,04,4.38,212.4,M,25.1,M,,*5D
205: $GPGSA,A,3,28,18,15,24,,,,,,,,,5.01,4.38,2.42*0C
205: $GPGSV,3,1,11,01,04,276,,04,29,277,,08,56,286,,11,15,288,*71
205: $GPGSV,3,2,11,14,23,142,,15,11,032,37,18,45,066,22,24,00,067,32*74
205: $GPGSV,3,3,11,27,66,201,12,28,04,345,29,32,06,221,*4D
206: $GPGLL,5351.54125,N,02729.11334,E,110215.00,A,A*60
