1: $GPGGA,110011.00,5351.46919,N,02729.10708,E,1,03,3.72,125.8,M,25.1,M,,*50
2: $GPGGA,110012.00,5351.47073,N,02729.10768,E,1,03,3.72,124.8,M,25.1,M,,*50
3: $GPGGA,110013.00,5351.47370,N,02729.10835,E,1,03,3.72,123.6,M,25.1,M,,*5F
4: $GPGGA,110014.00,5351.47567,N,02729.10909,E,1,03,3.72,124.4,M,25.1,M,,*53
5: $GPGGA,110015.00,5351.47771,N,02729.10979,E,1,03,3.72,124.6,M,25.1,M,,*52
6: $GPGGA,110016.00,5351.47797,N,02729.10990,E,1,03,3.72,125.2,M,25.1,M,,*5B
7: $GPGGA,110017.00,5351.47951,N,02729.11045,E,1,03,3.72,125.3,M,25.1,M,,*5F
8: $GPGGA,110018.00,5351.48091,N,02729.11094,E,1,03,3.72,124.4,M,25.1,M,,*50
9: $GPGGA,110019.00,5351.48210,N,02729.11163,E,1,03,3.72,123.0,M,25.1,M,,*50
10: $GPGGA,110020.00,5351.48439,N,02729.11264,E,1,03,3.72,123.6,M,25.1,M,,*55
11: $GPGGA,110021.00,5351.48602,N,02729.11334,E,1,03,3.72,124.1,M,25.1,M,,*5A
12: $GPGGA,110022.00,5351.48772,N,02729.11389,E,1,03,3.72,123.7,M,25.1,M,,*58
14: $GPGGA,110023.00,5351.48611,N,02729.11336,E,1,03,3.72,121.7,M,25.1,M,,*5B
15: $GPGGA,110024.00,5351.48844,N,02729.11432,E,1,03,3.72,118.5,M,25.1,M,,*59
16: $GPGGA,110025.00,5351.48977,N,02729.11498,E,1,03,3.72,117.9,M,25.1,M,,*5A
18: $GPGGA,110026.00,5351.48986,N,02729.11503,E,1,03,3.72,117.7,M,25.1,M,,*5A
19: $GPGGA,110027.00,5351.49062,N,02729.11529,E,1,03,3.72,117.4,M,25.1,M,,*52
20: $GPGGA,110028.00,5351.49151,N,02729.11535,E,1,03,3.72,118.4,M,25.1,M,,*5E
22: $GPGGA,110029.00,5351.49178,N,02729.11531,E,1,03,3.72,119.9,M,25.1,M,,*5C
24: $GPGGA,110030.00,5351.49254,N,02729.11549,E,1,03,3.72,121.3,M,25.1,M,,*57
25: $GPGGA,110031.00,5351.49324,N,02729.11555,E,1,03,3.73,120.8,M,25.1,M,,*56
27: $GPGGA,110032.00,5351.49356,N,02729.11556,E,1,03,3.73,120.4,M,25.1,M,,*5F
28: $GPGGA,110033.00,5351.49533,N,02729.11637,E,1,03,3.73,117.7,M,25.1,M,,*58
29: $GPGGA,110034.00,5351.49744,N,02729.11714,E,1,03,3.73,118.7,M,25.1,M,,*52
30: $GPGGA,110035.00,5351.49886,N,02729.11749,E,1,03,3.73,121.4,M,25.1,M,,*53
31: $GPGGA,110036.00,5351.49783,N,02729.11711,E,1,03,3.73,127.1,M,25.1,M,,*54
32: $GPGGA,110037.00,5351.49735,N,02729.11705,E,1,03,3.73,123.6,M,25.1,M,,*5E
34: $GPGGA,110038.00,5351.49688,N,02729.11689,E,1,03,3.73,120.0,M,25.1,M,,*56
36: $GPGGA,110039.00,5351.49705,N,02729.11683,E,1,03,3.73,120.0,M,25.1,M,,*59
38: $GPGGA,110040.00,5351.49699,N,02729.11665,E,1,03,3.73,119.8,M,25.1,M,,*59
40: $GPGGA,110041.00,5351.49802,N,02729.11677,E,1,03,3.73,116.8,M,25.1,M,,*58
42: $GPGGA,110042.00,5351.49989,N,02729.11742,E,1,03,3.73,112.6,M,25.1,M,,*54
44: $GPGGA,110043.00,5351.50156,N,02729.11806,E,1,03,3.73,113.8,M,25.1,M,,*57
45: $GPGGA,110044.00,5351.50293,N,02729.11846,E,1,03,3.73,117.0,M,25.1,M,,*52
46: $GPGGA,110045.00,5351.50247,N,02729.11815,E,1,03,3.73,117.6,M,25.1,M,,*5A
48: $GPGGA,110046.00,5351.50270,N,02729.11817,E,1,03,3.73,117.5,M,25.1,M,,*5C
50: $GPGGA,110047.00,5351.50316,N,02729.11816,E,1,03,3.73,119.9,M,25.1,M,,*5F
52: $GPGGA,110048.00,5351.50306,N,02729.11785,E,1,03,3.73,120.9,M,25.1,M,,*5E
53: $GPGGA,110049.00,5351.50306,N,02729.11762,E,1,03,3.73,120.7,M,25.1,M,,*58
55: $GPGGA,110050.00,5351.50286,N,02729.11739,E,1,03,3.73,122.9,M,25.1,M,,*5B
57: $GPGGA,110051.00,5351.50368,N,02729.11759,E,1,03,3.73,124.1,M,25.1,M,,*53
59: $GPGGA,110052.00,5351.50395,N,02729.11768,E,1,03,3.73,124.9,M,25.1,M,,*58
61: $GPGGA,110053.00,5351.50399,N,02729.11760,E,1,03,3.73,127.0,M,25.1,M,,*57
63: $GPGGA,110054.00,5351.50394,N,02729.11749,E,1,03,3.73,127.6,M,25.1,M,,*50
65: $GPGGA,110055.00,5351.50478,N,02729.11777,E,1,03,3.73,128.3,M,25.1,M,,*53
67: $GPGGA,110056.00,5351.50505,N,02729.11782,E,1,03,3.73,132.8,M,25.1,M,,*51
69: $GPGGA,110057.00,5351.50485,N,02729.11764,E,1,03,3.73,135.4,M,25.1,M,,*5A
71: $GPGGA,110058.00,5351.50449,N,02729.11751,E,1,03,3.73,136.6,M,25.1,M,,*52
73: $GPGGA,110059.00,5351.50410,N,02729.11751,E,1,03,3.73,137.2,M,25.1,M,,*5A
75: $GPGGA,110100.00,5351.50370,N,02729.11751,E,1,03,3.73,137.5,M,25.1,M,,*51
77: $GPGGA,110101.00,5351.50324,N,02729.11734,E,1,03,3.73,138.1,M,25.1,M,,*59
78: $GPGGA,110102.00,5351.50277,N,02729.11713,E,1,03,3.73,138.8,M,25.1,M,,*51
79: $GPGGA,110103.00,5351.50248,N,02729.11713,E,1,03,3.73,137.8,M,25.1,M,,*53
80: $GPGGA,110104.00,5351.55861,N,02729.12081,E,1,04,4.33,246.8,M,25.1,M,,*5E
81: $GPGGA,110105.00,5351.55770,N,02729.12072,E,1,04,4.34,248.7,M,25.1,M,,*5A
82: $GPGGA,110106.00,5351.55682,N,02729.11962,E,1,04,4.34,250.0,M,25.1,M,,*50
84: $GPGGA,110107.00,5351.55573,N,02729.11828,E,1,04,4.34,250.2,M,25.1,M,,*51
85: $GPGGA,110108.00,5351.55465,N,02729.11672,E,1,04,4.34,250.3,M,25.1,M,,*58
87: $GPGGA,110109.00,5351.55398,N,02729.11580,E,1,04,4.34,250.3,M,25.1,M,,*52
88: $GPGGA,110110.00,5351.55338,N,02729.11496,E,1,04,4.34,249.9,M,25.1,M,,*54
89: $GPGGA,110111.00,5351.55272,N,02729.11409,E,1,04,4.34,249.2,M,25.1,M,,*57
90: $GPGGA,110112.00,5351.55211,N,02729.11338,E,1,04,4.34,248.8,M,25.1,M,,*5F
92: $GPGGA,110113.00,5351.55146,N,02729.11285,E,1,04,4.34,248.7,M,25.1,M,,*57
93: $GPGGA,110114.00,5351.55088,N,02729.11242,E,1,04,4.34,248.7,M,25.1,M,,*58
94: $GPGGA,110115.00,5351.55019,N,02729.11169,E,1,04,4.34,248.7,M,25.1,M,,*5B
95: $GPGGA,110116.00,5351.54965,N,02729.11101,E,1,04,4.34,248.7,M,25.1,M,,*55
96: $GPGGA,110117.00,5351.54921,N,02729.11054,E,1,04,4.34,248.7,M,25.1,M,,*55
98: $GPGGA,110118.00,5351.54892,N,02729.11026,E,1,04,4.34,248.5,M,25.1,M,,*54
99: $GPGGA,110119.00,5351.54863,N,02729.11001,E,1,04,4.34,248.2,M,25.1,M,,*59
101: $GPGGA,110120.00,5351.54848,N,02729.10985,E,1,04,4.35,248.0,M,25.1,M,,*5D
103: $GPGGA,110121.00,5351.54829,N,02729.10963,E,1,04,4.35,247.4,M,25.1,M,,*58
104: $GPGGA,110122.00,5351.54829,N,02729.10972,E,1,04,4.35,246.8,M,25.1,M,,*56
105: $GPGGA,110123.00,5351.54826,N,02729.10987,E,1,04,4.35,246.1,M,25.1,M,,*5B
106: $GPGGA,110124.00,5351.54824,N,02729.10991,E,1,04,4.35,245.5,M,25.1,M,,*5E
107: $GPGGA,110125.00,5351.54840,N,02729.11005,E,1,04,4.35,244.9,M,25.1,M,,*55
109: $GPGGA,110126.00,5351.54841,N,02729.11005,E,1,04,4.35,244.1,M,25.1,M,,*5F
110: $GPGGA,110127.00,5351.54831,N,02729.10996,E,1,04,4.35,243.3,M,25.1,M,,*5E
112: $GPGGA,110128.00,5351.54839,N,02729.10998,E,1,04,4.35,242.4,M,25.1,M,,*51
113: $GPGGA,110129.00,5351.54854,N,02729.11003,E,1,04,4.35,241.7,M,25.1,M,,*51
115: $GPGGA,110130.00,5351.54864,N,02729.10999,E,1,04,4.35,241.0,M,25.1,M,,*56
117: $GPGGA,110131.00,5351.54885,N,02729.11020,E,1,04,4.35,240.1,M,25.1,M,,*52
119: $GPGGA,110132.00,5351.54907,N,02729.11046,E,1,04,4.35,239.4,M,25.1,M,,*51
121: $GPGGA,110133.00,5351.54916,N,02729.11048,E,1,04,4.35,238.7,M,25.1,M,,*5C
123: $GPGGA,110134.00,5351.54949,N,02729.11078,E,1,04,4.35,237.9,M,25.1,M,,*53
125: $GPGGA,110135.00,5351.54946,N,02729.11118,E,1,04,4.36,236.9,M,25.1,M,,*58
127: $GPGGA,110136.00,5351.54932,N,02729.11144,E,1,04,4.36,235.9,M,25.1,M,,*52
129: $GPGGA,110137.00,5351.54922,N,02729.11175,E,1,04,4.36,235.1,M,25.1,M,,*58
131: $GPGGA,110138.00,5351.54914,N,02729.11211,E,1,04,4.36,234.3,M,25.1,M,,*50
133: $GPGGA,110139.00,5351.54897,N,02729.11240,E,1,04,4.36,233.6,M,25.1,M,,*5D
135: $GPGGA,110140.00,5351.54875,N,02729.11261,E,1,04,4.36,233.1,M,25.1,M,,*5B
137: $GPGGA,110141.00,5351.54848,N,02729.11271,E,1,04,4.36,232.4,M,25.1,M,,*51
139: $GPGGA,110142.00,5351.54811,N,02729.11276,E,1,04,4.36,232.0,M,25.1,M,,*5D
141: $GPGGA,110143.00,5351.54778,N,02729.11277,E,1,04,4.36,231.5,M,25.1,M,,*5B
143: $GPGGA,110144.00,5351.54742,N,02729.11275,E,1,04,4.36,230.8,M,25.1,M,,*5B
145: $GPGGA,110145.00,5351.54700,N,02729.11273,E,1,04,4.36,230.3,M,25.1,M,,*51
147: $GPGGA,110146.00,5351.54642,N,02729.11251,E,1,04,4.36,229.9,M,25.1,M,,*57
149: $GPGGA,110147.00,5351.54586,N,02729.11229,E,1,04,4.36,229.5,M,25.1,M,,*5E
151: $GPGGA,110148.00,5351.54526,N,02729.11201,E,1,04,4.36,229.3,M,25.1,M,,*57
153: $GPGGA,110149.00,5351.54472,N,02729.11184,E,1,04,4.36,229.2,M,25.1,M,,*59
155: $GPGGA,110150.00,5351.54418,N,02729.11163,E,1,04,4.37,229.1,M,25.1,M,,*56
157: $GPGGA,110151.00,5351.54367,N,02729.11144,E,1,04,4.37,228.9,M,25.1,M,,*54
159: $GPGGA,110152.00,5351.54327,N,02729.11137,E,1,04,4.37,228.6,M,25.1,M,,*58
161: $GPGGA,110153.00,5351.54307,N,02729.11155,E,1,04,4.37,228.4,M,25.1,M,,*5D
163: $GPGGA,110154.00,5351.54273,N,02729.11153,E,1,04,4.37,228.0,M,25.1,M,,*5A
165: $GPGGA,110155.00,5351.54254,N,02729.11146,E,1,04,4.37,227.9,M,25.1,M,,*5C
167: $GPGGA,110156.00,5351.54247,N,02729.11165,E,1,04,4.37,227.5,M,25.1,M,,*50
169: $GPGGA,110157.00,5351.54230,N,02729.11181,E,1,04,4.37,227.2,M,25.1,M,,*5C
171: $GPGGA,110158.00,5351.54197,N,02729.11172,E,1,04,4.37,227.1,M,25.1,M,,*52
173: $GPGGA,110159.00,5351.54173,N,02729.11168,E,1,04,4.37,226.5,M,25.1,M,,*57
175: $GPGGA,110200.00,5351.54153,N,02729.11146,E,1,04,4.37,225.7,M,25.1,M,,*57
177: $GPGGA,110201.00,5351.54118,N,02729.11142,E,1,04,4.37,225.8,M,25.1,M,,*52
179: $GPGGA,110202.00,5351.54102,N,02729.11148,E,1,04,4.37,225.3,M,25.1,M,,*5B
181: $GPGGA,110203.00,5351.54096,N,02729.11167,E,1,04,4.37,224.7,M,25.1,M,,*5E
183: $GPGGA,110204.00,5351.54094,N,02729.11188,E,1,04,4.38,224.0,M,25.1,M,,*52
185: $GPGGA,110205.00,5351.54076,N,02729.11183,E,1,04,4.38,223.4,M,25.1,M,,*57
187: $GPGGA,110206.00,5351.54060,N,02729.11191,E,1,04,4.38,223.0,M,25.1,M,,*54
189: $GPGGA,110207.00,5351.54051,N,02729.11200,E,1,04,4.38,222.3,M,25.1,M,,*5E
191: $GPGGA,110208.00,5351.54047,N,02729.11194,E,1,04,4.38,221.1,M,25.1,M,,*59
193: $GPGGA,110209.00,5351.54073,N,02729.11224,E,1,04,4.38,219.8,M,25.1,M,,*55
195: $GPGGA,110210.00,5351.54134,N,02729.11283,E,1,04,4.38,217.4,M,25.1,M,,*50
197: $GPGGA,110211.00,5351.54157,N,02729.11308,E,1,04,4.38,215.6,M,25.1,M,,*56
199: $GPGGA,110212.00,5351.54175,N,02729.11330,E,1,04,4.38,214.4,M,25.1,M,,*5D
201: $GPGGA,110213.00,5351.54189,N,02729.11349,E,1,04,4.38,213.5,M,25.1,M,,*57
203: $GPGGA,110214.00,5351.54154,N,02729.11341,E,1,04,4.38,213.0,M,25.1,M,,*5D
205: $GPGGA,110215.00,5351.54125,N,02729.11334,E,1,04,4.38,212.4,M,25.1,M,,*5D
207: $GPGGA,110216.00,5351.54077,N,02729.11311,E,1,04,4.38,212.3,M,25.1,M,,*58
209: $GPGGA,110217.00,5351.54026,N,02729.11280,E,1,04,4.38,212.3,M,25.1,M,,*54
211: $GPGGA,110218.00,5351.54003,N,02729.11270,E,1,04,4.38,211.7,M,25.1,M,,*54
213: $GPGGA,110219.00,5351.53961,N,02729.11246,E,1,04,4.39,211.6,M,25.1,M,,*5A
215: $GPGGA,110220.00,5351.53934,N,02729.11233,E,1,04,4.39,211.2,M,25.1,M,,*56
217: $GPGGA,110221.00,5351.53884,N,02729.11195,E,1,04,4.39,211.4,M,25.1,M,,*54
219: $GPGGA,110222.00,5351.53831,N,02729.11170,E,1,04,4.39,212.4,M,25.1,M,,*51
221: $GPGGA,110223.00,5351.53785,N,02729.11151,E,1,04,4.39,213.0,M,25.1,M,,*56
223: $GPGGA,110224.00,5351.53735,N,02729.11117,E,1,04,4.39,213.5,M,25.1,M,,*5D
225: $GPGGA,110225.00,5351.53679,N,02729.11079,E,1,04,4.39,214.1,M,25.1,M,,*5F
227: $GPGGA,110226.00,5351.53625,N,02729.11051,E,1,04,4.39,214.9,M,25.1,M,,*57
229: $GPGGA,110227.00,5351.53595,N,02729.11067,E,1,04,4.39,216.0,M,25.1,M,,*50
231: $GPGGA,110228.00,5351.53547,N,02729.11031,E,1,04,4.39,216.6,M,25.1,M,,*55
233: $GPGGA,110229.00,5351.53509,N,02729.11014,E,1,04,4.39,217.1,M,25.1,M,,*5F
235: $GPGGA,110230.00,5351.53470,N,02729.10986,E,1,04,4.39,217.3,M,25.1,M,,*59
237: $GPGGA,110231.00,5351.53450,N,02729.10992,E,1,04,4.39,217.8,M,25.1,M,,*54
239: $GPGGA,110232.00,5351.53407,N,02729.10991,E,1,04,4.39,219.2,M,25.1,M,,*52
241: $GPGGA,110233.00,5351.53341,N,02729.10950,E,1,04,4.40,220.3,M,25.1,M,,*5E
243: $GPGGA,110234.00,5351.53245,N,02729.10896,E,1,04,4.40,222.3,M,25.1,M,,*55
245: $GPGGA,110235.00,5351.53195,N,02729.10879,E,1,04,4.40,223.1,M,25.1,M,,*58
247: $GPGGA,110236.00,5351.53154,N,02729.10859,E,1,04,4.40,223.7,M,25.1,M,,*52
249: $GPGGA,110237.00,5351.53134,N,02729.10872,E,1,04,4.40,224.3,M,25.1,M,,*5F
251: $GPGGA,110238.00,5351.53092,N,02729.10844,E,1,04,4.40,224.7,M,25.1,M,,*5C
253: $GPGGA,110239.00,5351.53068,N,02729.10830,E,1,04,4.40,224.7,M,25.1,M,,*5B
255: $GPGGA,110240.00,5351.53066,N,02729.10834,E,1,04,4.40,224.2,M,25.1,M,,*5A
257: $GPGGA,110241.00,5351.53074,N,02729.10861,E,1,04,4.40,223.8,M,25.1,M,,*55
259: $GPGGA,110242.00,5351.53062,N,02729.10867,E,1,04,4.40,223.4,M,25.1,M,,*5B
261: $GPGGA,110243.00,5351.53129,N,02729.10918,E,1,04,4.40,220.8,M,25.1,M,,*52
263: $GPGGA,110244.00,5351.53178,N,02729.10956,E,1,04,4.40,219.0,M,25.1,M,,*59
265: $GPGGA,110245.00,5351.53236,N,02729.11004,E,1,04,4.40,217.1,M,25.1,M,,*51
267: $GPGGA,110246.00,5351.53332,N,02729.11072,E,1,04,4.40,213.7,M,25.1,M,,*54
269: $GPGGA,110247.00,5351.53405,N,02729.11129,E,1,04,4.40,210.9,M,25.1,M,,*54
271: $GPGGA,110248.00,5351.53502,N,02729.11181,E,1,04,4.41,206.8,M,25.1,M,,*58
273: $GPGGA,110249.00,5351.53561,N,02729.11227,E,1,04,4.41,204.8,M,25.1,M,,*51
275: $GPGGA,110250.00,5351.53633,N,02729.11284,E,1,04,4.41,202.4,M,25.1,M,,*5E
277: $GPGGA,110251.00,5351.53674,N,02729.11316,E,1,04,4.41,200.6,M,25.1,M,,*56
279: $GPGGA,110252.00,5351.53776,N,02729.11410,E,1,04,4.41,197.4,M,25.1,M,,*58
281: $GPGGA,110253.00,5351.53878,N,02729.11488,E,1,04,4.41,194.1,M,25.1,M,,*5F
283: $GPGGA,110254.00,5351.53781,N,02729.11427,E,1,04,5.54,195.8,M,25.1,M,,*59
285: $GPGGA,110255.00,5351.53819,N,02729.11450,E,1,04,5.54,165.5,M,25.1,M,,*54
287: $GPGGA,110256.00,5351.53834,N,02729.11456,E,1,04,5.54,151.3,M,25.1,M,,*5F
289: $GPGGA,110257.00,5351.53839,N,02729.11441,E,1,04,5.53,147.1,M,25.1,M,,*57
291: $GPGGA,110258.00,5351.53840,N,02729.11420,E,1,04,5.53,145.4,M,25.1,M,,*56
293: $GPGGA,110259.00,5351.53673,N,02729.11541,E,1,04,4.41,211.5,M,25.1,M,,*5E
295: $GPGGA,110300.00,5351.53489,N,02729.11421,E,1,04,4.41,225.6,M,25.1,M,,*57
297: $GPGGA,110301.00,5351.53375,N,02729.11356,E,1,04,4.41,233.7,M,25.1,M,,*53
299: $GPGGA,110302.00,5351.53290,N,02729.11342,E,1,04,4.42,239.1,M,25.1,M,,*50
301: $GPGGA,110303.00,5351.53245,N,02729.11324,E,1,04,4.42,240.2,M,25.1,M,,*54
303: $GPGGA,110304.00,5351.53206,N,02729.11352,E,1,04,4.42,241.6,M,25.1,M,,*50
305: $GPGGA,110305.00,5351.53170,N,02729.11337,E,1,04,4.42,242.0,M,25.1,M,,*55
307: $GPGGA,110306.00,5351.53132,N,02729.11298,E,1,04,4.42,242.4,M,25.1,M,,*50
309: $GPGGA,110307.00,5351.53113,N,02729.11262,E,1,04,4.42,242.2,M,25.1,M,,*51
311: $GPGGA,110308.00,5351.53085,N,02729.11237,E,1,04,4.42,241.8,M,25.1,M,,*59
313: $GPGGA,110309.00,5351.53034,N,02729.11202,E,1,04,4.42,241.6,M,25.1,M,,*5A
315: $GPGGA,110310.00,5351.52985,N,02729.11155,E,1,04,4.42,241.5,M,25.1,M,,*52
317: $GPGGA,110311.00,5351.52937,N,02729.11099,E,1,04,4.42,241.7,M,25.1,M,,*59
319: $GPGGA,110312.00,5351.52890,N,02729.11053,E,1,04,4.42,241.4,M,25.1,M,,*53
321: $GPGGA,110313.00,5351.52901,N,02729.11046,E,1,04,4.42,238.6,M,25.1,M,,*53
323: $GPGGA,110314.00,5351.52876,N,02729.11022,E,1,04,4.42,237.6,M,25.1,M,,*58
325: $GPGGA,110315.00,5351.52859,N,02729.10996,E,1,04,4.42,236.5,M,25.1,M,,*51
327: $GPGGA,110316.00,5351.52849,N,02729.10982,E,1,04,4.43,235.5,M,25.1,M,,*54
329: $GPGGA,110317.00,5351.52839,N,02729.10968,E,1,04,4.43,234.4,M,25.1,M,,*56
331: $GPGGA,110318.00,5351.52831,N,02729.10952,E,1,04,4.43,232.7,M,25.1,M,,*5D
333: $GPGGA,110319.00,5351.52850,N,02729.10968,E,1,04,4.43,230.7,M,25.1,M,,*50
335: $GPGGA,110320.00,5351.52817,N,02729.10933,E,1,03,5.53,224.4,M,25.1,M,,*56
337: $GPGGA,110321.00,5351.52857,N,02729.10934,E,1,03,5.53,183.5,M,25.1,M,,*5B
339: $GPGGA,110322.00,5351.52910,N,02729.10949,E,1,03,5.53,166.8,M,25.1,M,,*56
341: $GPGGA,110323.00,5351.53289,N,02729.10944,E,1,04,4.43,169.1,M,25.1,M,,*51
343: $GPGGA,110324.00,5351.53448,N,02729.10922,E,1,04,4.43,165.2,M,25.1,M,,*52
345: $GPGGA,110325.00,5351.53567,N,02729.10972,E,1,04,5.53,148.9,M,25.1,M,,*5E
347: $GPGGA,110326.00,5351.53647,N,02729.11033,E,1,04,5.53,140.0,M,25.1,M,,*50
349: $GPGGA,110327.00,5351.53672,N,02729.11026,E,1,04,4.43,149.0,M,25.1,M,,*5A
351: $GPGGA,110328.00,5351.53601,N,02729.11066,E,1,04,4.43,156.8,M,25.1,M,,*53
353: $GPGGA,110329.00,5351.53524,N,02729.11100,E,1,04,4.43,163.7,M,25.1,M,,*5E
355: $GPGGA,110330.00,5351.53474,N,02729.11093,E,1,04,4.44,169.2,M,25.1,M,,*51
357: $GPGGA,110331.00,5351.53406,N,02729.11066,E,1,04,4.44,174.6,M,25.1,M,,*57
359: $GPGGA,110332.00,5351.53344,N,02729.11028,E,1,04,4.44,179.7,M,25.1,M,,*53
361: $GPGGA,110333.00,5351.53269,N,02729.10993,E,1,04,4.44,184.8,M,25.1,M,,*59
363: $GPGGA,110334.00,5351.53193,N,02729.10964,E,1,04,4.44,189.4,M,25.1,M,,*51
365: $GPGGA,110335.00,5351.53135,N,02729.10947,E,1,04,4.44,193.0,M,25.1,M,,*52
367: $GPGGA,110336.00,5351.53069,N,02729.10923,E,1,04,4.44,196.6,M,25.1,M,,*58
369: $GPGGA,110337.00,5351.53003,N,02729.10881,E,1,04,4.44,199.6,M,25.1,M,,*53
371: $GPGGA,110338.00,5351.52947,N,02729.10858,E,1,04,4.44,202.2,M,25.1,M,,*55
373: $GPGGA,110339.00,5351.52896,N,02729.10849,E,1,04,4.44,205.0,M,25.1,M,,*5C
375: $GPGGA,110338.00,5351.52841,N,02729.10842,E,1,04,4.44,207.7,M,25.1,M,,*59
377: $GPGGA,110339.00,5351.52780,N,02729.10817,E,1,04,4.44,210.1,M,25.1,M,,*5A
379: $GPGGA,110340.00,5351.52731,N,02729.10817,E,1,04,4.44,211.8,M,25.1,M,,*56
381: $GPGGA,110341.00,5351.52703,N,02729.10840,E,1,04,4.44,213.4,M,25.1,M,,*5A
383: $GPGGA,110342.00,5351.52675,N,02729.10862,E,1,04,4.45,214.8,M,25.1,M,,*53
385: $GPGGA,110343.00,5351.52639,N,02729.10869,E,1,04,4.45,215.9,M,25.1,M,,*51
387: $GPGGA,110344.00,5351.52602,N,02729.10866,E,1,04,4.45,217.0,M,25.1,M,,*5A
389: $GPGGA,110345.00,5351.52567,N,02729.10863,E,1,04,4.45,218.0,M,25.1,M,,*51
391: $GPGGA,110346.00,5351.52543,N,02729.10871,E,1,04,4.45,218.6,M,25.1,M,,*51
393: $GPGGA,110347.00,5351.52509,N,02729.10863,E,1,04,4.45,218.8,M,25.1,M,,*53
395: $GPGGA,110348.00,5351.52474,N,02729.10847,E,1,04,4.45,219.2,M,25.1,M,,*5A
397: $GPGGA,110349.00,5351.52442,N,02729.10836,E,1,04,4.45,219.8,M,25.1,M,,*52
399: $GPGGA,110350.00,5351.52392,N,02729.10825,E,1,04,4.45,220.3,M,25.1,M,,*53
401: $GPGGA,110351.00,5351.52348,N,02729.10811,E,1,04,4.45,220.5,M,25.1,M,,*54
403: $GPGGA,110352.00,5351.52307,N,02729.10778,E,1,03,5.52,213.8,M,25.1,M,,*51
405: $GPGGA,110353.00,5351.52293,N,02729.10755,E,1,03,5.52,177.3,M,25.1,M,,*59
407: $GPGGA,110354.00,5351.52316,N,02729.10762,E,1,03,5.52,159.3,M,25.1,M,,*5A
409: $GPGGA,110355.00,5351.52357,N,02729.10801,E,1,03,5.52,154.3,M,25.1,M,,*59
411: $GPGGA,110356.00,5351.52381,N,02729.10837,E,1,03,5.52,152.8,M,25.1,M,,*59
413: $GPGGA,110357.00,5351.52497,N,02729.11229,E,1,04,4.46,192.3,M,25.1,M,,*58
415: $GPGGA,110358.00,5351.52270,N,02729.11059,E,1,04,4.46,211.9,M,25.1,M,,*5F
417: $GPGGA,110359.00,5351.52049,N,02729.10935,E,1,04,4.46,225.3,M,25.1,M,,*59
419: $GPGGA,110400.00,5351.51880,N,02729.10818,E,1,04,4.46,234.7,M,25.1,M,,*56
421: $GPGGA,110401.00,5351.51787,N,02729.10754,E,1,04,4.46,239.7,M,25.1,M,,*55
423: $GPGGA,110402.00,5351.51802,N,02729.10780,E,1,04,4.46,241.7,M,25.1,M,,*52
425: $GPGGA,110403.00,5351.51852,N,02729.10828,E,1,04,4.46,242.9,M,25.1,M,,*56
427: $GPGGA,110404.00,5351.51907,N,02729.10868,E,1,04,4.46,241.9,M,25.1,M,,*57
429: $GPGGA,110405.00,5351.51803,N,02729.10809,E,1,04,4.46,245.4,M,25.1,M,,*5D
431: $GPGGA,110406.00,5351.51769,N,02729.10794,E,1,04,4.46,246.8,M,25.1,M,,*59
433: $GPGGA,110407.00,5351.51656,N,02729.10724,E,1,04,4.46,250.2,M,25.1,M,,*53
435: $GPGGA,110408.00,5351.51625,N,02729.10718,E,1,04,4.46,251.5,M,25.1,M,,*51
437: $GPGGA,110409.00,5351.51636,N,02729.10725,E,1,04,4.47,251.1,M,25.1,M,,*59
439: $GPGGA,110410.00,5351.51605,N,02729.10682,E,1,04,4.47,251.2,M,25.1,M,,*5E
441: $GPGGA,110411.00,5351.51549,N,02729.10636,E,1,04,4.47,251.5,M,25.1,M,,*5C
443: $GPGGA,110412.00,5351.51534,N,02729.10611,E,1,04,4.47,250.9,M,25.1,M,,*5D
445: $GPGGA,110413.00,5351.51512,N,02729.10579,E,1,04,4.47,250.5,M,25.1,M,,*59
447: $GPGGA,110414.00,5351.51498,N,02729.10556,E,1,04,4.47,249.7,M,25.1,M,,*5A
449: $GPGGA,110415.00,5351.51468,N,02729.10519,E,1,04,4.47,249.3,M,25.1,M,,*5B
451: $GPGGA,110416.00,5351.51459,N,02729.10511,E,1,04,4.47,248.4,M,25.1,M,,*54
453: $GPGGA,110417.00,5351.51450,N,02729.10510,E,1,04,4.47,247.5,M,25.1,M,,*53
455: $GPGGA,110418.00,5351.51437,N,02729.10515,E,1,04,4.47,247.1,M,25.1,M,,*5C
457: $GPGGA,110419.00,5351.51418,N,02729.10503,E,1,04,4.47,246.8,M,25.1,M,,*5F
459: $GPGGA,110420.00,5351.51403,N,02729.10492,E,1,04,4.47,246.6,M,25.1,M,,*58
461: $GPGGA,110421.00,5351.51396,N,02729.10491,E,1,04,4.47,246.4,M,25.1,M,,*53
463: $GPGGA,110422.00,5351.51386,N,02729.10492,E,1,04,4.48,246.1,M,25.1,M,,*58
465: $GPGGA,110423.00,5351.51377,N,02729.10488,E,1,04,4.48,245.3,M,25.1,M,,*5D
467: $GPGGA,110424.00,5351.51366,N,02729.10483,E,1,04,4.48,245.0,M,25.1,M,,*52
469: $GPGGA,110425.00,5351.51364,N,02729.10485,E,1,04,4.48,244.5,M,25.1,M,,*53
471: $GPGGA,110426.00,5351.51378,N,02729.10500,E,1,04,4.48,243.8,M,25.1,M,,*5B
473: $GPGGA,110427.00,5351.51379,N,02729.10494,E,1,04,4.48,243.2,M,25.1,M,,*5D
475: $GPGGA,110428.00,5351.51386,N,02729.10494,E,1,04,4.48,242.7,M,25.1,M,,*56
477: $GPGGA,110429.00,5351.51398,N,02729.10507,E,1,04,4.48,242.2,M,25.1,M,,*56
479: $GPGGA,110430.00,5351.51408,N,02729.10514,E,1,04,4.48,241.9,M,25.1,M,,*5A
481: $GPGGA,110431.00,5351.51428,N,02729.10536,E,1,04,4.48,241.7,M,25.1,M,,*57
483: $GPGGA,110432.00,5351.51429,N,02729.10542,E,1,04,4.48,241.7,M,25.1,M,,*56
485: $GPGGA,110433.00,5351.51411,N,02729.10536,E,1,04,4.48,242.4,M,25.1,M,,*5F
487: $GPGGA,110434.00,5351.51412,N,02729.10546,E,1,04,4.48,242.5,M,25.1,M,,*5D
489: $GPGGA,110435.00,5351.51404,N,02729.10562,E,1,04,4.48,243.1,M,25.1,M,,*58
491: $GPGGA,110436.00,5351.51407,N,02729.10581,E,1,04,4.49,243.0,M,25.1,M,,*55
493: $GPGGA,110437.00,5351.51391,N,02729.10577,E,1,04,4.49,243.3,M,25.1,M,,*56
495: $GPGGA,110438.00,5351.51367,N,02729.10565,E,1,04,4.49,243.8,M,25.1,M,,*58
497: $GPGGA,110439.00,5351.51350,N,02729.10568,E,1,04,4.49,244.3,M,25.1,M,,*5C
499: $GPGGA,110440.00,5351.51327,N,02729.10556,E,1,04,4.49,244.7,M,25.1,M,,*5B
501: $GPGGA,110441.00,5351.51301,N,02729.10543,E,1,04,4.49,245.2,M,25.1,M,,*5E
503: $GPGGA,110442.00,5351.51274,N,02729.10523,E,1,04,4.49,245.7,M,25.1,M,,*5D
505: $GPGGA,110443.00,5351.51249,N,02729.10500,E,1,04,4.49,246.0,M,25.1,M,,*57
507: $GPGGA,110444.00,5351.51227,N,02729.10497,E,1,04,4.49,246.5,M,25.1,M,,*52
509: $GPGGA,110445.00,5351.51201,N,02729.10492,E,1,04,4.49,246.9,M,25.1,M,,*5E
511: $GPGGA,110446.00,5351.51164,N,02729.10461,E,1,04,4.49,247.2,M,25.1,M,,*5B
513: $GPGGA,110447.00,5351.51138,N,02729.10449,E,1,04,4.49,247.5,M,25.1,M,,*5E
515: $GPGGA,110448.00,5351.51102,N,02729.10423,E,1,04,4.49,247.9,M,25.1,M,,*58
517: $GPGGA,110449.00,5351.51082,N,02729.10415,E,1,04,4.50,248.0,M,25.1,M,,*5B
519: $GPGGA,110450.00,5351.51051,N,02729.10395,E,1,04,4.50,248.0,M,25.1,M,,*52
521: $GPGGA,110451.00,5351.51018,N,02729.10384,E,1,04,4.50,248.7,M,25.1,M,,*59
523: $GPGGA,110452.00,5351.51001,N,02729.10380,E,1,04,4.50,249.0,M,25.1,M,,*50
525: $GPGGA,110453.00,5351.51006,N,02729.10404,E,1,04,4.50,249.0,M,25.1,M,,*5D
527: $GPGGA,110454.00,5351.50990,N,02729.10400,E,1,04,4.50,249.3,M,25.1,M,,*5A
529: $GPGGA,110455.00,5351.50980,N,02729.10396,E,1,04,4.50,249.3,M,25.1,M,,*52
531: $GPGGA,110456.00,5351.50979,N,02729.10397,E,1,04,4.50,249.3,M,25.1,M,,*56
533: $GPGGA,110457.00,5351.50982,N,02729.10404,E,1,04,4.50,249.2,M,25.1,M,,*5F
535: $GPGGA,110458.00,5351.50974,N,02729.10399,E,1,04,4.50,249.2,M,25.1,M,,*5A
537: $GPGGA,110459.00,5351.50941,N,02729.10366,E,1,04,4.50,249.8,M,25.1,M,,*57
539: $GPGGA,110500.00,5351.50921,N,02729.10346,E,1,04,4.50,250.2,M,25.1,M,,*5C
541: $GPGGA,110501.00,5351.50910,N,02729.10335,E,1,04,4.50,250.2,M,25.1,M,,*5B
543: $GPGGA,110502.00,5351.50889,N,02729.10322,E,1,04,4.51,250.8,M,25.1,M,,*54
545: $GPGGA,110503.00,5351.50864,N,02729.10311,E,1,04,4.51,251.7,M,25.1,M,,*58
547: $GPGGA,110504.00,5351.50870,N,02729.10325,E,1,04,4.51,251.5,M,25.1,M,,*5F
549: $GPGGA,110505.00,5351.50893,N,02729.10354,E,1,04,4.51,251.2,M,25.1,M,,*52
551: $GPGGA,110506.00,5351.50909,N,02729.10379,E,1,04,4.51,251.1,M,25.1,M,,*5F
553: $GPGGA,110507.00,5351.50930,N,02729.10399,E,1,04,4.51,250.3,M,25.1,M,,*59
555: $GPGGA,110508.00,5351.50900,N,02729.10372,E,1,04,4.51,250.9,M,25.1,M,,*5A
557: $GPGGA,110509.00,5351.50925,N,02729.10393,E,1,04,4.51,250.2,M,25.1,M,,*58
559: $GPGGA,110510.00,5351.50928,N,02729.10408,E,1,04,4.51,250.5,M,25.1,M,,*5F
561: $GPGGA,110511.00,5351.50910,N,02729.10407,E,1,04,4.51,251.1,M,25.1,M,,*5F
563: $GPGGA,110512.00,5351.50874,N,02729.10391,E,1,04,4.51,252.2,M,25.1,M,,*57
565: $GPGGA,110513.00,5351.50868,N,02729.10388,E,1,04,4.51,252.2,M,25.1,M,,*53
567: $GPGGA,110514.00,5351.50869,N,02729.10390,E,1,04,4.51,252.1,M,25.1,M,,*5F
569: $GPGGA,110515.00,5351.50882,N,02729.10409,E,1,04,4.52,251.6,M,25.1,M,,*5B
571: $GPGGA,110516.00,5351.50885,N,02729.10415,E,1,04,4.52,251.3,M,25.1,M,,*57
573: $GPGGA,110517.00,5351.50880,N,02729.10404,E,1,04,4.52,251.0,M,25.1,M,,*50
575: $GPGGA,110518.00,5351.50896,N,02729.10416,E,1,04,4.52,250.6,M,25.1,M,,*5C
577: $GPGGA,110519.00,5351.50920,N,02729.10440,E,1,04,4.52,250.1,M,25.1,M,,*55
579: $GPGGA,110520.00,5351.50948,N,02729.10463,E,1,04,4.52,249.6,M,25.1,M,,*5F
581: $GPGGA,110521.00,5351.50958,N,02729.10467,E,1,04,4.52,249.0,M,25.1,M,,*5D
583: $GPGGA,110522.00,5351.50963,N,02729.10472,E,1,04,4.52,248.6,M,25.1,M,,*55
585: $GPGGA,110523.00,5351.50984,N,02729.10503,E,1,04,4.52,248.4,M,25.1,M,,*58
587: $GPGGA,110524.00,5351.51001,N,02729.10522,E,1,04,4.52,248.0,M,25.1,M,,*5D
589: $GPGGA,110525.00,5351.51025,N,02729.10560,E,1,04,4.52,247.6,M,25.1,M,,*55
591: $GPGGA,110526.00,5351.51028,N,02729.10567,E,1,04,4.52,247.5,M,25.1,M,,*5F
593: $GPGGA,110527.00,5351.51030,N,02729.10569,E,1,04,4.52,247.4,M,25.1,M,,*58
595: $GPGGA,110528.00,5351.51029,N,02729.10570,E,1,04,4.53,247.4,M,25.1,M,,*56
597: $GPGGA,110529.00,5351.51017,N,02729.10552,E,1,04,4.53,247.3,M,25.1,M,,*5D
599: $GPGGA,110530.00,5351.51003,N,02729.10544,E,1,04,4.53,247.4,M,25.1,M,,*50
601: $GPGGA,110531.00,5351.50976,N,02729.10521,E,1,04,4.53,247.6,M,25.1,M,,*5A
603: $GPGGA,110532.00,5351.50959,N,02729.10505,E,1,04,4.53,247.6,M,25.1,M,,*52
605: $GPGGA,110533.00,5351.50949,N,02729.10504,E,1,04,4.53,247.4,M,25.1,M,,*51
607: $GPGGA,110534.00,5351.50918,N,02729.10476,E,1,04,4.53,247.5,M,25.1,M,,*57
609: $GPGGA,110535.00,5351.50886,N,02729.10450,E,1,04,4.53,247.7,M,25.1,M,,*56
611: $GPGGA,110536.00,5351.50861,N,02729.10435,E,1,04,4.53,248.1,M,25.1,M,,*56
613: $GPGGA,110537.00,5351.50822,N,02729.10405,E,1,04,4.53,248.7,M,25.1,M,,*55
615: $GPGGA,110538.00,5351.50796,N,02729.10383,E,1,04,4.53,249.1,M,25.1,M,,*54
617: $GPGGA,110539.00,5351.50781,N,02729.10365,E,1,04,4.53,249.1,M,25.1,M,,*5B
619: $GPGGA,110540.00,5351.50774,N,02729.10363,E,1,04,4.54,249.4,M,25.1,M,,*5B
621: $GPGGA,110541.00,5351.50778,N,02729.10377,E,1,04,4.54,249.7,M,25.1,M,,*50
623: $GPGGA,110542.00,5351.50799,N,02729.10413,E,1,04,4.54,249.5,M,25.1,M,,*5B
625: $GPGGA,110543.00,5351.50791,N,02729.10417,E,1,04,4.54,249.8,M,25.1,M,,*5B
627: $GPGGA,110544.00,5351.50789,N,02729.10425,E,1,04,4.54,249.8,M,25.1,M,,*54
629: $GPGGA,110545.00,5351.50795,N,02729.10439,E,1,04,4.54,249.9,M,25.1,M,,*54
631: $GPGGA,110546.00,5351.50809,N,02729.10464,E,1,04,4.54,249.7,M,25.1,M,,*5B
633: $GPGGA,110547.00,5351.50817,N,02729.10472,E,1,04,4.54,249.4,M,25.1,M,,*51
635: $GPGGA,110548.00,5351.50828,N,02729.10482,E,1,04,4.54,249.0,M,25.1,M,,*59
637: $GPGGA,110549.00,5351.50845,N,02729.10497,E,1,04,4.54,248.7,M,25.1,M,,*51
639: $GPGGA,110550.00,5351.50863,N,02729.10517,E,1,04,4.54,248.2,M,25.1,M,,*51
641: $GPGGA,110551.00,5351.50896,N,02729.10548,E,1,04,4.54,247.3,M,25.1,M,,*5E
643: $GPGGA,110552.00,5351.50920,N,02729.10577,E,1,04,4.54,246.6,M,25.1,M,,*59
645: $GPGGA,110553.00,5351.50932,N,02729.10588,E,1,04,4.55,246.2,M,25.1,M,,*5E
647: $GPGGA,110554.00,5351.50957,N,02729.10622,E,1,04,4.55,245.9,M,25.1,M,,*51
649: $GPGGA,110555.00,5351.50977,N,02729.10651,E,1,04,4.55,245.7,M,25.1,M,,*58
651: $GPGGA,110556.00,5351.50982,N,02729.10658,E,1,04,4.55,245.4,M,25.1,M,,*5B
653: $GPGGA,110557.00,5351.50987,N,02729.10666,E,1,04,4.55,245.3,M,25.1,M,,*55
655: $GPGGA,110558.00,5351.50999,N,02729.10685,E,1,04,4.55,245.3,M,25.1,M,,*58
657: $GPGGA,110559.00,5351.51013,N,02729.10707,E,1,04,4.55,245.1,M,25.1,M,,*5A
659: $GPGGA,110600.00,5351.51020,N,02729.10720,E,1,04,4.55,244.8,M,25.1,M,,*58
661: $GPGGA,110601.00,5351.51025,N,02729.10725,E,1,04,4.55,244.4,M,25.1,M,,*55
663: $GPGGA,110602.00,5351.51022,N,02729.10719,E,1,04,4.55,244.2,M,25.1,M,,*58
665: $GPGGA,110603.00,5351.51023,N,02729.10713,E,1,04,4.55,244.0,M,25.1,M,,*50
667: $GPGGA,110604.00,5351.51033,N,02729.10728,E,1,04,4.55,243.8,M,25.1,M,,*51
669: $GPGGA,110605.00,5351.51022,N,02729.10712,E,1,04,4.56,243.5,M,25.1,M,,*57
671: $GPGGA,110606.00,5351.51009,N,02729.10694,E,1,04,4.56,243.6,M,25.1,M,,*51
673: $GPGGA,110607.00,5351.51006,N,02729.10687,E,1,04,4.56,243.6,M,25.1,M,,*5D
675: $GPGGA,110608.00,5351.51002,N,02729.10683,E,1,04,4.56,243.6,M,25.1,M,,*52
677: $GPGGA,110609.00,5351.50999,N,02729.10688,E,1,04,4.56,243.6,M,25.1,M,,*52
679: $GPGGA,110610.00,5351.50986,N,02729.10671,E,1,04,4.56,243.7,M,25.1,M,,*53
681: $GPGGA,110611.00,5351.50974,N,02729.10654,E,1,04,4.56,243.8,M,25.1,M,,*57
683: $GPGGA,110612.00,5351.50962,N,02729.10641,E,1,04,4.56,243.9,M,25.1,M,,*56
685: $GPGGA,110613.00,5351.50957,N,02729.10637,E,1,04,4.56,244.0,M,25.1,M,,*5E
687: $GPGGA,110614.00,5351.50960,N,02729.10649,E,1,04,4.56,244.3,M,25.1,M,,*57
689: $GPGGA,110615.00,5351.50942,N,02729.10627,E,1,04,4.56,244.7,M,25.1,M,,*5A
691: $GPGGA,110616.00,5351.50942,N,02729.10630,E,1,04,4.56,245.2,M,25.1,M,,*5B
693: $GPGGA,110617.00,5351.50933,N,02729.10637,E,1,04,4.56,246.1,M,25.1,M,,*5B
695: $GPGGA,110618.00,5351.50925,N,02729.10627,E,1,04,4.57,246.1,M,25.1,M,,*53
697: $GPGGA,110619.00,5351.50900,N,02729.10607,E,1,04,4.57,246.7,M,25.1,M,,*51
699: $GPGGA,110620.00,5351.50880,N,02729.10600,E,1,04,4.57,247.5,M,25.1,M,,*56
701: $GPGGA,110621.00,5351.50867,N,02729.10596,E,1,04,4.57,248.0,M,25.1,M,,*58
703: $GPGGA,110622.00,5351.50863,N,02729.10602,E,1,04,4.57,248.5,M,25.1,M,,*54
705: $GPGGA,110623.00,5351.50850,N,02729.10595,E,1,04,4.57,249.0,M,25.1,M,,*5C
707: $GPGGA,110624.00,5351.50837,N,02729.10587,E,1,04,4.57,249.5,M,25.1,M,,*5C
709: $GPGGA,110625.00,5351.50837,N,02729.10594,E,1,04,4.57,249.7,M,25.1,M,,*5D
711: $GPGGA,110626.00,5351.50843,N,02729.10608,E,1,04,4.57,249.6,M,25.1,M,,*5A
713: $GPGGA,110627.00,5351.50844,N,02729.10610,E,1,04,4.57,249.5,M,25.1,M,,*56
715: $GPGGA,110628.00,5351.50831,N,02729.10598,E,1,04,4.57,249.7,M,25.1,M,,*5A
717: $GPGGA,110629.00,5351.50813,N,02729.10575,E,1,04,4.57,249.7,M,25.1,M,,*58
719: $GPGGA,110630.00,5351.50801,N,02729.10564,E,1,04,4.58,249.8,M,25.1,M,,*53
721: $GPGGA,110631.00,5351.50792,N,02729.10548,E,1,04,4.58,249.8,M,25.1,M,,*59
723: $GPGGA,110632.00,5351.50782,N,02729.10532,E,1,04,4.58,249.6,M,25.1,M,,*58
725: $GPGGA,110633.00,5351.50782,N,02729.10528,E,1,04,4.58,249.2,M,25.1,M,,*56
727: $GPGGA,110634.00,5351.50790,N,02729.10538,E,1,04,4.58,248.8,M,25.1,M,,*58
729: $GPGGA,110635.00,5351.50810,N,02729.10556,E,1,04,4.58,248.2,M,25.1,M,,*5C
731: $GPGGA,110636.00,5351.50838,N,02729.10577,E,1,04,4.58,247.2,M,25.1,M,,*59
733: $GPGGA,110637.00,5351.50850,N,02729.10583,E,1,04,4.58,246.6,M,25.1,M,,*58
735: $GPGGA,110638.00,5351.50875,N,02729.10605,E,1,04,4.58,245.9,M,25.1,M,,*51
737: $GPGGA,110639.00,5351.50888,N,02729.10621,E,1,04,4.58,245.4,M,25.1,M,,*59
739: $GPGGA,110640.00,5351.50886,N,02729.10619,E,1,04,4.58,244.9,M,25.1,M,,*5E
741: $GPGGA,110641.00,5351.50881,N,02729.10611,E,1,04,4.58,244.5,M,25.1,M,,*5C
743: $GPGGA,110642.00,5351.50881,N,02729.10609,E,1,04,4.59,244.4,M,25.1,M,,*56
745: $GPGGA,110643.00,5351.50877,N,02729.10595,E,1,04,4.59,244.1,M,25.1,M,,*5D
747: $GPGGA,110644.00,5351.50885,N,02729.10604,E,1,04,4.59,243.8,M,25.1,M,,*52
749: $GPGGA,110645.00,5351.50885,N,02729.10606,E,1,04,4.59,243.6,M,25.1,M,,*5F
751: $GPGGA,110646.00,5351.50880,N,02729.10596,E,1,04,4.59,243.5,M,25.1,M,,*50
753: $GPGGA,110647.00,5351.50889,N,02729.10600,E,1,04,4.59,243.5,M,25.1,M,,*54
755: $GPGGA,110648.00,5351.50907,N,02729.10620,E,1,04,4.59,243.3,M,25.1,M,,*58
757: $GPGGA,110649.00,5351.50912,N,02729.10627,E,1,04,4.59,243.4,M,25.1,M,,*5D
759: $GPGGA,110650.00,5351.50910,N,02729.10619,E,1,04,4.59,243.6,M,25.1,M,,*58
761: $GPGGA,110651.00,5351.50919,N,02729.10622,E,1,04,4.59,243.8,M,25.1,M,,*56
763: $GPGGA,110652.00,5351.50920,N,02729.10622,E,1,04,4.59,244.0,M,25.1,M,,*50
765: $GPGGA,110653.00,5351.50916,N,02729.10617,E,1,04,4.59,244.3,M,25.1,M,,*51
767: $GPGGA,110654.00,5351.50902,N,02729.10600,E,1,04,4.60,244.7,M,25.1,M,,*5B
769: $GPGGA,110655.00,5351.50891,N,02729.10588,E,1,04,4.60,245.2,M,25.1,M,,*56
771: $GPGGA,110656.00,5351.50883,N,02729.10595,E,1,04,4.60,246.2,M,25.1,M,,*59
773: $GPGGA,110657.00,5351.50866,N,02729.10595,E,1,04,4.60,247.2,M,25.1,M,,*52
775: $GPGGA,110658.00,5351.50866,N,02729.10602,E,1,04,4.60,247.2,M,25.1,M,,*50
777: $GPGGA,110659.00,5351.50840,N,02729.10578,E,1,04,4.60,248.1,M,25.1,M,,*57
779: $GPGGA,110700.00,5351.50822,N,02729.10567,E,1,04,4.60,249.0,M,25.1,M,,*50
781: $GPGGA,110701.00,5351.50812,N,02729.10565,E,1,04,4.60,249.9,M,25.1,M,,*59
783: $GPGGA,110702.00,5351.50824,N,02729.10574,E,1,04,4.60,249.4,M,25.1,M,,*52
785: $GPGGA,110703.00,5351.50842,N,02729.10573,E,1,04,4.60,249.5,M,25.1,M,,*55
787: $GPGGA,110704.00,5351.50838,N,02729.10572,E,1,04,4.60,249.8,M,25.1,M,,*53
789: $GPGGA,110705.00,5351.50852,N,02729.10595,E,1,04,4.60,250.1,M,25.1,M,,*56
791: $GPGGA,110706.00,5351.50860,N,02729.10609,E,1,04,4.61,250.1,M,25.1,M,,*53
793: $GPGGA,110707.00,5351.50864,N,02729.10614,E,1,04,4.61,250.3,M,25.1,M,,*58
795: $GPGGA,110708.00,5351.50877,N,02729.10629,E,1,04,4.61,250.2,M,25.1,M,,*5A
797: $GPGGA,110709.00,5351.50887,N,02729.10642,E,1,04,4.61,250.0,M,25.1,M,,*5B
799: $GPGGA,110710.00,5351.50901,N,02729.10662,E,1,04,4.61,249.8,M,25.1,M,,*5E
801: $GPGGA,110711.00,5351.50899,N,02729.10661,E,1,04,4.61,249.8,M,25.1,M,,*5C
803: $GPGGA,110712.00,5351.50900,N,02729.10656,E,1,04,4.61,249.7,M,25.1,M,,*55
805: $GPGGA,110713.00,5351.50908,N,02729.10662,E,1,04,4.61,249.5,M,25.1,M,,*59
807: $GPGGA,110714.00,5351.50924,N,02729.10678,E,1,04,4.61,249.1,M,25.1,M,,*5F
809: $GPGGA,110715.00,5351.50935,N,02729.10685,E,1,04,4.61,248.6,M,25.1,M,,*5A
811: $GPGGA,110716.00,5351.50948,N,02729.10687,E,1,04,4.61,248.0,M,25.1,M,,*57
813: $GPGGA,110717.00,5351.50965,N,02729.10698,E,1,04,4.62,247.4,M,25.1,M,,*5F
815: $GPGGA,110718.00,5351.50980,N,02729.10710,E,1,04,4.62,246.9,M,25.1,M,,*56
817: $GPGGA,110719.00,5351.50996,N,02729.10732,E,1,04,4.62,246.6,M,25.1,M,,*5F
819: $GPGGA,110720.00,5351.50999,N,02729.10735,E,1,04,4.62,246.4,M,25.1,M,,*5F
821: $GPGGA,110721.00,5351.50998,N,02729.10727,E,1,04,4.62,246.0,M,25.1,M,,*58
823: $GPGGA,110722.00,5351.51004,N,02729.10724,E,1,04,4.62,245.6,M,25.1,M,,*50
825: $GPGGA,110723.00,5351.51006,N,02729.10719,E,1,04,4.62,245.4,M,25.1,M,,*5F
827: $GPGGA,110724.00,5351.51004,N,02729.10711,E,1,04,4.62,245.2,M,25.1,M,,*54
829: $GPGGA,110725.00,5351.50995,N,02729.10697,E,1,04,4.62,245.1,M,25.1,M,,*59
831: $GPGGA,110726.00,5351.50995,N,02729.10697,E,1,04,4.62,245.0,M,25.1,M,,*5B
833: $GPGGA,110727.00,5351.50999,N,02729.10705,E,1,04,4.62,245.1,M,25.1,M,,*5D
835: $GPGGA,110728.00,5351.51005,N,02729.10717,E,1,04,4.62,245.3,M,25.1,M,,*5E
837: $GPGGA,110729.00,5351.51006,N,02729.10729,E,1,04,4.63,245.4,M,25.1,M,,*57
839: $GPGGA,110730.00,5351.51004,N,02729.10728,E,1,04,4.63,245.6,M,25.1,M,,*5E
841: $GPGGA,110731.00,5351.51007,N,02729.10740,E,1,04,4.63,246.0,M,25.1,M,,*57
843: $GPGGA,110732.00,5351.51008,N,02729.10758,E,1,04,4.63,246.4,M,25.1,M,,*56
845: $GPGGA,110733.00,5351.50998,N,02729.10761,E,1,04,4.63,246.8,M,25.1,M,,*50
847: $GPGGA,110734.00,5351.50975,N,02729.10746,E,1,04,4.63,247.3,M,25.1,M,,*5B
849: $GPGGA,110735.00,5351.50970,N,02729.10753,E,1,04,4.63,247.9,M,25.1,M,,*51
851: $GPGGA,110736.00,5351.50955,N,02729.10753,E,1,04,4.63,248.4,M,25.1,M,,*57
853: $GPGGA,110737.00,5351.50924,N,02729.10734,E,1,04,4.63,249.1,M,25.1,M,,*55
855: $GPGGA,110738.00,5351.50896,N,02729.10719,E,1,04,4.63,249.5,M,25.1,M,,*59
857: $GPGGA,110739.00,5351.50864,N,02729.10692,E,1,04,4.63,249.8,M,25.1,M,,*5A
859: $GPGGA,110740.00,5351.50856,N,02729.10693,E,1,04,4.63,250.2,M,25.1,M,,*56
861: $GPGGA,110741.00,5351.50860,N,02729.10708,E,1,04,4.64,250.2,M,25.1,M,,*56
863: $GPGGA,110742.00,5351.50845,N,02729.10696,E,1,04,4.64,250.2,M,25.1,M,,*54
865: $GPGGA,110743.00,5351.50819,N,02729.10669,E,1,04,4.64,250.2,M,25.1,M,,*5C
867: $GPGGA,110744.00,5351.50813,N,02729.10650,E,1,04,4.64,250.0,M,25.1,M,,*59
869: $GPGGA,110745.00,5351.50819,N,02729.10642,E,1,04,4.64,249.4,M,25.1,M,,*5D
871: $GPGGA,110746.00,5351.50814,N,02729.10626,E,1,04,4.64,248.8,M,25.1,M,,*5C
873: $GPGGA,110747.00,5351.50823,N,02729.10634,E,1,04,4.64,248.5,M,25.1,M,,*57
875: $GPGGA,110748.00,5351.50834,N,02729.10650,E,1,04,4.64,248.2,M,25.1,M,,*5B
877: $GPGGA,110749.00,5351.50846,N,02729.10662,E,1,04,4.64,247.8,M,25.1,M,,*5B
879: $GPGGA,110750.00,5351.50848,N,02729.10657,E,1,04,4.64,247.2,M,25.1,M,,*51
881: $GPGGA,110751.00,5351.50867,N,02729.10668,E,1,04,4.64,246.8,M,25.1,M,,*5A
883: $GPGGA,110752.00,5351.50864,N,02729.10644,E,1,04,4.65,246.3,M,25.1,M,,*5E
885: $GPGGA,110753.00,5351.50870,N,02729.10631,E,1,04,4.65,245.9,M,25.1,M,,*51
887: $GPGGA,110754.00,5351.50888,N,02729.10629,E,1,04,4.65,245.5,M,25.1,M,,*54
889: $GPGGA,110755.00,5351.50888,N,02729.10622,E,1,04,4.65,245.5,M,25.1,M,,*5E
891: $GPGGA,110756.00,5351.50902,N,02729.10625,E,1,04,4.65,245.3,M,25.1,M,,*5F
893: $GPGGA,110757.00,5351.50903,N,02729.10622,E,1,04,4.65,245.3,M,25.1,M,,*58
895: $GPGGA,110758.00,5351.50915,N,02729.10627,E,1,04,4.65,245.2,M,25.1,M,,*54
897: $GPGGA,110759.00,5351.50931,N,02729.10646,E,1,04,4.65,245.1,M,25.1,M,,*57
899: $GPGGA,110800.00,5351.50934,N,02729.10651,E,1,04,4.65,245.3,M,25.1,M,,*55
901: $GPGGA,110801.00,5351.50942,N,02729.10646,E,1,04,4.65,245.0,M,25.1,M,,*50
903: $GPGGA,110802.00,5351.50953,N,02729.10646,E,1,04,4.65,244.8,M,25.1,M,,*5A
905: $GPGGA,110803.00,5351.50969,N,02729.10658,E,1,04,4.66,245.0,M,25.1,M,,*57
907: $GPGGA,110804.00,5351.50976,N,02729.10658,E,1,04,4.66,245.1,M,25.1,M,,*5F
909: $GPGGA,110805.00,5351.50972,N,02729.10640,E,1,04,4.66,245.1,M,25.1,M,,*53
911: $GPGGA,110806.00,5351.50967,N,02729.10620,E,1,04,4.66,245.0,M,25.1,M,,*53
913: $GPGGA,110807.00,5351.50973,N,02729.10614,E,1,04,4.66,244.9,M,25.1,M,,*58
915: $GPGGA,110808.00,5351.50980,N,02729.10625,E,1,04,4.66,245.0,M,25.1,M,,*51
917: $GPGGA,110809.00,5351.50982,N,02729.10641,E,1,04,4.66,245.3,M,25.1,M,,*53
919: $GPGGA,110810.00,5351.50977,N,02729.10646,E,1,04,4.66,245.7,M,25.1,M,,*52
921: $GPGGA,110811.00,5351.50983,N,02729.10666,E,1,04,4.66,246.1,M,25.1,M,,*5F
923: $GPGGA,110812.00,5351.50985,N,02729.10677,E,1,04,4.66,246.5,M,25.1,M,,*5E
925: $GPGGA,110813.00,5351.50969,N,02729.10660,E,1,04,4.66,246.8,M,25.1,M,,*56
927: $GPGGA,110814.00,5351.50956,N,02729.10650,E,1,04,4.67,247.2,M,25.1,M,,*54
929: $GPGGA,110815.00,5351.50945,N,02729.10643,E,1,04,4.67,247.6,M,25.1,M,,*51
931: $GPGGA,110816.00,5351.50931,N,02729.10632,E,1,04,4.67,247.9,M,25.1,M,,*58
933: $GPGGA,110817.00,5351.50923,N,02729.10634,E,1,04,4.67,248.3,M,25.1,M,,*59
935: $GPGGA,110818.00,5351.50897,N,02729.10609,E,1,04,4.67,248.5,M,25.1,M,,*50
937: $GPGGA,110819.00,5351.50872,N,02729.10578,E,1,04,4.67,248.6,M,25.1,M,,*5C
939: $GPGGA,110820.00,5351.50856,N,02729.10562,E,1,04,4.67,248.8,M,25.1,M,,*55
941: $GPGGA,110821.00,5351.50851,N,02729.10561,E,1,04,4.67,248.8,M,25.1,M,,*50
943: $GPGGA,110822.00,5351.50842,N,02729.10554,E,1,04,4.67,248.9,M,25.1,M,,*56
945: $GPGGA,110823.00,5351.50825,N,02729.10533,E,1,04,4.67,248.8,M,25.1,M,,*56
947: $GPGGA,110824.00,5351.50820,N,02729.10529,E,1,04,4.67,248.8,M,25.1,M,,*5F
949: $GPGGA,110825.00,5351.50819,N,02729.10533,E,1,04,4.67,248.6,M,25.1,M,,*51
951: $GPGGA,110826.00,5351.50818,N,02729.10530,E,1,04,4.68,248.2,M,25.1,M,,*5B
953: $GPGGA,110827.00,5351.50814,N,02729.10519,E,1,04,4.68,247.6,M,25.1,M,,*56
955: $GPGGA,110828.00,5351.50812,N,02729.10500,E,1,04,4.68,246.6,M,25.1,M,,*56
957: $GPGGA,110829.00,5351.50806,N,02729.10485,E,1,04,4.68,246.2,M,25.1,M,,*5A
959: $GPGGA,110830.00,5351.50820,N,02729.10496,E,1,04,4.68,245.8,M,25.1,M,,*5D
961: $GPGGA,110831.00,5351.50824,N,02729.10499,E,1,04,4.68,245.6,M,25.1,M,,*59
963: $GPGGA,110832.00,5351.50832,N,02729.10502,E,1,04,4.68,245.0,M,25.1,M,,*58
965: $GPGGA,110833.00,5351.50832,N,02729.10498,E,1,04,4.68,245.0,M,25.1,M,,*5B
967: $GPGGA,110834.00,5351.50827,N,02729.10488,E,1,04,4.68,244.8,M,25.1,M,,*50
969: $GPGGA,110835.00,5351.50822,N,02729.10475,E,1,04,4.68,244.6,M,25.1,M,,*58
971: $GPGGA,110836.00,5351.50819,N,02729.10464,E,1,04,4.69,244.4,M,25.1,M,,*50
973: $GPGGA,110837.00,5351.50809,N,02729.10449,E,1,04,4.69,244.1,M,25.1,M,,*5A
975: $GPGGA,110838.00,5351.50807,N,02729.10448,E,1,04,4.69,243.9,M,25.1,M,,*55
977: $GPGGA,110839.00,5351.50820,N,02729.10478,E,1,04,4.69,244.0,M,25.1,M,,*5C
979: $GPGGA,110840.00,5351.50818,N,02729.10480,E,1,04,4.69,243.8,M,25.1,M,,*51
981: $GPGGA,110841.00,5351.50823,N,02729.10488,E,1,04,4.69,243.8,M,25.1,M,,*50
983: $GPGGA,110842.00,5351.50828,N,02729.10505,E,1,04,4.69,243.7,M,25.1,M,,*53
985: $GPGGA,110843.00,5351.50843,N,02729.10533,E,1,04,4.69,243.8,M,25.1,M,,*55
987: $GPGGA,110844.00,5351.50844,N,02729.10540,E,1,04,4.69,243.8,M,25.1,M,,*51
989: $GPGGA,110845.00,5351.50841,N,02729.10541,E,1,04,4.69,244.0,M,25.1,M,,*5B
991: $GPGGA,110846.00,5351.50830,N,02729.10522,E,1,04,4.69,244.1,M,25.1,M,,*5A
991: $GPGGA,110847.00,5351.50820,N,02729.10505,E,1,04,4.70,244.3,M,25.1,M,,*55
991: $GPGGA,110848.00,5351.50815,N,02729.10504,E,1,04,4.70,244.6,M,25.1,M,,*58
991: $GPGGA,110849.00,5351.50804,N,02729.10489,E,1,04,4.70,245.0,M,25.1,M,,*5A
991: $GPGGA,110850.00,5351.50789,N,02729.10468,E,1,04,4.70,245.3,M,25.1,M,,*54
991: $GPGGA,110851.00,5351.50789,N,02729.10475,E,1,04,4.70,245.8,M,25.1,M,,*52
991: $GPGGA,110852.00,5351.50785,N,02729.10483,E,1,04,4.70,246.3,M,25.1,M,,*5C
991: $GPGGA,110853.00,5351.50786,N,02729.10497,E,1,04,4.70,246.8,M,25.1,M,,*50
991: $GPGGA,110854.00,5351.50780,N,02729.10495,E,1,04,4.70,247.2,M,25.1,M,,*58
991: $GPGGA,110855.00,5351.50782,N,02729.10501,E,1,04,4.70,247.5,M,25.1,M,,*50
991: $GPGGA,110856.00,5351.50799,N,02729.10515,E,1,05,2.62,247.6,M,25.1,M,,*5B
991: $GPGGA,110857.00,5351.50825,N,02729.10548,E,1,04,2.89,247.7,M,25.1,M,,*5F
991: $GPGGA,110858.00,5351.50844,N,02729.10564,E,1,04,2.89,247.8,M,25.1,M,,*56
991: $GPGGA,110859.00,5351.50866,N,02729.10593,E,1,04,2.89,248.0,M,25.1,M,,*58
991: $GPGGA,110900.00,5351.50879,N,02729.10610,E,1,04,2.89,247.8,M,25.1,M,,*54
991: $GPGGA,110901.00,5351.50898,N,02729.10639,E,1,04,2.89,248.0,M,25.1,M,,*56
991: $GPGGA,110902.00,5351.50919,N,02729.10654,E,1,04,2.89,247.7,M,25.1,M,,*5E
991: $GPGGA,110903.00,5351.50931,N,02729.10649,E,1,04,2.89,247.5,M,25.1,M,,*5B
991: $GPGGA,110904.00,5351.50932,N,02729.10634,E,1,04,2.89,247.2,M,25.1,M,,*52
991: $GPGGA,110905.00,5351.50936,N,02729.10618,E,1,04,2.89,246.8,M,25.1,M,,*52
991: $GPGGA,110906.00,5351.50937,N,02729.10607,E,1,04,2.89,246.4,M,25.1,M,,*52
991: $GPGGA,110907.00,5351.50940,N,02729.10607,E,1,04,2.89,246.0,M,25.1,M,,*57
991: $GPGGA,110908.00,5351.50938,N,02729.10593,E,1,04,2.89,245.6,M,25.1,M,,*5C
991: $GPGGA,110909.00,5351.50934,N,02729.10580,E,1,04,2.89,245.2,M,25.1,M,,*57
991: $GPGGA,110910.00,5351.50940,N,02729.10582,E,1,04,2.89,245.0,M,25.1,M,,*5C
991: $GPGGA,110911.00,5351.50948,N,02729.10584,E,1,04,2.89,245.0,M,25.1,M,,*53
991: $GPGGA,110912.00,5351.50937,N,02729.10564,E,1,04,2.89,244.7,M,25.1,M,,*50
991: $GPGGA,110913.00,5351.50938,N,02729.10562,E,1,04,2.89,244.5,M,25.1,M,,*5A
991: $GPGGA,110914.00,5351.50955,N,02729.10579,E,1,04,2.89,244.5,M,25.1,M,,*5C
991: $GPGGA,110915.00,5351.50965,N,02729.10580,E,1,04,2.89,244.6,M,25.1,M,,*5B
991: $GPGGA,110916.00,5351.50966,N,02729.10577,E,1,04,2.89,244.5,M,25.1,M,,*50
991: $GPGGA,110917.00,5351.50956,N,02729.10562,E,1,04,2.89,244.3,M,25.1,M,,*50
991: $GPGGA,110918.00,5351.50944,N,02729.10547,E,1,04,2.89,244.2,M,25.1,M,,*5A
991: $GPGGA,110919.00,5351.50947,N,02729.10554,E,1,04,2.89,244.2,M,25.1,M,,*5A
991: $GPGGA,110920.00,5351.50949,N,02729.10566,E,1,04,2.89,244.2,M,25.1,M,,*5F
991: $GPGGA,110921.00,5351.50931,N,02729.10549,E,1,04,2.89,244.1,M,25.1,M,,*5F
991: $GPGGA,110922.00,5351.50921,N,02729.10542,E,1,04,2.88,244.2,M,25.1,M,,*54
991: $GPGGA,110923.00,5351.50921,N,02729.10542,E,1,04,2.88,244.4,M,25.1,M,,*53
991: $GPGGA,110924.00,5351.50922,N,02729.10542,E,1,04,2.88,244.6,M,25.1,M,,*55
991: $GPGGA,110925.00,5351.50914,N,02729.10527,E,1,04,2.88,244.9,M,25.1,M,,*5D
991: $GPGGA,110926.00,5351.50906,N,02729.10511,E,1,04,2.88,245.2,M,25.1,M,,*52
991: $GPGGA,110927.00,5351.50900,N,02729.10498,E,1,04,2.88,245.5,M,25.1,M,,*52
991: $GPGGA,110928.00,5351.50906,N,02729.10508,E,1,04,2.88,245.7,M,25.1,M,,*51
991: $GPGGA,110929.00,5351.50901,N,02729.10506,E,1,04,2.88,245.8,M,25.1,M,,*56
991: $GPGGA,110930.00,5351.50897,N,02729.10501,E,1,04,2.88,246.0,M,25.1,M,,*5C
991: $GPGGA,110931.00,5351.50896,N,02729.10502,E,1,04,2.88,246.2,M,25.1,M,,*5D
991: $GPGGA,110932.00,5351.50893,N,02729.10505,E,1,04,2.88,246.1,M,25.1,M,,*5F
991: $GPGGA,110933.00,5351.50887,N,02729.10496,E,1,04,2.88,246.2,M,25.1,M,,*53
991: $GPGGA,110934.00,5351.50877,N,02729.10471,E,1,04,2.88,246.3,M,25.1,M,,*53
991: $GPGGA,110935.00,5351.50866,N,02729.10447,E,1,04,2.88,246.4,M,25.1,M,,*50
991: $GPGGA,110936.00,5351.50853,N,02729.10428,E,1,04,2.88,246.4,M,25.1,M,,*5C
991: $GPGGA,110937.00,5351.50852,N,02729.10435,E,1,04,2.88,246.3,M,25.1,M,,*57
991: $GPGGA,110938.00,5351.50849,N,02729.10437,E,1,04,2.88,246.3,M,25.1,M,,*50
991: $GPGGA,110939.00,5351.50838,N,02729.10428,E,1,04,2.88,246.2,M,25.1,M,,*58
991: $GPGGA,110940.00,5351.50825,N,02729.10418,E,1,04,2.88,246.1,M,25.1,M,,*5A
991: $GPGGA,110941.00,5351.50829,N,02729.10421,E,1,04,2.88,246.2,M,25.1,M,,*5E
991: $GPGGA,110942.00,5351.50835,N,02729.10433,E,1,04,2.88,246.1,M,25.1,M,,*50
991: $GPGGA,110943.00,5351.50823,N,02729.10420,E,1,04,2.88,246.1,M,25.1,M,,*54
991: $GPGGA,110944.00,5351.50821,N,02729.10416,E,1,04,2.88,246.1,M,25.1,M,,*54
991: $GPGGA,110945.00,5351.50819,N,02729.10410,E,1,04,2.88,246.1,M,25.1,M,,*58
991: $GPGGA,110946.00,5351.50813,N,02729.10394,E,1,04,2.88,245.9,M,25.1,M,,*51
991: $GPGGA,110947.00,5351.50803,N,02729.10381,E,1,04,2.87,245.7,M,25.1,M,,*54
991: $GPGGA,110948.00,5351.50789,N,02729.10362,E,1,04,2.87,245.6,M,25.1,M,,*5A
991: $GPGGA,110949.00,5351.50777,N,02729.10347,E,1,04,2.87,245.7,M,25.1,M,,*5C
991: $GPGGA,110950.00,5351.50778,N,02729.10345,E,1,04,2.87,245.9,M,25.1,M,,*57
991: $GPGGA,110951.00,5351.50773,N,02729.10340,E,1,04,2.87,246.0,M,25.1,M,,*52
991: $GPGGA,110952.00,5351.50755,N,02729.10319,E,1,04,2.87,245.8,M,25.1,M,,*52
991: $GPGGA,110953.00,5351.50752,N,02729.10315,E,1,04,2.87,245.7,M,25.1,M,,*57
991: $GPGGA,110954.00,5351.50751,N,02729.10314,E,1,04,2.87,245.7,M,25.1,M,,*52
991: $GPGGA,110955.00,5351.50756,N,02729.10322,E,1,04,2.87,245.7,M,25.1,M,,*51
991: $GPGGA,110956.00,5351.50755,N,02729.10314,E,1,04,2.87,245.7,M,25.1,M,,*54
991: $GPGGA,110957.00,5351.50750,N,02729.10297,E,1,04,2.87,245.8,M,25.1,M,,*55
991: $GPGGA,110958.00,5351.50744,N,02729.10280,E,1,04,2.87,245.9,M,25.1,M,,*58
991: $GPGGA,110959.00,5351.50750,N,02729.10285,E,1,04,2.87,245.8,M,25.1,M,,*58
991: $GPGGA,111000.00,5351.50754,N,02729.10281,E,1,04,2.87,245.7,M,25.1,M,,*53
991: $GPGGA,111001.00,5351.50751,N,02729.10267,E,1,04,2.87,245.9,M,25.1,M,,*51
991: $GPGGA,111002.00,5351.50748,N,02729.10257,E,1,04,2.87,246.1,M,25.1,M,,*52
991: $GPGGA,111003.00,5351.50744,N,02729.10247,E,1,04,2.87,246.0,M,25.1,M,,*5F
991: $GPGGA,111004.00,5351.50739,N,02729.10231,E,1,04,2.87,246.1,M,25.1,M,,*52
991: $GPGGA,111005.00,5351.50732,N,02729.10220,E,1,04,2.87,246.0,M,25.1,M,,*59
991: $GPGGA,111006.00,5351.50723,N,02729.10201,E,1,04,2.87,246.1,M,25.1,M,,*58
991: $GPGGA,111007.00,5351.50718,N,02729.10186,E,1,04,2.87,246.2,M,25.1,M,,*5E
991: $GPGGA,111008.00,5351.50724,N,02729.10191,E,1,04,2.87,246.3,M,25.1,M,,*59
991: $GPGGA,111009.00,5351.50730,N,02729.10197,E,1,04,2.87,246.5,M,25.1,M,,*5D
991: $GPGGA,111010.00,5351.50735,N,02729.10194,E,1,04,2.87,246.8,M,25.1,M,,*5E
991: $GPGGA,111011.00,5351.50741,N,02729.10193,E,1,04,2.87,247.0,M,25.1,M,,*52
991: $GPGGA,111012.00,5351.50745,N,02729.10188,E,1,04,2.86,247.1,M,25.1,M,,*5F
991: $GPGGA,111013.00,5351.50755,N,02729.10200,E,1,04,2.86,247.2,M,25.1,M,,*5F
991: $GPGGA,111014.00,5351.50750,N,02729.10179,E,1,04,2.86,247.2,M,25.1,M,,*50
991: $GPGGA,111015.00,5351.50745,N,02729.10162,E,1,04,2.86,247.3,M,25.1,M,,*5E
991: $GPGGA,111016.00,5351.50743,N,02729.10155,E,1,04,2.86,247.3,M,25.1,M,,*5F
991: $GPGGA,111017.00,5351.50748,N,02729.10160,E,1,04,2.86,247.2,M,25.1,M,,*52
991: $GPGGA,111018.00,5351.50748,N,02729.10163,E,1,04,2.86,247.2,M,25.1,M,,*5E
991: $GPGGA,111019.00,5351.50738,N,02729.10150,E,1,04,2.86,247.0,M,25.1,M,,*5A
991: $GPGGA,111020.00,5351.50733,N,02729.10153,E,1,04,2.86,246.5,M,25.1,M,,*5C
991: $GPGGA,111021.00,5351.50733,N,02729.10158,E,1,04,2.86,246.2,M,25.1,M,,*51
991: $GPGGA,111022.00,5351.50733,N,02729.10167,E,1,04,2.86,246.0,M,25.1,M,,*5C
991: $GPGGA,111023.00,5351.50738,N,02729.10182,E,1,04,2.86,245.9,M,25.1,M,,*57
991: $GPGGA,111024.00,5351.50742,N,02729.10186,E,1,04,2.86,245.9,M,25.1,M,,*59
991: $GPGGA,111025.00,5351.50741,N,02729.10181,E,1,04,2.86,245.7,M,25.1,M,,*52
991: $GPGGA,111026.00,5351.50744,N,02729.10187,E,1,04,2.86,245.6,M,25.1,M,,*53
991: $GPGGA,111027.00,5351.50740,N,02729.10185,E,1,04,2.86,245.3,M,25.1,M,,*51
991: $GPGGA,111028.00,5351.50729,N,02729.10177,E,1,04,2.86,245.1,M,25.1,M,,*5E
991: $GPGGA,111029.00,5351.50727,N,02729.10187,E,1,04,2.86,244.9,M,25.1,M,,*57
991: $GPGGA,111030.00,5351.50733,N,02729.10207,E,1,04,2.86,244.9,M,25.1,M,,*51
991: $GPGGA,111031.00,5351.50736,N,02729.10217,E,1,04,2.86,244.8,M,25.1,M,,*55
991: $GPGGA,111032.00,5351.50728,N,02729.10208,E,1,04,2.86,244.7,M,25.1,M,,*58
991: $GPGGA,111033.00,5351.50725,N,02729.10202,E,1,04,2.86,244.6,M,25.1,M,,*5F
991: $GPGGA,111034.00,5351.50723,N,02729.10208,E,1,04,2.86,244.6,M,25.1,M,,*54
991: $GPGGA,111035.00,5351.50716,N,02729.10203,E,1,04,2.86,244.6,M,25.1,M,,*58
991: $GPGGA,111036.00,5351.50703,N,02729.10187,E,1,04,2.86,244.4,M,25.1,M,,*52
991: $GPGGA,111037.00,5351.50691,N,02729.10164,E,1,04,2.85,244.3,M,25.1,M,,*50
991: $GPGGA,111038.00,5351.50683,N,02729.10148,E,1,04,2.85,244.2,M,25.1,M,,*53
991: $GPGGA,111039.00,5351.50683,N,02729.10137,E,1,04,2.85,244.3,M,25.1,M,,*5B
991: $GPGGA,111040.00,5351.50685,N,02729.10121,E,1,04,2.85,244.4,M,25.1,M,,*53
991: $GPGGA,111041.00,5351.50678,N,02729.10093,E,1,04,2.85,244.6,M,25.1,M,,*5A
991: $GPGGA,111042.00,5351.50672,N,02729.10063,E,1,04,2.85,244.7,M,25.1,M,,*5D
991: $GPGGA,111043.00,5351.50670,N,02729.10046,E,1,04,2.85,244.7,M,25.1,M,,*59
991: $GPGGA,111044.00,5351.50671,N,02729.10041,E,1,04,2.85,244.7,M,25.1,M,,*58
991: $GPGGA,111045.00,5351.50666,N,02729.10026,E,1,04,2.85,244.8,M,25.1,M,,*51
991: $GPGGA,111046.00,5351.50660,N,02729.10020,E,1,04,2.85,244.7,M,25.1,M,,*5D
991: $GPGGA,111047.00,5351.50648,N,02729.10005,E,1,04,2.85,244.7,M,25.1,M,,*51
991: $GPGGA,111048.00,5351.50648,N,02729.10005,E,1,04,2.85,244.8,M,25.1,M,,*51
991: $GPGGA,111049.00,5351.50649,N,02729.10001,E,1,04,2.85,244.8,M,25.1,M,,*55
991: $GPGGA,111050.00,5351.50642,N,02729.09981,E,1,04,2.85,244.9,M,25.1,M,,*5E
991: $GPGGA,111051.00,5351.50643,N,02729.09972,E,1,04,2.85,245.0,M,25.1,M,,*5A
992: $GPGGA,111052.00,5351.50645,N,02729.09969,E,1,04,2.85,245.1,M,25.1,M,,*54
994: $GPGGA,111053.00,5351.50641,N,02729.09955,E,1,04,2.85,245.1,M,25.1,M,,*5E
996: $GPGGA,111054.00,5351.50639,N,02729.09936,E,1,04,2.85,245.1,M,25.1,M,,*53
998: $GPGGA,111055.00,5351.50639,N,02729.09929,E,1,04,2.85,245.2,M,25.1,M,,*5F
1000: $GPGGA,111056.00,5351.50640,N,02729.09935,E,1,04,2.85,245.2,M,25.1,M,,*5F
1002: $GPGGA,111057.00,5351.50650,N,02729.09947,E,1,04,2.85,245.3,M,25.1,M,,*5B
1004: $GPGGA,111058.00,5351.50654,N,02729.09954,E,1,04,2.85,245.4,M,25.1,M,,*55
1006: $GPGGA,111059.00,5351.50644,N,02729.09930,E,1,04,2.85,245.4,M,25.1,M,,*57
1008: $GPGGA,111100.00,5351.50652,N,02729.09936,E,1,04,2.85,245.6,M,25.1,M,,*59
1010: $GPGGA,111101.00,5351.50666,N,02729.09951,E,1,04,2.85,245.8,M,25.1,M,,*50
1012: $GPGGA,111102.00,5351.50667,N,02729.09953,E,1,04,2.84,245.9,M,25.1,M,,*50
1014: $GPGGA,111103.00,5351.50665,N,02729.09952,E,1,04,2.84,246.2,M,25.1,M,,*5A
1016: $GPGGA,111104.00,5351.50668,N,02729.09958,E,1,04,2.84,246.3,M,25.1,M,,*5B
1018: $GPGGA,111105.00,5351.50672,N,02729.09961,E,1,04,2.84,246.5,M,25.1,M,,*5D
1020: $GPGGA,111106.00,5351.50687,N,02729.09989,E,1,04,2.84,246.7,M,25.1,M,,*50
1022: $GPGGA,111107.00,5351.50698,N,02729.10013,E,1,04,2.84,246.6,M,25.1,M,,*5C
1024: $GPGGA,111108.00,5351.50699,N,02729.10017,E,1,04,2.84,246.9,M,25.1,M,,*59
1026: $GPGGA,111109.00,5351.50700,N,02729.10024,E,1,04,2.84,246.9,M,25.1,M,,*59
1028: $GPGGA,111110.00,5351.50708,N,02729.10049,E,1,04,2.84,247.0,M,25.1,M,,*5A
1030: $GPGGA,111111.00,5351.50704,N,02729.10056,E,1,04,2.84,247.1,M,25.1,M,,*58
1032: $GPGGA,111112.00,5351.50704,N,02729.10054,E,1,04,2.84,247.2,M,25.1,M,,*5A
1034: $GPGGA,111113.00,5351.50712,N,02729.10073,E,1,04,2.84,247.3,M,25.1,M,,*58
1036: $GPGGA,111114.00,5351.50714,N,02729.10081,E,1,04,2.84,247.4,M,25.1,M,,*53
1038: $GPGGA,111115.00,5351.50721,N,02729.10097,E,1,04,2.84,247.5,M,25.1,M,,*52
1040: $GPGGA,111116.00,5351.50727,N,02729.10107,E,1,04,2.84,247.6,M,25.1,M,,*5C
1042: $GPGGA,111117.00,5351.50725,N,02729.10096,E,1,04,2.84,247.6,M,25.1,M,,*56
1044: $GPGGA,111118.00,5351.50727,N,02729.10095,E,1,04,2.84,247.5,M,25.1,M,,*5B
1046: $GPGGA,111119.00,5351.50739,N,02729.10120,E,1,04,2.84,247.5,M,25.1,M,,*5A
1048: $GPGGA,111120.00,5351.50746,N,02729.10128,E,1,04,2.84,247.6,M,25.1,M,,*53
1050: $GPGGA,111121.00,5351.50741,N,02729.10116,E,1,04,2.84,247.5,M,25.1,M,,*5B
1052: $GPGGA,111122.00,5351.50737,N,02729.10105,E,1,04,2.84,247.2,M,25.1,M,,*5C
1054: $GPGGA,111123.00,5351.50739,N,02729.10099,E,1,04,2.84,247.2,M,25.1,M,,*57
1056: $GPGGA,111124.00,5351.50748,N,02729.10097,E,1,04,2.84,247.3,M,25.1,M,,*59
1058: $GPGGA,111125.00,5351.50749,N,02729.10082,E,1,04,2.84,247.3,M,25.1,M,,*5D
1060: $GPGGA,111126.00,5351.50744,N,02729.10071,E,1,04,2.84,247.2,M,25.1,M,,*5E
1062: $GPGGA,111127.00,5351.50740,N,02729.10066,E,1,04,2.83,247.1,M,25.1,M,,*59
1064: $GPGGA,111128.00,5351.50745,N,02729.10077,E,1,04,2.83,247.0,M,25.1,M,,*52
1066: $GPGGA,111129.00,5351.50747,N,02729.10074,E,1,04,2.83,247.0,M,25.1,M,,*52
1068: $GPGGA,111130.00,5351.50739,N,02729.10063,E,1,04,2.83,246.9,M,25.1,M,,*5D
1070: $GPGGA,111131.00,5351.50729,N,02729.10051,E,1,04,2.83,246.7,M,25.1,M,,*52
1072: $GPGGA,111132.00,5351.50730,N,02729.10048,E,1,04,2.83,246.8,M,25.1,M,,*5E
1074: $GPGGA,111133.00,5351.50729,N,02729.10048,E,1,04,2.83,246.8,M,25.1,M,,*57
1076: $GPGGA,111134.00,5351.50731,N,02729.10054,E,1,04,2.83,246.7,M,25.1,M,,*5B
1078: $GPGGA,111135.00,5351.50718,N,02729.10031,E,1,04,2.83,246.6,M,25.1,M,,*53
1080: $GPGGA,111136.00,5351.50706,N,02729.10009,E,1,04,2.83,246.6,M,25.1,M,,*54
1082: $GPGGA,111137.00,5351.50708,N,02729.10013,E,1,04,2.83,246.7,M,25.1,M,,*51
1084: $GPGGA,111138.00,5351.50705,N,02729.10007,E,1,04,2.83,246.7,M,25.1,M,,*56
1086: $GPGGA,111139.00,5351.50692,N,02729.09985,E,1,04,2.83,246.7,M,25.1,M,,*53
1088: $GPGGA,111140.00,5351.50692,N,02729.09988,E,1,04,2.83,246.8,M,25.1,M,,*5F
1090: $GPGGA,111141.00,5351.50698,N,02729.09993,E,1,04,2.83,247.0,M,25.1,M,,*57
1092: $GPGGA,111142.00,5351.50698,N,02729.09992,E,1,04,2.83,247.1,M,25.1,M,,*54
1094: $GPGGA,111143.00,5351.50702,N,02729.10000,E,1,04,2.83,247.3,M,25.1,M,,*5F
1096: $GPGGA,111144.00,5351.50696,N,02729.09994,E,1,04,2.83,247.4,M,25.1,M,,*5F
1098: $GPGGA,111145.00,5351.50700,N,02729.09998,E,1,04,2.83,247.6,M,25.1,M,,*5E
1100: $GPGGA,111146.00,5351.50715,N,02729.10022,E,1,04,2.83,247.9,M,25.1,M,,*56
1102: $GPGGA,111147.00,5351.50722,N,02729.10042,E,1,04,2.83,248.1,M,25.1,M,,*52
1104: $GPGGA,111148.00,5351.50717,N,02729.10031,E,1,04,2.83,248.2,M,25.1,M,,*5C
1106: $GPGGA,111149.00,5351.50713,N,02729.10021,E,1,04,2.83,248.2,M,25.1,M,,*58
1108: $GPGGA,111150.00,5351.50718,N,02729.10024,E,1,04,2.83,248.3,M,25.1,M,,*5F
1110: $GPGGA,111151.00,5351.50720,N,02729.10023,E,1,04,2.83,248.4,M,25.1,M,,*55
1112: $GPGGA,111152.00,5351.50715,N,02729.10017,E,1,04,2.82,248.3,M,25.1,M,,*51
1114: $GPGGA,111153.00,5351.50713,N,02729.10012,E,1,04,2.82,248.1,M,25.1,M,,*51
1116: $GPGGA,111154.00,5351.50708,N,02729.10019,E,1,04,2.82,248.0,M,25.1,M,,*56
1118: $GPGGA,111155.00,5351.50710,N,02729.10034,E,1,04,2.82,247.8,M,25.1,M,,*56
1120: $GPGGA,111156.00,5351.50716,N,02729.10052,E,1,04,2.82,247.7,M,25.1,M,,*5C
1122: $GPGGA,111157.00,5351.50710,N,02729.10040,E,1,04,2.82,247.5,M,25.1,M,,*5A
1124: $GPGGA,111158.00,5351.50708,N,02729.10035,E,1,04,2.82,247.2,M,25.1,M,,*59
1126: $GPGGA,111159.00,5351.50716,N,02729.10048,E,1,04,2.82,247.2,M,25.1,M,,*5D
1128: $GPGGA,111200.00,5351.50716,N,02729.10056,E,1,04,2.82,247.1,M,25.1,M,,*5E
1130: $GPGGA,111201.00,5351.50714,N,02729.10050,E,1,04,2.82,246.9,M,25.1,M,,*52
1132: $GPGGA,111202.00,5351.50708,N,02729.10035,E,1,04,2.82,246.8,M,25.1,M,,*5E
1134: $GPGGA,111203.00,5351.50703,N,02729.10034,E,1,04,2.82,246.7,M,25.1,M,,*5A
1136: $GPGGA,111204.00,5351.50701,N,02729.10040,E,1,04,2.82,246.7,M,25.1,M,,*5C
1138: $GPGGA,111205.00,5351.50697,N,02729.10049,E,1,04,2.82,246.5,M,25.1,M,,*58
1140: $GPGGA,111206.00,5351.50681,N,02729.10031,E,1,04,2.82,246.3,M,25.1,M,,*55
1142: $GPGGA,111207.00,5351.50675,N,02729.10020,E,1,04,2.82,246.2,M,25.1,M,,*5E
1144: $GPGGA,111208.00,5351.50684,N,02729.10031,E,1,04,2.82,246.3,M,25.1,M,,*5E
1146: $GPGGA,111209.00,5351.50685,N,02729.10029,E,1,04,2.82,246.4,M,25.1,M,,*50
1148: $GPGGA,111210.00,5351.50680,N,02729.10022,E,1,04,2.82,246.3,M,25.1,M,,*51
1150: $GPGGA,111211.00,5351.50672,N,02729.10010,E,1,04,2.82,246.3,M,25.1,M,,*5C
1152: $GPGGA,111212.00,5351.50668,N,02729.10009,E,1,04,2.82,246.3,M,25.1,M,,*5C
1154: $GPGGA,111213.00,5351.50670,N,02729.10019,E,1,04,2.82,246.4,M,25.1,M,,*52
1156: $GPGGA,111214.00,5351.50661,N,02729.10014,E,1,04,2.82,246.3,M,25.1,M,,*5F
1158: $GPGGA,111215.00,5351.50655,N,02729.10009,E,1,04,2.82,246.3,M,25.1,M,,*55
1160: $GPGGA,111216.00,5351.50654,N,02729.10009,E,1,04,2.82,246.3,M,25.1,M,,*57
1162: $GPGGA,111217.00,5351.50663,N,02729.10028,E,1,04,2.81,246.5,M,25.1,M,,*54
1164: $GPGGA,111218.00,5351.50667,N,02729.10035,E,1,04,2.81,246.6,M,25.1,M,,*50
1166: $GPGGA,111219.00,5351.50668,N,02729.10046,E,1,04,2.81,246.7,M,25.1,M,,*5B
1168: $GPGGA,111220.00,5351.50667,N,02729.10046,E,1,04,2.81,246.8,M,25.1,M,,*51
1170: $GPGGA,111221.00,5351.50670,N,02729.10054,E,1,04,2.81,246.8,M,25.1,M,,*55
1172: $GPGGA,111222.00,5351.50673,N,02729.10056,E,1,04,2.81,246.9,M,25.1,M,,*56
1174: $GPGGA,111223.00,5351.50671,N,02729.10056,E,1,04,2.81,247.1,M,25.1,M,,*5C
1176: $GPGGA,111224.00,5351.50668,N,02729.10050,E,1,04,2.81,247.2,M,25.1,M,,*56
1178: $GPGGA,111225.00,5351.50665,N,02729.10049,E,1,04,2.81,247.3,M,25.1,M,,*53
1180: $GPGGA,111226.00,5351.50669,N,02729.10059,E,1,04,2.81,247.4,M,25.1,M,,*5A
1182: $GPGGA,111227.00,5351.50674,N,02729.10073,E,1,04,2.81,247.4,M,25.1,M,,*5F
1184: $GPGGA,111228.00,5351.50673,N,02729.10072,E,1,04,2.81,247.4,M,25.1,M,,*56
1186: $GPGGA,111229.00,5351.50680,N,02729.10081,E,1,04,2.81,247.4,M,25.1,M,,*57
1188: $GPGGA,111230.00,5351.50692,N,02729.10103,E,1,04,2.81,247.5,M,25.1,M,,*56
1190: $GPGGA,111231.00,5351.50695,N,02729.10110,E,1,04,2.81,247.4,M,25.1,M,,*53
1192: $GPGGA,111232.00,5351.50697,N,02729.10115,E,1,04,2.81,247.3,M,25.1,M,,*50
1194: $GPGGA,111233.00,5351.50699,N,02729.10120,E,1,04,2.81,247.1,M,25.1,M,,*5B
1196: $GPGGA,111234.00,5351.50697,N,02729.10115,E,1,04,2.81,247.0,M,25.1,M,,*55
1198: $GPGGA,111235.00,5351.50698,N,02729.10115,E,1,04,2.81,246.8,M,25.1,M,,*52
1200: $GPGGA,111236.00,5351.50703,N,02729.10114,E,1,04,2.81,246.7,M,25.1,M,,*5C
1202: $GPGGA,111237.00,5351.50702,N,02729.10116,E,1,04,2.81,246.4,M,25.1,M,,*5D
1204: $GPGGA,111238.00,5351.50705,N,02729.10125,E,1,04,2.81,246.2,M,25.1,M,,*53
1206: $GPGGA,111239.00,5351.50706,N,02729.10133,E,1,04,2.81,245.9,M,25.1,M,,*5E
1208: $GPGGA,111240.00,5351.50720,N,02729.10156,E,1,04,2.81,245.8,M,25.1,M,,*56
1210: $GPGGA,111241.00,5351.50723,N,02729.10161,E,1,04,2.80,245.5,M,25.1,M,,*5C
1212: $GPGGA,111242.00,5351.50719,N,02729.10151,E,1,04,2.80,245.2,M,25.1,M,,*52
1214: $GPGGA,111243.00,5351.50713,N,02729.10138,E,1,04,2.80,245.0,M,25.1,M,,*54
1216: $GPGGA,111244.00,5351.50712,N,02729.10132,E,1,04,2.80,244.8,M,25.1,M,,*51
1218: $GPGGA,111245.00,5351.50722,N,02729.10140,E,1,04,2.80,244.8,M,25.1,M,,*56
1220: $GPGGA,111246.00,5351.50723,N,02729.10137,E,1,04,2.80,244.6,M,25.1,M,,*5A
1222: $GPGGA,111247.00,5351.50716,N,02729.10125,E,1,04,2.80,244.4,M,25.1,M,,*5C
