1: $GPGLL,5351.46919,N,02729.10708,E,110011.00,A,A*68
2: $GPGLL,5351.47073,N,02729.10768,E,110012.00,A,A*69
3: $GPGLL,5351.47370,N,02729.10835,E,110013.00,A,A*6F
4: $GPGLL,5351.47567,N,02729.10909,E,110014.00,A,A*66
5: $GPGLL,5351.47771,N,02729.10979,E,110015.00,A,A*65
6: $GPGLL,5351.47797,N,02729.10990,E,110016.00,A,A*69
7: $GPGLL,5351.47951,N,02729.11045,E,110017.00,A,A*6C
8: $GPGLL,5351.48091,N,02729.11094,E,110018.00,A,A*65
9: $GPGLL,5351.48210,N,02729.11163,E,110019.00,A,A*66
10: $GPGLL,5351.48439,N,02729.11264,E,110020.00,A,A*65
11: $GPGLL,5351.48602,N,02729.11334,E,110021.00,A,A*6A
13: $GPGLL,5351.48772,N,02729.11389,E,110022.00,A,A*69
14: $GPGLL,5351.48611,N,02729.11336,E,110023.00,A,A*68
15: $GPGLL,5351.48844,N,02729.11432,E,110024.00,A,A*62
17: $GPGLL,5351.48977,N,02729.11498,E,110025.00,A,A*62
18: $GPGLL,5351.48986,N,02729.11503,E,110026.00,A,A*6C
19: $GPGLL,5351.49062,N,02729.11529,E,110027.00,A,A*67
21: $GPGLL,5351.49151,N,02729.11535,E,110028.00,A,A*64
23: $GPGLL,5351.49178,N,02729.11531,E,110029.00,A,A*6A
24: $GPGLL,5351.49254,N,02729.11549,E,110030.00,A,A*60
26: $GPGLL,5351.49324,N,02729.11555,E,110031.00,A,A*6A
27: $GPGLL,5351.49356,N,02729.11556,E,110032.00,A,A*6F
28: $GPGLL,5351.49533,N,02729.11637,E,110033.00,A,A*6F
29: $GPGLL,5351.49744,N,02729.11714,E,110034.00,A,A*6A
30: $GPGLL,5351.49886,N,02729.11749,E,110035.00,A,A*62
31: $GPGLL,5351.49783,N,02729.11711,E,110036.00,A,A*66
33: $GPGLL,5351.49735,N,02729.11705,E,110037.00,A,A*6F
35: $GPGLL,5351.49688,N,02729.11689,E,110038.00,A,A*62
37: $GPGLL,5351.49705,N,02729.11683,E,110039.00,A,A*6D
39: $GPGLL,5351.49699,N,02729.11665,E,110040.00,A,A*6F
41: $GPGLL,5351.49802,N,02729.11677,E,110041.00,A,A*61
43: $GPGLL,5351.49989,N,02729.11742,E,110042.00,A,A*67
44: $GPGLL,5351.50156,N,02729.11806,E,110043.00,A,A*6B
45: $GPGLL,5351.50293,N,02729.11846,E,110044.00,A,A*62
47: $GPGLL,5351.50247,N,02729.11815,E,110045.00,A,A*6C
49: $GPGLL,5351.50270,N,02729.11817,E,110046.00,A,A*69
51: $GPGLL,5351.50316,N,02729.11816,E,110047.00,A,A*68
52: $GPGLL,5351.50306,N,02729.11785,E,110048.00,A,A*63
54: $GPGLL,5351.50306,N,02729.11762,E,110049.00,A,A*6B
56: $GPGLL,5351.50286,N,02729.11739,E,110050.00,A,A*64
58: $GPGLL,5351.50368,N,02729.11759,E,110051.00,A,A*62
60: $GPGLL,5351.50395,N,02729.11768,E,110052.00,A,A*61
62: $GPGLL,5351.50399,N,02729.11760,E,110053.00,A,A*64
64: $GPGLL,5351.50394,N,02729.11749,E,110054.00,A,A*65
66: $GPGLL,5351.50478,N,02729.11777,E,110055.00,A,A*6C
68: $GPGLL,5351.50505,N,02729.11782,E,110056.00,A,A*6E
70: $GPGLL,5351.50485,N,02729.11764,E,110057.00,A,A*6E
72: $GPGLL,5351.50449,N,02729.11751,E,110058.00,A,A*67
74: $GPGLL,5351.50410,N,02729.11751,E,110059.00,A,A*6A
76: $GPGLL,5351.50370,N,02729.11751,E,110100.00,A,A*66
77: $GPGLL,5351.50324,N,02729.11734,E,110101.00,A,A*65
78: $GPGLL,5351.50277,N,02729.11713,E,110102.00,A,A*64
79: $GPGLL,5351.50248,N,02729.11713,E,110103.00,A,A*69
80: $GPGLL,5351.55861,N,02729.12081,E,110104.00,A,A*65
81: $GPGLL,5351.55770,N,02729.12072,E,110105.00,A,A*67
83: $GPGLL,5351.55682,N,02729.11962,E,110106.00,A,A*63
84: $GPGLL,5351.55573,N,02729.11828,E,110107.00,A,A*60
86: $GPGLL,5351.55465,N,02729.11672,E,110108.00,A,A*68
87: $GPGLL,5351.55398,N,02729.11580,E,110109.00,A,A*62
88: $GPGLL,5351.55338,N,02729.11496,E,110110.00,A,A*66
89: $GPGLL,5351.55272,N,02729.11409,E,110111.00,A,A*6E
91: $GPGLL,5351.55211,N,02729.11338,E,110112.00,A,A*6D
92: $GPGLL,5351.55146,N,02729.11285,E,110113.00,A,A*6A
93: $GPGLL,5351.55088,N,02729.11242,E,110114.00,A,A*65
94: $GPGLL,5351.55019,N,02729.11169,E,110115.00,A,A*66
95: $GPGLL,5351.54965,N,02729.11101,E,110116.00,A,A*68
97: $GPGLL,5351.54921,N,02729.11054,E,110117.00,A,A*68
98: $GPGLL,5351.54892,N,02729.11026,E,110118.00,A,A*6B
100: $GPGLL,5351.54863,N,02729.11001,E,110119.00,A,A*61
102: $GPGLL,5351.54848,N,02729.10985,E,110120.00,A,A*66
103: $GPGLL,5351.54829,N,02729.10963,E,110121.00,A,A*68
104: $GPGLL,5351.54829,N,02729.10972,E,110122.00,A,A*6B
105: $GPGLL,5351.54826,N,02729.10987,E,110123.00,A,A*6F
106: $GPGLL,5351.54824,N,02729.10991,E,110124.00,A,A*6D
108: $GPGLL,5351.54840,N,02729.11005,E,110125.00,A,A*6B
109: $GPGLL,5351.54841,N,02729.11005,E,110126.00,A,A*69
111: $GPGLL,5351.54831,N,02729.10996,E,110127.00,A,A*6D
112: $GPGLL,5351.54839,N,02729.10998,E,110128.00,A,A*64
114: $GPGLL,5351.54854,N,02729.11003,E,110129.00,A,A*64
116: $GPGLL,5351.54864,N,02729.10999,E,110130.00,A,A*64
118: $GPGLL,5351.54885,N,02729.11020,E,110131.00,A,A*60
120: $GPGLL,5351.54907,N,02729.11046,E,110132.00,A,A*68
122: $GPGLL,5351.54916,N,02729.11048,E,110133.00,A,A*67
124: $GPGLL,5351.54949,N,02729.11078,E,110134.00,A,A*69
126: $GPGLL,5351.54946,N,02729.11118,E,110135.00,A,A*60
128: $GPGLL,5351.54932,N,02729.11144,E,110136.00,A,A*69
130: $GPGLL,5351.54922,N,02729.11175,E,110137.00,A,A*6B
132: $GPGLL,5351.54914,N,02729.11211,E,110138.00,A,A*60
134: $GPGLL,5351.54897,N,02729.11240,E,110139.00,A,A*6F
136: $GPGLL,5351.54875,N,02729.11261,E,110140.00,A,A*6E
138: $GPGLL,5351.54848,N,02729.11271,E,110141.00,A,A*60
140: $GPGLL,5351.54811,N,02729.11276,E,110142.00,A,A*68
142: $GPGLL,5351.54778,N,02729.11277,E,110143.00,A,A*68
144: $GPGLL,5351.54742,N,02729.11275,E,110144.00,A,A*64
146: $GPGLL,5351.54700,N,02729.11273,E,110145.00,A,A*65
148: $GPGLL,5351.54642,N,02729.11251,E,110146.00,A,A*61
150: $GPGLL,5351.54586,N,02729.11229,E,110147.00,A,A*64
152: $GPGLL,5351.54526,N,02729.11201,E,110148.00,A,A*6B
154: $GPGLL,5351.54472,N,02729.11184,E,110149.00,A,A*64
156: $GPGLL,5351.54418,N,02729.11163,E,110150.00,A,A*69
158: $GPGLL,5351.54367,N,02729.11144,E,110151.00,A,A*62
160: $GPGLL,5351.54327,N,02729.11137,E,110152.00,A,A*61
162: $GPGLL,5351.54307,N,02729.11155,E,110153.00,A,A*66
164: $GPGLL,5351.54273,N,02729.11153,E,110154.00,A,A*65
166: $GPGLL,5351.54254,N,02729.11146,E,110155.00,A,A*65
168: $GPGLL,5351.54247,N,02729.11165,E,110156.00,A,A*65
170: $GPGLL,5351.54230,N,02729.11181,E,110157.00,A,A*6E
172: $GPGLL,5351.54197,N,02729.11172,E,110158.00,A,A*63
174: $GPGLL,5351.54173,N,02729.11168,E,110159.00,A,A*63
176: $GPGLL,5351.54153,N,02729.11146,E,110200.00,A,A*62
178: $GPGLL,5351.54118,N,02729.11142,E,110201.00,A,A*68
180: $GPGLL,5351.54102,N,02729.11148,E,110202.00,A,A*6A
182: $GPGLL,5351.54096,N,02729.11167,E,110203.00,A,A*6A
184: $GPGLL,5351.54094,N,02729.11188,E,110204.00,A,A*6E
186: $GPGLL,5351.54076,N,02729.11183,E,110205.00,A,A*68
188: $GPGLL,5351.54060,N,02729.11191,E,110206.00,A,A*6F
190: $GPGLL,5351.54051,N,02729.11200,E,110207.00,A,A*67
192: $GPGLL,5351.54047,N,02729.11194,E,110208.00,A,A*61
194: $GPGLL,5351.54073,N,02729.11224,E,110209.00,A,A*6F
196: $GPGLL,5351.54134,N,02729.11283,E,110210.00,A,A*68
198: $GPGLL,5351.54157,N,02729.11308,E,110211.00,A,A*6E
200: $GPGLL,5351.54175,N,02729.11330,E,110212.00,A,A*66
202: $GPGLL,5351.54189,N,02729.11349,E,110213.00,A,A*6A
204: $GPGLL,5351.54154,N,02729.11341,E,110214.00,A,A*65
206: $GPGLL,5351.54125,N,02729.11334,E,110215.00,A,A*60
208: $GPGLL,5351.54077,N,02729.11311,E,110216.00,A,A*62
210: $GPGLL,5351.54026,N,02729.11280,E,110217.00,A,A*6E
212: $GPGLL,5351.54003,N,02729.11270,E,110218.00,A,A*69
214: $GPGLL,5351.53961,N,02729.11246,E,110219.00,A,A*67
216: $GPGLL,5351.53934,N,02729.11233,E,110220.00,A,A*6F
218: $GPGLL,5351.53884,N,02729.11195,E,110221.00,A,A*6B
220: $GPGLL,5351.53831,N,02729.11170,E,110222.00,A,A*6D
222: $GPGLL,5351.53785,N,02729.11151,E,110223.00,A,A*6F
224: $GPGLL,5351.53735,N,02729.11117,E,110224.00,A,A*61
226: $GPGLL,5351.53679,N,02729.11079,E,110225.00,A,A*60
228: $GPGLL,5351.53625,N,02729.11051,E,110226.00,A,A*60
230: $GPGLL,5351.53595,N,02729.11067,E,110227.00,A,A*6C
232: $GPGLL,5351.53547,N,02729.11031,E,110228.00,A,A*6F
234: $GPGLL,5351.53509,N,02729.11014,E,110229.00,A,A*63
236: $GPGLL,5351.53470,N,02729.10986,E,110230.00,A,A*67
238: $GPGLL,5351.53450,N,02729.10992,E,110231.00,A,A*61
240: $GPGLL,5351.53407,N,02729.10991,E,110232.00,A,A*63
242: $GPGLL,5351.53341,N,02729.10950,E,110233.00,A,A*6A
244: $GPGLL,5351.53245,N,02729.10896,E,110234.00,A,A*63
246: $GPGLL,5351.53195,N,02729.10879,E,110235.00,A,A*6D
248: $GPGLL,5351.53154,N,02729.10859,E,110236.00,A,A*61
250: $GPGLL,5351.53134,N,02729.10872,E,110237.00,A,A*6F
252: $GPGLL,5351.53092,N,02729.10844,E,110238.00,A,A*68
254: $GPGLL,5351.53068,N,02729.10830,E,110239.00,A,A*6F
256: $GPGLL,5351.53066,N,02729.10834,E,110240.00,A,A*6B
258: $GPGLL,5351.53074,N,02729.10861,E,110241.00,A,A*69
260: $GPGLL,5351.53062,N,02729.10867,E,110242.00,A,A*6B
262: $GPGLL,5351.53129,N,02729.10918,E,110243.00,A,A*6D
264: $GPGLL,5351.53178,N,02729.10956,E,110244.00,A,A*64
266: $GPGLL,5351.53236,N,02729.11004,E,110245.00,A,A*63
268: $GPGLL,5351.53332,N,02729.11072,E,110246.00,A,A*64
270: $GPGLL,5351.53405,N,02729.11129,E,110247.00,A,A*69
272: $GPGLL,5351.53502,N,02729.11181,E,110248.00,A,A*62
274: $GPGLL,5351.53561,N,02729.11227,E,110249.00,A,A*69
276: $GPGLL,5351.53633,N,02729.11284,E,110250.00,A,A*6C
278: $GPGLL,5351.53674,N,02729.11316,E,110251.00,A,A*64
280: $GPGLL,5351.53776,N,02729.11410,E,110252.00,A,A*65
282: $GPGLL,5351.53878,N,02729.11488,E,110253.00,A,A*64
284: $GPGLL,5351.53781,N,02729.11427,E,110254.00,A,A*6F
286: $GPGLL,5351.53819,N,02729.11450,E,110255.00,A,A*60
288: $GPGLL,5351.53834,N,02729.11456,E,110256.00,A,A*6A
290: $GPGLL,5351.53839,N,02729.11441,E,110257.00,A,A*60
292: $GPGLL,5351.53840,N,02729.11420,E,110258.00,A,A*66
294: $GPGLL,5351.53673,N,02729.11541,E,110259.00,A,A*6F
296: $GPGLL,5351.53489,N,02729.11421,E,110300.00,A,A*62
298: $GPGLL,5351.53375,N,02729.11356,E,110301.00,A,A*60
300: $GPGLL,5351.53290,N,02729.11342,E,110302.00,A,A*6C
302: $GPGLL,5351.53245,N,02729.11324,E,110303.00,A,A*65
304: $GPGLL,5351.53206,N,02729.11352,E,110304.00,A,A*64
306: $GPGLL,5351.53170,N,02729.11337,E,110305.00,A,A*64
308: $GPGLL,5351.53132,N,02729.11298,E,110306.00,A,A*65
310: $GPGLL,5351.53113,N,02729.11262,E,110307.00,A,A*62
312: $GPGLL,5351.53085,N,02729.11237,E,110308.00,A,A*63
314: $GPGLL,5351.53034,N,02729.11202,E,110309.00,A,A*6E
316: $GPGLL,5351.52985,N,02729.11155,E,110310.00,A,A*65
318: $GPGLL,5351.52937,N,02729.11099,E,110311.00,A,A*6C
320: $GPGLL,5351.52890,N,02729.11053,E,110312.00,A,A*65
322: $GPGLL,5351.52901,N,02729.11046,E,110313.00,A,A*69
324: $GPGLL,5351.52876,N,02729.11022,E,110314.00,A,A*6D
326: $GPGLL,5351.52859,N,02729.10996,E,110315.00,A,A*66
328: $GPGLL,5351.52849,N,02729.10982,E,110316.00,A,A*61
330: $GPGLL,5351.52839,N,02729.10968,E,110317.00,A,A*63
332: $GPGLL,5351.52831,N,02729.10952,E,110318.00,A,A*6D
334: $GPGLL,5351.52850,N,02729.10968,E,110319.00,A,A*62
336: $GPGLL,5351.52817,N,02729.10933,E,110320.00,A,A*65
338: $GPGLL,5351.52857,N,02729.10934,E,110321.00,A,A*67
340: $GPGLL,5351.52910,N,02729.10949,E,110322.00,A,A*6C
342: $GPGLL,5351.53289,N,02729.10944,E,110323.00,A,A*6A
344: $GPGLL,5351.53448,N,02729.10922,E,110324.00,A,A*66
346: $GPGLL,5351.53567,N,02729.10972,E,110325.00,A,A*6E
348: $GPGLL,5351.53647,N,02729.11033,E,110326.00,A,A*61
350: $GPGLL,5351.53672,N,02729.11026,E,110327.00,A,A*62
352: $GPGLL,5351.53601,N,02729.11066,E,110328.00,A,A*6D
354: $GPGLL,5351.53524,N,02729.11100,E,110329.00,A,A*69
356: $GPGLL,5351.53474,N,02729.11093,E,110330.00,A,A*6E
358: $GPGLL,5351.53406,N,02729.11066,E,110331.00,A,A*60
360: $GPGLL,5351.53344,N,02729.11028,E,110332.00,A,A*68
362: $GPGLL,5351.53269,N,02729.10993,E,110333.00,A,A*6F
364: $GPGLL,5351.53193,N,02729.10964,E,110334.00,A,A*66
366: $GPGLL,5351.53135,N,02729.10947,E,110335.00,A,A*6A
368: $GPGLL,5351.53069,N,02729.10923,E,110336.00,A,A*63
370: $GPGLL,5351.53003,N,02729.10881,E,110337.00,A,A*67
372: $GPGLL,5351.52947,N,02729.10858,E,110338.00,A,A*64
374: $GPGLL,5351.52896,N,02729.10849,E,110339.00,A,A*68
376: $GPGLL,5351.52841,N,02729.10842,E,110338.00,A,A*68
378: $GPGLL,5351.52780,N,02729.10817,E,110339.00,A,A*6B
380: $GPGLL,5351.52731,N,02729.10817,E,110340.00,A,A*6F
382: $GPGLL,5351.52703,N,02729.10840,E,110341.00,A,A*6D
384: $GPGLL,5351.52675,N,02729.10862,E,110342.00,A,A*6E
386: $GPGLL,5351.52639,N,02729.10869,E,110343.00,A,A*6C
388: $GPGLL,5351.52602,N,02729.10866,E,110344.00,A,A*6C
390: $GPGLL,5351.52567,N,02729.10863,E,110345.00,A,A*68
392: $GPGLL,5351.52543,N,02729.10871,E,110346.00,A,A*6E
394: $GPGLL,5351.52509,N,02729.10863,E,110347.00,A,A*62
396: $GPGLL,5351.52474,N,02729.10847,E,110348.00,A,A*60
398: $GPGLL,5351.52442,N,02729.10836,E,110349.00,A,A*62
400: $GPGLL,5351.52392,N,02729.10825,E,110350.00,A,A*62
402: $GPGLL,5351.52348,N,02729.10811,E,110351.00,A,A*63
404: $GPGLL,5351.52307,N,02729.10778,E,110352.00,A,A*6B
406: $GPGLL,5351.52293,N,02729.10755,E,110353.00,A,A*69
408: $GPGLL,5351.52316,N,02729.10762,E,110354.00,A,A*66
410: $GPGLL,5351.52357,N,02729.10801,E,110355.00,A,A*68
412: $GPGLL,5351.52381,N,02729.10837,E,110356.00,A,A*65
414: $GPGLL,5351.52497,N,02729.11229,E,110357.00,A,A*60
416: $GPGLL,5351.52270,N,02729.11059,E,110358.00,A,A*65
418: $GPGLL,5351.52049,N,02729.10935,E,110359.00,A,A*6E
420: $GPGLL,5351.51880,N,02729.10818,E,110400.00,A,A*65
422: $GPGLL,5351.51787,N,02729.10754,E,110401.00,A,A*6B
424: $GPGLL,5351.51802,N,02729.10780,E,110402.00,A,A*63
426: $GPGLL,5351.51852,N,02729.10828,E,110403.00,A,A*6A
428: $GPGLL,5351.51907,N,02729.10868,E,110404.00,A,A*68
430: $GPGLL,5351.51803,N,02729.10809,E,110405.00,A,A*6B
432: $GPGLL,5351.51769,N,02729.10794,E,110406.00,A,A*60
434: $GPGLL,5351.51656,N,02729.10724,E,110407.00,A,A*67
436: $GPGLL,5351.51625,N,02729.10718,E,110408.00,A,A*63
438: $GPGLL,5351.51636,N,02729.10725,E,110409.00,A,A*6E
440: $GPGLL,5351.51605,N,02729.10682,E,110410.00,A,A*6A
442: $GPGLL,5351.51549,N,02729.10636,E,110411.00,A,A*6F
444: $GPGLL,5351.51534,N,02729.10611,E,110412.00,A,A*63
446: $GPGLL,5351.51512,N,02729.10579,E,110413.00,A,A*6B
448: $GPGLL,5351.51498,N,02729.10556,E,110414.00,A,A*62
450: $GPGLL,5351.51468,N,02729.10519,E,110415.00,A,A*67
452: $GPGLL,5351.51459,N,02729.10511,E,110416.00,A,A*6E
454: $GPGLL,5351.51450,N,02729.10510,E,110417.00,A,A*67
456: $GPGLL,5351.51437,N,02729.10515,E,110418.00,A,A*6C
458: $GPGLL,5351.51418,N,02729.10503,E,110419.00,A,A*67
460: $GPGLL,5351.51403,N,02729.10492,E,110420.00,A,A*6E
462: $GPGLL,5351.51396,N,02729.10491,E,110421.00,A,A*67
464: $GPGLL,5351.51386,N,02729.10492,E,110422.00,A,A*66
466: $GPGLL,5351.51377,N,02729.10488,E,110423.00,A,A*62
468: $GPGLL,5351.51366,N,02729.10483,E,110424.00,A,A*6E
470: $GPGLL,5351.51364,N,02729.10485,E,110425.00,A,A*6B
472: $GPGLL,5351.51378,N,02729.10500,E,110426.00,A,A*69
474: $GPGLL,5351.51379,N,02729.10494,E,110427.00,A,A*65
476: $GPGLL,5351.51386,N,02729.10494,E,110428.00,A,A*6A
478: $GPGLL,5351.51398,N,02729.10507,E,110429.00,A,A*6F
480: $GPGLL,5351.51408,N,02729.10514,E,110430.00,A,A*6B
482: $GPGLL,5351.51428,N,02729.10536,E,110431.00,A,A*68
484: $GPGLL,5351.51429,N,02729.10542,E,110432.00,A,A*69
486: $GPGLL,5351.51411,N,02729.10536,E,110433.00,A,A*60
488: $GPGLL,5351.51412,N,02729.10546,E,110434.00,A,A*63
490: $GPGLL,5351.51404,N,02729.10562,E,110435.00,A,A*63
492: $GPGLL,5351.51407,N,02729.10581,E,110436.00,A,A*6E
494: $GPGLL,5351.51391,N,02729.10577,E,110437.00,A,A*6E
496: $GPGLL,5351.51367,N,02729.10565,E,110438.00,A,A*6B
498: $GPGLL,5351.51350,N,02729.10568,E,110439.00,A,A*63
500: $GPGLL,5351.51327,N,02729.10556,E,110440.00,A,A*60
502: $GPGLL,5351.51301,N,02729.10543,E,110441.00,A,A*61
504: $GPGLL,5351.51274,N,02729.10523,E,110442.00,A,A*67
506: $GPGLL,5351.51249,N,02729.10500,E,110443.00,A,A*69
508: $GPGLL,5351.51227,N,02729.10497,E,110444.00,A,A*69
510: $GPGLL,5351.51201,N,02729.10492,E,110445.00,A,A*69
512: $GPGLL,5351.51164,N,02729.10461,E,110446.00,A,A*66
514: $GPGLL,5351.51138,N,02729.10449,E,110447.00,A,A*64
516: $GPGLL,5351.51102,N,02729.10423,E,110448.00,A,A*6E
518: $GPGLL,5351.51082,N,02729.10415,E,110449.00,A,A*63
520: $GPGLL,5351.51051,N,02729.10395,E,110450.00,A,A*6A
522: $GPGLL,5351.51018,N,02729.10384,E,110451.00,A,A*66
524: $GPGLL,5351.51001,N,02729.10380,E,110452.00,A,A*69
526: $GPGLL,5351.51006,N,02729.10404,E,110453.00,A,A*64
528: $GPGLL,5351.50990,N,02729.10400,E,110454.00,A,A*60
530: $GPGLL,5351.50980,N,02729.10396,E,110455.00,A,A*68
532: $GPGLL,5351.50979,N,02729.10397,E,110456.00,A,A*6C
534: $GPGLL,5351.50982,N,02729.10404,E,110457.00,A,A*64
536: $GPGLL,5351.50974,N,02729.10399,E,110458.00,A,A*61
538: $GPGLL,5351.50941,N,02729.10366,E,110459.00,A,A*66
540: $GPGLL,5351.50921,N,02729.10346,E,110500.00,A,A*6F
542: $GPGLL,5351.50910,N,02729.10335,E,110501.00,A,A*68
544: $GPGLL,5351.50889,N,02729.10322,E,110502.00,A,A*6C
546: $GPGLL,5351.50864,N,02729.10311,E,110503.00,A,A*6E
548: $GPGLL,5351.50870,N,02729.10325,E,110504.00,A,A*6B
550: $GPGLL,5351.50893,N,02729.10354,E,110505.00,A,A*61
552: $GPGLL,5351.50909,N,02729.10379,E,110506.00,A,A*6F
554: $GPGLL,5351.50930,N,02729.10399,E,110507.00,A,A*6A
556: $GPGLL,5351.50900,N,02729.10372,E,110508.00,A,A*63
558: $GPGLL,5351.50925,N,02729.10393,E,110509.00,A,A*6A
560: $GPGLL,5351.50928,N,02729.10408,E,110510.00,A,A*6A
562: $GPGLL,5351.50910,N,02729.10407,E,110511.00,A,A*6F
564: $GPGLL,5351.50874,N,02729.10391,E,110512.00,A,A*67
566: $GPGLL,5351.50868,N,02729.10388,E,110513.00,A,A*63
568: $GPGLL,5351.50869,N,02729.10390,E,110514.00,A,A*6C
570: $GPGLL,5351.50882,N,02729.10409,E,110515.00,A,A*6F
572: $GPGLL,5351.50885,N,02729.10415,E,110516.00,A,A*66
574: $GPGLL,5351.50880,N,02729.10404,E,110517.00,A,A*62
576: $GPGLL,5351.50896,N,02729.10416,E,110518.00,A,A*69
578: $GPGLL,5351.50920,N,02729.10440,E,110519.00,A,A*67
580: $GPGLL,5351.50948,N,02729.10463,E,110520.00,A,A*62
582: $GPGLL,5351.50958,N,02729.10467,E,110521.00,A,A*66
584: $GPGLL,5351.50963,N,02729.10472,E,110522.00,A,A*69
586: $GPGLL,5351.50984,N,02729.10503,E,110523.00,A,A*66
588: $GPGLL,5351.51001,N,02729.10522,E,110524.00,A,A*67
590: $GPGLL,5351.51025,N,02729.10560,E,110525.00,A,A*66
592: $GPGLL,5351.51028,N,02729.10567,E,110526.00,A,A*6F
594: $GPGLL,5351.51030,N,02729.10569,E,110527.00,A,A*69
596: $GPGLL,5351.51029,N,02729.10570,E,110528.00,A,A*66
598: $GPGLL,5351.51017,N,02729.10552,E,110529.00,A,A*6A
600: $GPGLL,5351.51003,N,02729.10544,E,110530.00,A,A*60
602: $GPGLL,5351.50976,N,02729.10521,E,110531.00,A,A*68
604: $GPGLL,5351.50959,N,02729.10505,E,110532.00,A,A*60
606: $GPGLL,5351.50949,N,02729.10504,E,110533.00,A,A*61
608: $GPGLL,5351.50918,N,02729.10476,E,110534.00,A,A*66
610: $GPGLL,5351.50886,N,02729.10450,E,110535.00,A,A*65
612: $GPGLL,5351.50861,N,02729.10435,E,110536.00,A,A*6C
614: $GPGLL,5351.50822,N,02729.10405,E,110537.00,A,A*69
616: $GPGLL,5351.50796,N,02729.10383,E,110538.00,A,A*6F
618: $GPGLL,5351.50781,N,02729.10365,E,110539.00,A,A*60
620: $GPGLL,5351.50774,N,02729.10363,E,110540.00,A,A*62
622: $GPGLL,5351.50778,N,02729.10377,E,110541.00,A,A*6A
624: $GPGLL,5351.50799,N,02729.10413,E,110542.00,A,A*63
626: $GPGLL,5351.50791,N,02729.10417,E,110543.00,A,A*6E
628: $GPGLL,5351.50789,N,02729.10425,E,110544.00,A,A*61
630: $GPGLL,5351.50795,N,02729.10439,E,110545.00,A,A*60
632: $GPGLL,5351.50809,N,02729.10464,E,110546.00,A,A*61
634: $GPGLL,5351.50817,N,02729.10472,E,110547.00,A,A*68
636: $GPGLL,5351.50828,N,02729.10482,E,110548.00,A,A*64
638: $GPGLL,5351.50845,N,02729.10497,E,110549.00,A,A*6A
640: $GPGLL,5351.50863,N,02729.10517,E,110550.00,A,A*6F
642: $GPGLL,5351.50896,N,02729.10548,E,110551.00,A,A*6E
644: $GPGLL,5351.50920,N,02729.10577,E,110552.00,A,A*6D
646: $GPGLL,5351.50932,N,02729.10588,E,110553.00,A,A*6F
648: $GPGLL,5351.50957,N,02729.10622,E,110554.00,A,A*68
650: $GPGLL,5351.50977,N,02729.10651,E,110555.00,A,A*6F
652: $GPGLL,5351.50982,N,02729.10658,E,110556.00,A,A*6F
654: $GPGLL,5351.50987,N,02729.10666,E,110557.00,A,A*66
656: $GPGLL,5351.50999,N,02729.10685,E,110558.00,A,A*6B
658: $GPGLL,5351.51013,N,02729.10707,E,110559.00,A,A*6B
660: $GPGLL,5351.51020,N,02729.10720,E,110600.00,A,A*61
662: $GPGLL,5351.51025,N,02729.10725,E,110601.00,A,A*60
664: $GPGLL,5351.51022,N,02729.10719,E,110602.00,A,A*6B
666: $GPGLL,5351.51023,N,02729.10713,E,110603.00,A,A*61
668: $GPGLL,5351.51033,N,02729.10728,E,110604.00,A,A*6F
670: $GPGLL,5351.51022,N,02729.10712,E,110605.00,A,A*67
672: $GPGLL,5351.51009,N,02729.10694,E,110606.00,A,A*62
674: $GPGLL,5351.51006,N,02729.10687,E,110607.00,A,A*6E
676: $GPGLL,5351.51002,N,02729.10683,E,110608.00,A,A*61
678: $GPGLL,5351.50999,N,02729.10688,E,110609.00,A,A*61
680: $GPGLL,5351.50986,N,02729.10671,E,110610.00,A,A*61
682: $GPGLL,5351.50974,N,02729.10654,E,110611.00,A,A*6A
684: $GPGLL,5351.50962,N,02729.10641,E,110612.00,A,A*6A
686: $GPGLL,5351.50957,N,02729.10637,E,110613.00,A,A*6C
688: $GPGLL,5351.50960,N,02729.10649,E,110614.00,A,A*66
690: $GPGLL,5351.50942,N,02729.10627,E,110615.00,A,A*6F
692: $GPGLL,5351.50942,N,02729.10630,E,110616.00,A,A*6A
694: $GPGLL,5351.50933,N,02729.10637,E,110617.00,A,A*6A
696: $GPGLL,5351.50925,N,02729.10627,E,110618.00,A,A*63
698: $GPGLL,5351.50900,N,02729.10607,E,110619.00,A,A*67
700: $GPGLL,5351.50880,N,02729.10600,E,110620.00,A,A*63
702: $GPGLL,5351.50867,N,02729.10596,E,110621.00,A,A*67
704: $GPGLL,5351.50863,N,02729.10602,E,110622.00,A,A*6E
706: $GPGLL,5351.50850,N,02729.10595,E,110623.00,A,A*62
708: $GPGLL,5351.50837,N,02729.10587,E,110624.00,A,A*67
710: $GPGLL,5351.50837,N,02729.10594,E,110625.00,A,A*64
712: $GPGLL,5351.50843,N,02729.10608,E,110626.00,A,A*62
714: $GPGLL,5351.50844,N,02729.10610,E,110627.00,A,A*6D
716: $GPGLL,5351.50831,N,02729.10598,E,110628.00,A,A*63
718: $GPGLL,5351.50813,N,02729.10575,E,110629.00,A,A*61
720: $GPGLL,5351.50801,N,02729.10564,E,110630.00,A,A*6A
722: $GPGLL,5351.50792,N,02729.10548,E,110631.00,A,A*60
724: $GPGLL,5351.50782,N,02729.10532,E,110632.00,A,A*6F
726: $GPGLL,5351.50782,N,02729.10528,E,110633.00,A,A*65
728: $GPGLL,5351.50790,N,02729.10538,E,110634.00,A,A*60
730: $GPGLL,5351.50810,N,02729.10556,E,110635.00,A,A*6E
732: $GPGLL,5351.50838,N,02729.10577,E,110636.00,A,A*64
734: $GPGLL,5351.50850,N,02729.10583,E,110637.00,A,A*60
736: $GPGLL,5351.50875,N,02729.10605,E,110638.00,A,A*65
738: $GPGLL,5351.50888,N,02729.10621,E,110639.00,A,A*60
740: $GPGLL,5351.50886,N,02729.10619,E,110640.00,A,A*6B
742: $GPGLL,5351.50881,N,02729.10611,E,110641.00,A,A*65
744: $GPGLL,5351.50881,N,02729.10609,E,110642.00,A,A*6F
746: $GPGLL,5351.50877,N,02729.10595,E,110643.00,A,A*61
748: $GPGLL,5351.50885,N,02729.10604,E,110644.00,A,A*60
750: $GPGLL,5351.50885,N,02729.10606,E,110645.00,A,A*63
752: $GPGLL,5351.50880,N,02729.10596,E,110646.00,A,A*6F
754: $GPGLL,5351.50889,N,02729.10600,E,110647.00,A,A*6B
756: $GPGLL,5351.50907,N,02729.10620,E,110648.00,A,A*61
758: $GPGLL,5351.50912,N,02729.10627,E,110649.00,A,A*63
760: $GPGLL,5351.50910,N,02729.10619,E,110650.00,A,A*64
762: $GPGLL,5351.50919,N,02729.10622,E,110651.00,A,A*64
764: $GPGLL,5351.50920,N,02729.10622,E,110652.00,A,A*6D
766: $GPGLL,5351.50916,N,02729.10617,E,110653.00,A,A*6F
768: $GPGLL,5351.50902,N,02729.10600,E,110654.00,A,A*6B
770: $GPGLL,5351.50891,N,02729.10588,E,110655.00,A,A*62
772: $GPGLL,5351.50883,N,02729.10595,E,110656.00,A,A*6E
774: $GPGLL,5351.50866,N,02729.10595,E,110657.00,A,A*64
776: $GPGLL,5351.50866,N,02729.10602,E,110658.00,A,A*66
778: $GPGLL,5351.50840,N,02729.10578,E,110659.00,A,A*6D
780: $GPGLL,5351.50822,N,02729.10567,E,110700.00,A,A*6A
782: $GPGLL,5351.50812,N,02729.10565,E,110701.00,A,A*6A
784: $GPGLL,5351.50824,N,02729.10574,E,110702.00,A,A*6C
786: $GPGLL,5351.50842,N,02729.10573,E,110703.00,A,A*6A
788: $GPGLL,5351.50838,N,02729.10572,E,110704.00,A,A*61
790: $GPGLL,5351.50852,N,02729.10595,E,110705.00,A,A*65
792: $GPGLL,5351.50860,N,02729.10609,E,110706.00,A,A*61
794: $GPGLL,5351.50864,N,02729.10614,E,110707.00,A,A*68
796: $GPGLL,5351.50877,N,02729.10629,E,110708.00,A,A*6B
798: $GPGLL,5351.50887,N,02729.10642,E,110709.00,A,A*68
800: $GPGLL,5351.50901,N,02729.10662,E,110710.00,A,A*6D
802: $GPGLL,5351.50899,N,02729.10661,E,110711.00,A,A*6F
804: $GPGLL,5351.50900,N,02729.10656,E,110712.00,A,A*69
806: $GPGLL,5351.50908,N,02729.10662,E,110713.00,A,A*67
808: $GPGLL,5351.50924,N,02729.10678,E,110714.00,A,A*65
810: $GPGLL,5351.50935,N,02729.10685,E,110715.00,A,A*66
812: $GPGLL,5351.50948,N,02729.10687,E,110716.00,A,A*6D
814: $GPGLL,5351.50965,N,02729.10698,E,110717.00,A,A*6D
816: $GPGLL,5351.50980,N,02729.10710,E,110718.00,A,A*68
818: $GPGLL,5351.50996,N,02729.10732,E,110719.00,A,A*6E
820: $GPGLL,5351.50999,N,02729.10735,E,110720.00,A,A*6C
822: $GPGLL,5351.50998,N,02729.10727,E,110721.00,A,A*6F
824: $GPGLL,5351.51004,N,02729.10724,E,110722.00,A,A*62
826: $GPGLL,5351.51006,N,02729.10719,E,110723.00,A,A*6F
828: $GPGLL,5351.51004,N,02729.10711,E,110724.00,A,A*62
830: $GPGLL,5351.50995,N,02729.10697,E,110725.00,A,A*6C
832: $GPGLL,5351.50995,N,02729.10697,E,110726.00,A,A*6F
834: $GPGLL,5351.50999,N,02729.10705,E,110727.00,A,A*68
836: $GPGLL,5351.51005,N,02729.10717,E,110728.00,A,A*69
838: $GPGLL,5351.51006,N,02729.10729,E,110729.00,A,A*66
840: $GPGLL,5351.51004,N,02729.10728,E,110730.00,A,A*6D
842: $GPGLL,5351.51007,N,02729.10740,E,110731.00,A,A*61
844: $GPGLL,5351.51008,N,02729.10758,E,110732.00,A,A*64
846: $GPGLL,5351.50998,N,02729.10761,E,110733.00,A,A*6E
848: $GPGLL,5351.50975,N,02729.10746,E,110734.00,A,A*6F
850: $GPGLL,5351.50970,N,02729.10753,E,110735.00,A,A*6F
852: $GPGLL,5351.50955,N,02729.10753,E,110736.00,A,A*6B
854: $GPGLL,5351.50924,N,02729.10734,E,110737.00,A,A*6D
856: $GPGLL,5351.50896,N,02729.10719,E,110738.00,A,A*65
858: $GPGLL,5351.50864,N,02729.10692,E,110739.00,A,A*6B
860: $GPGLL,5351.50856,N,02729.10693,E,110740.00,A,A*65
862: $GPGLL,5351.50860,N,02729.10708,E,110741.00,A,A*62
864: $GPGLL,5351.50845,N,02729.10696,E,110742.00,A,A*60
866: $GPGLL,5351.50819,N,02729.10669,E,110743.00,A,A*68
868: $GPGLL,5351.50813,N,02729.10650,E,110744.00,A,A*6F
870: $GPGLL,5351.50819,N,02729.10642,E,110745.00,A,A*67
872: $GPGLL,5351.50814,N,02729.10626,E,110746.00,A,A*6B
874: $GPGLL,5351.50823,N,02729.10634,E,110747.00,A,A*6D
876: $GPGLL,5351.50834,N,02729.10650,E,110748.00,A,A*66
878: $GPGLL,5351.50846,N,02729.10662,E,110749.00,A,A*63
880: $GPGLL,5351.50848,N,02729.10657,E,110750.00,A,A*63
882: $GPGLL,5351.50867,N,02729.10668,E,110751.00,A,A*63
884: $GPGLL,5351.50864,N,02729.10644,E,110752.00,A,A*6D
886: $GPGLL,5351.50870,N,02729.10631,E,110753.00,A,A*6B
888: $GPGLL,5351.50888,N,02729.10629,E,110754.00,A,A*62
890: $GPGLL,5351.50888,N,02729.10622,E,110755.00,A,A*68
892: $GPGLL,5351.50902,N,02729.10625,E,110756.00,A,A*6F
894: $GPGLL,5351.50903,N,02729.10622,E,110757.00,A,A*68
896: $GPGLL,5351.50915,N,02729.10627,E,110758.00,A,A*65
898: $GPGLL,5351.50931,N,02729.10646,E,110759.00,A,A*65
900: $GPGLL,5351.50934,N,02729.10651,E,110800.00,A,A*65
902: $GPGLL,5351.50942,N,02729.10646,E,110801.00,A,A*63
904: $GPGLL,5351.50953,N,02729.10646,E,110802.00,A,A*60
906: $GPGLL,5351.50969,N,02729.10658,E,110803.00,A,A*67
908: $GPGLL,5351.50976,N,02729.10658,E,110804.00,A,A*6E
910: $GPGLL,5351.50972,N,02729.10640,E,110805.00,A,A*62
912: $GPGLL,5351.50967,N,02729.10620,E,110806.00,A,A*63
914: $GPGLL,5351.50973,N,02729.10614,E,110807.00,A,A*60
916: $GPGLL,5351.50980,N,02729.10625,E,110808.00,A,A*61
918: $GPGLL,5351.50982,N,02729.10641,E,110809.00,A,A*60
920: $GPGLL,5351.50977,N,02729.10646,E,110810.00,A,A*65
922: $GPGLL,5351.50983,N,02729.10666,E,110811.00,A,A*6D
924: $GPGLL,5351.50985,N,02729.10677,E,110812.00,A,A*68
926: $GPGLL,5351.50969,N,02729.10660,E,110813.00,A,A*6D
928: $GPGLL,5351.50956,N,02729.10650,E,110814.00,A,A*65
930: $GPGLL,5351.50945,N,02729.10643,E,110815.00,A,A*64
932: $GPGLL,5351.50931,N,02729.10632,E,110816.00,A,A*62
934: $GPGLL,5351.50923,N,02729.10634,E,110817.00,A,A*66
936: $GPGLL,5351.50897,N,02729.10609,E,110818.00,A,A*69
938: $GPGLL,5351.50872,N,02729.10578,E,110819.00,A,A*66
940: $GPGLL,5351.50856,N,02729.10562,E,110820.00,A,A*61
942: $GPGLL,5351.50851,N,02729.10561,E,110821.00,A,A*64
944: $GPGLL,5351.50842,N,02729.10554,E,110822.00,A,A*63
946: $GPGLL,5351.50825,N,02729.10533,E,110823.00,A,A*62
948: $GPGLL,5351.50820,N,02729.10529,E,110824.00,A,A*6B
950: $GPGLL,5351.50819,N,02729.10533,E,110825.00,A,A*6B
952: $GPGLL,5351.50818,N,02729.10530,E,110826.00,A,A*6A
954: $GPGLL,5351.50814,N,02729.10519,E,110827.00,A,A*6C
956: $GPGLL,5351.50812,N,02729.10500,E,110828.00,A,A*6D
958: $GPGLL,5351.50806,N,02729.10485,E,110829.00,A,A*65
960: $GPGLL,5351.50820,N,02729.10496,E,110830.00,A,A*6B
962: $GPGLL,5351.50824,N,02729.10499,E,110831.00,A,A*61
964: $GPGLL,5351.50832,N,02729.10502,E,110832.00,A,A*66
966: $GPGLL,5351.50832,N,02729.10498,E,110833.00,A,A*65
968: $GPGLL,5351.50827,N,02729.10488,E,110834.00,A,A*67
970: $GPGLL,5351.50822,N,02729.10475,E,110835.00,A,A*61
972: $GPGLL,5351.50819,N,02729.10464,E,110836.00,A,A*6A
974: $GPGLL,5351.50809,N,02729.10449,E,110837.00,A,A*65
976: $GPGLL,5351.50807,N,02729.10448,E,110838.00,A,A*65
978: $GPGLL,5351.50820,N,02729.10478,E,110839.00,A,A*62
980: $GPGLL,5351.50818,N,02729.10480,E,110840.00,A,A*60
982: $GPGLL,5351.50823,N,02729.10488,E,110841.00,A,A*61
984: $GPGLL,5351.50828,N,02729.10505,E,110842.00,A,A*6D
986: $GPGLL,5351.50843,N,02729.10533,E,110843.00,A,A*64
988: $GPGLL,5351.50844,N,02729.10540,E,110844.00,A,A*60
990: $GPGLL,5351.50841,N,02729.10541,E,110845.00,A,A*65
991: $GPGLL,5351.50830,N,02729.10522,E,110846.00,A,A*65
991: $GPGLL,5351.50820,N,02729.10505,E,110847.00,A,A*60
991: $GPGLL,5351.50815,N,02729.10504,E,110848.00,A,A*68
991: $GPGLL,5351.50804,N,02729.10489,E,110849.00,A,A*6D
991: $GPGLL,5351.50789,N,02729.10468,E,110850.00,A,A*60
991: $GPGLL,5351.50789,N,02729.10475,E,110851.00,A,A*6D
991: $GPGLL,5351.50785,N,02729.10483,E,110852.00,A,A*6B
991: $GPGLL,5351.50786,N,02729.10497,E,110853.00,A,A*6C
991: $GPGLL,5351.50780,N,02729.10495,E,110854.00,A,A*6F
991: $GPGLL,5351.50782,N,02729.10501,E,110855.00,A,A*60
991: $GPGLL,5351.50799,N,02729.10515,E,110856.00,A,A*6C
991: $GPGLL,5351.50825,N,02729.10548,E,110857.00,A,A*6D
991: $GPGLL,5351.50844,N,02729.10564,E,110858.00,A,A*6B
991: $GPGLL,5351.50866,N,02729.10593,E,110859.00,A,A*62
991: $GPGLL,5351.50879,N,02729.10610,E,110900.00,A,A*69
991: $GPGLL,5351.50898,N,02729.10639,E,110901.00,A,A*6C
991: $GPGLL,5351.50919,N,02729.10654,E,110902.00,A,A*6C
991: $GPGLL,5351.50931,N,02729.10649,E,110903.00,A,A*6B
991: $GPGLL,5351.50932,N,02729.10634,E,110904.00,A,A*65
991: $GPGLL,5351.50936,N,02729.10618,E,110905.00,A,A*6E
991: $GPGLL,5351.50937,N,02729.10607,E,110906.00,A,A*62
991: $GPGLL,5351.50940,N,02729.10607,E,110907.00,A,A*63
991: $GPGLL,5351.50938,N,02729.10593,E,110908.00,A,A*6D
991: $GPGLL,5351.50934,N,02729.10580,E,110909.00,A,A*62
991: $GPGLL,5351.50940,N,02729.10582,E,110910.00,A,A*6B
991: $GPGLL,5351.50948,N,02729.10584,E,110911.00,A,A*64
991: $GPGLL,5351.50937,N,02729.10564,E,110912.00,A,A*61
991: $GPGLL,5351.50938,N,02729.10562,E,110913.00,A,A*69
991: $GPGLL,5351.50955,N,02729.10579,E,110914.00,A,A*6F
991: $GPGLL,5351.50965,N,02729.10580,E,110915.00,A,A*6B
991: $GPGLL,5351.50966,N,02729.10577,E,110916.00,A,A*63
991: $GPGLL,5351.50956,N,02729.10562,E,110917.00,A,A*65
991: $GPGLL,5351.50944,N,02729.10547,E,110918.00,A,A*6E
991: $GPGLL,5351.50947,N,02729.10554,E,110919.00,A,A*6E
991: $GPGLL,5351.50949,N,02729.10566,E,110920.00,A,A*6B
991: $GPGLL,5351.50931,N,02729.10549,E,110921.00,A,A*68
991: $GPGLL,5351.50921,N,02729.10542,E,110922.00,A,A*61
991: $GPGLL,5351.50921,N,02729.10542,E,110923.00,A,A*60
991: $GPGLL,5351.50922,N,02729.10542,E,110924.00,A,A*64
991: $GPGLL,5351.50914,N,02729.10527,E,110925.00,A,A*63
991: $GPGLL,5351.50906,N,02729.10511,E,110926.00,A,A*66
991: $GPGLL,5351.50900,N,02729.10498,E,110927.00,A,A*61
991: $GPGLL,5351.50906,N,02729.10508,E,110928.00,A,A*60
991: $GPGLL,5351.50901,N,02729.10506,E,110929.00,A,A*68
991: $GPGLL,5351.50897,N,02729.10501,E,110930.00,A,A*69
991: $GPGLL,5351.50896,N,02729.10502,E,110931.00,A,A*6A
991: $GPGLL,5351.50893,N,02729.10505,E,110932.00,A,A*6B
991: $GPGLL,5351.50887,N,02729.10496,E,110933.00,A,A*64
991: $GPGLL,5351.50877,N,02729.10471,E,110934.00,A,A*65
991: $GPGLL,5351.50866,N,02729.10447,E,110935.00,A,A*61
991: $GPGLL,5351.50853,N,02729.10428,E,110936.00,A,A*6D
991: $GPGLL,5351.50852,N,02729.10435,E,110937.00,A,A*61
991: $GPGLL,5351.50849,N,02729.10437,E,110938.00,A,A*66
991: $GPGLL,5351.50838,N,02729.10428,E,110939.00,A,A*6F
991: $GPGLL,5351.50825,N,02729.10418,E,110940.00,A,A*6E
991: $GPGLL,5351.50829,N,02729.10421,E,110941.00,A,A*69
991: $GPGLL,5351.50835,N,02729.10433,E,110942.00,A,A*64
991: $GPGLL,5351.50823,N,02729.10420,E,110943.00,A,A*60
991: $GPGLL,5351.50821,N,02729.10416,E,110944.00,A,A*60
991: $GPGLL,5351.50819,N,02729.10410,E,110945.00,A,A*6C
991: $GPGLL,5351.50813,N,02729.10394,E,110946.00,A,A*6E
991: $GPGLL,5351.50803,N,02729.10381,E,110947.00,A,A*6A
991: $GPGLL,5351.50789,N,02729.10362,E,110948.00,A,A*65
991: $GPGLL,5351.50777,N,02729.10347,E,110949.00,A,A*62
991: $GPGLL,5351.50778,N,02729.10345,E,110950.00,A,A*67
991: $GPGLL,5351.50773,N,02729.10340,E,110951.00,A,A*68
991: $GPGLL,5351.50755,N,02729.10319,E,110952.00,A,A*63
991: $GPGLL,5351.50752,N,02729.10315,E,110953.00,A,A*69
991: $GPGLL,5351.50751,N,02729.10314,E,110954.00,A,A*6C
991: $GPGLL,5351.50756,N,02729.10322,E,110955.00,A,A*6F
991: $GPGLL,5351.50755,N,02729.10314,E,110956.00,A,A*6A
991: $GPGLL,5351.50750,N,02729.10297,E,110957.00,A,A*64
991: $GPGLL,5351.50744,N,02729.10280,E,110958.00,A,A*68
991: $GPGLL,5351.50750,N,02729.10285,E,110959.00,A,A*69
991: $GPGLL,5351.50754,N,02729.10281,E,111000.00,A,A*6D
991: $GPGLL,5351.50751,N,02729.10267,E,111001.00,A,A*61
991: $GPGLL,5351.50748,N,02729.10257,E,111002.00,A,A*69
991: $GPGLL,5351.50744,N,02729.10247,E,111003.00,A,A*65
991: $GPGLL,5351.50739,N,02729.10231,E,111004.00,A,A*69
991: $GPGLL,5351.50732,N,02729.10220,E,111005.00,A,A*63
991: $GPGLL,5351.50723,N,02729.10201,E,111006.00,A,A*63
991: $GPGLL,5351.50718,N,02729.10186,E,111007.00,A,A*66
991: $GPGLL,5351.50724,N,02729.10191,E,111008.00,A,A*60
991: $GPGLL,5351.50730,N,02729.10197,E,111009.00,A,A*62
991: $GPGLL,5351.50735,N,02729.10194,E,111010.00,A,A*6C
991: $GPGLL,5351.50741,N,02729.10193,E,111011.00,A,A*69
991: $GPGLL,5351.50745,N,02729.10188,E,111012.00,A,A*64
991: $GPGLL,5351.50755,N,02729.10200,E,111013.00,A,A*67
991: $GPGLL,5351.50750,N,02729.10179,E,111014.00,A,A*68
991: $GPGLL,5351.50745,N,02729.10162,E,111015.00,A,A*67
991: $GPGLL,5351.50743,N,02729.10155,E,111016.00,A,A*66
991: $GPGLL,5351.50748,N,02729.10160,E,111017.00,A,A*6A
991: $GPGLL,5351.50748,N,02729.10163,E,111018.00,A,A*66
991: $GPGLL,5351.50738,N,02729.10150,E,111019.00,A,A*60
991: $GPGLL,5351.50733,N,02729.10153,E,111020.00,A,A*62
991: $GPGLL,5351.50733,N,02729.10158,E,111021.00,A,A*68
991: $GPGLL,5351.50733,N,02729.10167,E,111022.00,A,A*67
991: $GPGLL,5351.50738,N,02729.10182,E,111023.00,A,A*66
991: $GPGLL,5351.50742,N,02729.10186,E,111024.00,A,A*68
991: $GPGLL,5351.50741,N,02729.10181,E,111025.00,A,A*6D
991: $GPGLL,5351.50744,N,02729.10187,E,111026.00,A,A*6D
991: $GPGLL,5351.50740,N,02729.10185,E,111027.00,A,A*6A
991: $GPGLL,5351.50729,N,02729.10177,E,111028.00,A,A*67
991: $GPGLL,5351.50727,N,02729.10187,E,111029.00,A,A*67
991: $GPGLL,5351.50733,N,02729.10207,E,111030.00,A,A*61
991: $GPGLL,5351.50736,N,02729.10217,E,111031.00,A,A*64
991: $GPGLL,5351.50728,N,02729.10208,E,111032.00,A,A*66
991: $GPGLL,5351.50725,N,02729.10202,E,111033.00,A,A*60
991: $GPGLL,5351.50723,N,02729.10208,E,111034.00,A,A*6B
991: $GPGLL,5351.50716,N,02729.10203,E,111035.00,A,A*67
991: $GPGLL,5351.50703,N,02729.10187,E,111036.00,A,A*6F
991: $GPGLL,5351.50691,N,02729.10164,E,111037.00,A,A*69
991: $GPGLL,5351.50683,N,02729.10148,E,111038.00,A,A*6B
991: $GPGLL,5351.50683,N,02729.10137,E,111039.00,A,A*62
991: $GPGLL,5351.50685,N,02729.10121,E,111040.00,A,A*6D
991: $GPGLL,5351.50678,N,02729.10093,E,111041.00,A,A*66
991: $GPGLL,5351.50672,N,02729.10063,E,111042.00,A,A*60
991: $GPGLL,5351.50670,N,02729.10046,E,111043.00,A,A*64
991: $GPGLL,5351.50671,N,02729.10041,E,111044.00,A,A*65
991: $GPGLL,5351.50666,N,02729.10026,E,111045.00,A,A*63
991: $GPGLL,5351.50660,N,02729.10020,E,111046.00,A,A*60
991: $GPGLL,5351.50648,N,02729.10005,E,111047.00,A,A*6C
991: $GPGLL,5351.50648,N,02729.10005,E,111048.00,A,A*63
991: $GPGLL,5351.50649,N,02729.10001,E,111049.00,A,A*67
991: $GPGLL,5351.50642,N,02729.09981,E,111050.00,A,A*6D
991: $GPGLL,5351.50643,N,02729.09972,E,111051.00,A,A*61
993: $GPGLL,5351.50645,N,02729.09969,E,111052.00,A,A*6E
995: $GPGLL,5351.50641,N,02729.09955,E,111053.00,A,A*64
997: $GPGLL,5351.50639,N,02729.09936,E,111054.00,A,A*69
999: $GPGLL,5351.50639,N,02729.09929,E,111055.00,A,A*66
1001: $GPGLL,5351.50640,N,02729.09935,E,111056.00,A,A*66
1003: $GPGLL,5351.50650,N,02729.09947,E,111057.00,A,A*63
1005: $GPGLL,5351.50654,N,02729.09954,E,111058.00,A,A*6A
1007: $GPGLL,5351.50644,N,02729.09930,E,111059.00,A,A*68
1009: $GPGLL,5351.50652,N,02729.09936,E,111100.00,A,A*64
1011: $GPGLL,5351.50666,N,02729.09951,E,111101.00,A,A*63
1013: $GPGLL,5351.50667,N,02729.09953,E,111102.00,A,A*63
1015: $GPGLL,5351.50665,N,02729.09952,E,111103.00,A,A*61
1017: $GPGLL,5351.50668,N,02729.09958,E,111104.00,A,A*61
1019: $GPGLL,5351.50672,N,02729.09961,E,111105.00,A,A*61
1021: $GPGLL,5351.50687,N,02729.09989,E,111106.00,A,A*6E
1023: $GPGLL,5351.50698,N,02729.10013,E,111107.00,A,A*63
1025: $GPGLL,5351.50699,N,02729.10017,E,111108.00,A,A*69
1027: $GPGLL,5351.50700,N,02729.10024,E,111109.00,A,A*69
1029: $GPGLL,5351.50708,N,02729.10049,E,111110.00,A,A*62
1031: $GPGLL,5351.50704,N,02729.10056,E,111111.00,A,A*61
1033: $GPGLL,5351.50704,N,02729.10054,E,111112.00,A,A*60
1035: $GPGLL,5351.50712,N,02729.10073,E,111113.00,A,A*63
1037: $GPGLL,5351.50714,N,02729.10081,E,111114.00,A,A*6F
1039: $GPGLL,5351.50721,N,02729.10097,E,111115.00,A,A*6F
1041: $GPGLL,5351.50727,N,02729.10107,E,111116.00,A,A*62
1043: $GPGLL,5351.50725,N,02729.10096,E,111117.00,A,A*68
1045: $GPGLL,5351.50727,N,02729.10095,E,111118.00,A,A*66
1047: $GPGLL,5351.50739,N,02729.10120,E,111119.00,A,A*67
1049: $GPGLL,5351.50746,N,02729.10128,E,111120.00,A,A*6D
1051: $GPGLL,5351.50741,N,02729.10116,E,111121.00,A,A*66
1053: $GPGLL,5351.50737,N,02729.10105,E,111122.00,A,A*66
1055: $GPGLL,5351.50739,N,02729.10099,E,111123.00,A,A*6D
1057: $GPGLL,5351.50748,N,02729.10097,E,111124.00,A,A*62
1059: $GPGLL,5351.50749,N,02729.10082,E,111125.00,A,A*66
1061: $GPGLL,5351.50744,N,02729.10071,E,111126.00,A,A*64
1063: $GPGLL,5351.50740,N,02729.10066,E,111127.00,A,A*67
1065: $GPGLL,5351.50745,N,02729.10077,E,111128.00,A,A*6D
1067: $GPGLL,5351.50747,N,02729.10074,E,111129.00,A,A*6D
1069: $GPGLL,5351.50739,N,02729.10063,E,111130.00,A,A*6A
1071: $GPGLL,5351.50729,N,02729.10051,E,111131.00,A,A*6B
1073: $GPGLL,5351.50730,N,02729.10048,E,111132.00,A,A*68
1075: $GPGLL,5351.50729,N,02729.10048,E,111133.00,A,A*61
1077: $GPGLL,5351.50731,N,02729.10054,E,111134.00,A,A*62
1079: $GPGLL,5351.50718,N,02729.10031,E,111135.00,A,A*6B
1081: $GPGLL,5351.50706,N,02729.10009,E,111136.00,A,A*6C
1083: $GPGLL,5351.50708,N,02729.10013,E,111137.00,A,A*68
1085: $GPGLL,5351.50705,N,02729.10007,E,111138.00,A,A*6F
1087: $GPGLL,5351.50692,N,02729.09985,E,111139.00,A,A*6A
1089: $GPGLL,5351.50692,N,02729.09988,E,111140.00,A,A*69
1091: $GPGLL,5351.50698,N,02729.09993,E,111141.00,A,A*68
1093: $GPGLL,5351.50698,N,02729.09992,E,111142.00,A,A*6A
1095: $GPGLL,5351.50702,N,02729.10000,E,111143.00,A,A*63
1097: $GPGLL,5351.50696,N,02729.09994,E,111144.00,A,A*64
1099: $GPGLL,5351.50700,N,02729.09998,E,111145.00,A,A*67
1101: $GPGLL,5351.50715,N,02729.10022,E,111146.00,A,A*60
1103: $GPGLL,5351.50722,N,02729.10042,E,111147.00,A,A*63
1105: $GPGLL,5351.50717,N,02729.10031,E,111148.00,A,A*6E
1107: $GPGLL,5351.50713,N,02729.10021,E,111149.00,A,A*6A
1109: $GPGLL,5351.50718,N,02729.10024,E,111150.00,A,A*6C
1111: $GPGLL,5351.50720,N,02729.10023,E,111151.00,A,A*61
1113: $GPGLL,5351.50715,N,02729.10017,E,111152.00,A,A*63
1115: $GPGLL,5351.50713,N,02729.10012,E,111153.00,A,A*61
1117: $GPGLL,5351.50708,N,02729.10019,E,111154.00,A,A*67
1119: $GPGLL,5351.50710,N,02729.10034,E,111155.00,A,A*60
1121: $GPGLL,5351.50716,N,02729.10052,E,111156.00,A,A*65
1123: $GPGLL,5351.50710,N,02729.10040,E,111157.00,A,A*61
1125: $GPGLL,5351.50708,N,02729.10035,E,111158.00,A,A*65
1127: $GPGLL,5351.50716,N,02729.10048,E,111159.00,A,A*61
1129: $GPGLL,5351.50716,N,02729.10056,E,111200.00,A,A*61
1131: $GPGLL,5351.50714,N,02729.10050,E,111201.00,A,A*64
1133: $GPGLL,5351.50708,N,02729.10035,E,111202.00,A,A*69
1135: $GPGLL,5351.50703,N,02729.10034,E,111203.00,A,A*62
1137: $GPGLL,5351.50701,N,02729.10040,E,111204.00,A,A*64
1139: $GPGLL,5351.50697,N,02729.10049,E,111205.00,A,A*62
1141: $GPGLL,5351.50681,N,02729.10031,E,111206.00,A,A*69
1143: $GPGLL,5351.50675,N,02729.10020,E,111207.00,A,A*63
1145: $GPGLL,5351.50684,N,02729.10031,E,111208.00,A,A*62
1147: $GPGLL,5351.50685,N,02729.10029,E,111209.00,A,A*6B
1149: $GPGLL,5351.50680,N,02729.10022,E,111210.00,A,A*6D
1151: $GPGLL,5351.50672,N,02729.10010,E,111211.00,A,A*60
1153: $GPGLL,5351.50668,N,02729.10009,E,111212.00,A,A*60
1155: $GPGLL,5351.50670,N,02729.10019,E,111213.00,A,A*69
1157: $GPGLL,5351.50661,N,02729.10014,E,111214.00,A,A*63
1159: $GPGLL,5351.50655,N,02729.10009,E,111215.00,A,A*69
1161: $GPGLL,5351.50654,N,02729.10009,E,111216.00,A,A*6B
1163: $GPGLL,5351.50663,N,02729.10028,E,111217.00,A,A*6D
1165: $GPGLL,5351.50667,N,02729.10035,E,111218.00,A,A*6A
1167: $GPGLL,5351.50668,N,02729.10046,E,111219.00,A,A*60
1169: $GPGLL,5351.50667,N,02729.10046,E,111220.00,A,A*65
1171: $GPGLL,5351.50670,N,02729.10054,E,111221.00,A,A*61
1173: $GPGLL,5351.50673,N,02729.10056,E,111222.00,A,A*63
1175: $GPGLL,5351.50671,N,02729.10056,E,111223.00,A,A*60
1177: $GPGLL,5351.50668,N,02729.10050,E,111224.00,A,A*69
1179: $GPGLL,5351.50665,N,02729.10049,E,111225.00,A,A*6D
1181: $GPGLL,5351.50669,N,02729.10059,E,111226.00,A,A*63
1183: $GPGLL,5351.50674,N,02729.10073,E,111227.00,A,A*66
1185: $GPGLL,5351.50673,N,02729.10072,E,111228.00,A,A*6F
1187: $GPGLL,5351.50680,N,02729.10081,E,111229.00,A,A*6E
1189: $GPGLL,5351.50692,N,02729.10103,E,111230.00,A,A*6E
1191: $GPGLL,5351.50695,N,02729.10110,E,111231.00,A,A*6A
1193: $GPGLL,5351.50697,N,02729.10115,E,111232.00,A,A*6E
1195: $GPGLL,5351.50699,N,02729.10120,E,111233.00,A,A*67
1197: $GPGLL,5351.50697,N,02729.10115,E,111234.00,A,A*68
1199: $GPGLL,5351.50698,N,02729.10115,E,111235.00,A,A*66
1201: $GPGLL,5351.50703,N,02729.10114,E,111236.00,A,A*67
1203: $GPGLL,5351.50702,N,02729.10116,E,111237.00,A,A*65
1205: $GPGLL,5351.50705,N,02729.10125,E,111238.00,A,A*6D
1207: $GPGLL,5351.50706,N,02729.10133,E,111239.00,A,A*68
1209: $GPGLL,5351.50720,N,02729.10156,E,111240.00,A,A*61
1211: $GPGLL,5351.50723,N,02729.10161,E,111241.00,A,A*67
1213: $GPGLL,5351.50719,N,02729.10151,E,111242.00,A,A*6E
1215: $GPGLL,5351.50713,N,02729.10138,E,111243.00,A,A*6A
1217: $GPGLL,5351.50712,N,02729.10132,E,111244.00,A,A*66
1219: $GPGLL,5351.50722,N,02729.10140,E,111245.00,A,A*61
1221: $GPGLL,5351.50723,N,02729.10137,E,111246.00,A,A*63
1223: $GPGLL,5351.50716,N,02729.10125,E,111247.00,A,A*67
1225: $GPGLL,5351.50714,N,02729.10118,E,111248.00,A,A*64
1227: $GPGLL,5351.50723,N,02729.10129,E,111249.00,A,A*63
1229: $GPGLL,5351.50732,N,02729.10139,E,111250.00,A,A*6A
1231: $GPGLL,5351.50729,N,02729.10127,E,111251.00,A,A*6E
1233: $GPGLL,5351.50720,N,02729.10109,E,111252.00,A,A*68
1235: $GPGLL,5351.50716,N,02729.10102,E,111253.00,A,A*67
1237: $GPGLL,5351.50723,N,02729.10118,E,111254.00,A,A*6D
1239: $GPGLL,5351.50729,N,02729.10138,E,111255.00,A,A*64
1241: $GPGLL,5351.50724,N,02729.10136,E,111256.00,A,A*64
1243: $GPGLL,5351.50725,N,02729.10133,E,111257.00,A,A*61
1245: $GPGLL,5351.50738,N,02729.10148,E,111258.00,A,A*6E
1247: $GPGLL,5351.50742,N,02729.10153,E,111259.00,A,A*68
1249: $GPGLL,5351.50734,N,02729.10146,E,111300.00,A,A*60
1251: $GPGLL,5351.50733,N,02729.10140,E,111301.00,A,A*60
1253: $GPGLL,5351.50737,N,02729.10140,E,111302.00,A,A*67
1255: $GPGLL,5351.50745,N,02729.10157,E,111303.00,A,A*65
1257: $GPGLL,5351.50750,N,02729.10168,E,111304.00,A,A*6A
1259: $GPGLL,5351.50748,N,02729.10164,E,111305.00,A,A*6E
1261: $GPGLL,5351.50751,N,02729.10175,E,111306.00,A,A*65
1263: $GPGLL,5351.50755,N,02729.10186,E,111307.00,A,A*6C
1265: $GPGLL,5351.50758,N,02729.10194,E,111308.00,A,A*6D
1267: $GPGLL,5351.50757,N,02729.10192,E,111309.00,A,A*65
1269: $GPGLL,5351.50761,N,02729.10198,E,111310.00,A,A*62
1271: $GPGLL,5351.50759,N,02729.10199,E,111311.00,A,A*69
1273: $GPGLL,5351.50759,N,02729.10206,E,111312.00,A,A*6F
1275: $GPGLL,5351.50752,N,02729.10202,E,111313.00,A,A*61
1277: $GPGLL,5351.50743,N,02729.10188,E,111314.00,A,A*67
1279: $GPGLL,5351.50737,N,02729.10177,E,111315.00,A,A*65
1281: $GPGLL,5351.50740,N,02729.10188,E,111316.00,A,A*66
1283: $GPGLL,5351.50739,N,02729.10193,E,111317.00,A,A*63
1285: $GPGLL,5351.50725,N,02729.10167,E,111318.00,A,A*6A
1287: $GPGLL,5351.50714,N,02729.10144,E,111319.00,A,A*68
1289: $GPGLL,5351.50706,N,02729.10132,E,111320.00,A,A*60
1291: $GPGLL,5351.50698,N,02729.10115,E,111321.00,A,A*62
1293: $GPGLL,5351.50688,N,02729.10100,E,111322.00,A,A*64
1295: $GPGLL,5351.50672,N,02729.10084,E,111323.00,A,A*6D
1297: $GPGLL,5351.50659,N,02729.10073,E,111324.00,A,A*6B
1299: $GPGLL,5351.50655,N,02729.10069,E,111325.00,A,A*6D
1301: $GPGLL,5351.50650,N,02729.10069,E,111326.00,A,A*6B
1303: $GPGLL,5351.50639,N,02729.10052,E,111327.00,A,A*6D
1305: $GPGLL,5351.50633,N,02729.10047,E,111328.00,A,A*6C
1307: $GPGLL,5351.50638,N,02729.10065,E,111329.00,A,A*66
1309: $GPGLL,5351.50646,N,02729.10090,E,111330.00,A,A*6D
1311: $GPGLL,5351.50633,N,02729.10088,E,111331.00,A,A*67
1313: $GPGLL,5351.50626,N,02729.10084,E,111332.00,A,A*6C
1315: $GPGLL,5351.50620,N,02729.10074,E,111333.00,A,A*64
1317: $GPGLL,5351.50624,N,02729.10089,E,111334.00,A,A*65
1319: $GPGLL,5351.50636,N,02729.10116,E,111335.00,A,A*60
1321: $GPGLL,5351.50630,N,02729.10118,E,111336.00,A,A*6B
1323: $GPGLL,5351.50625,N,02729.10126,E,111337.00,A,A*63
1325: $GPGLL,5351.50633,N,02729.10147,E,111338.00,A,A*6C
1327: $GPGLL,5351.50637,N,02729.10156,E,111339.00,A,A*69
1329: $GPGLL,5351.50635,N,02729.10152,E,111340.00,A,A*61
1331: $GPGLL,5351.50630,N,02729.10154,E,111341.00,A,A*63
1333: $GPGLL,5351.50626,N,02729.10157,E,111342.00,A,A*64
1335: $GPGLL,5351.50631,N,02729.10177,E,111343.00,A,A*61
1337: $GPGLL,5351.50637,N,02729.10193,E,111344.00,A,A*6A
1339: $GPGLL,5351.50621,N,02729.10175,E,111345.00,A,A*64
1341: $GPGLL,5351.50613,N,02729.10174,E,111346.00,A,A*67
1343: $GPGLL,5351.50608,N,02729.10174,E,111347.00,A,A*6C
1345: $GPGLL,5351.50611,N,02729.10185,E,111348.00,A,A*65
1347: $GPGLL,5351.50603,N,02729.10167,E,111349.00,A,A*6B
1349: $GPGLL,5351.50602,N,02729.10159,E,111350.00,A,A*6F
1351: $GPGLL,5351.50598,N,02729.10154,E,111351.00,A,A*63
1353: $GPGLL,5351.50594,N,02729.10148,E,111352.00,A,A*61
1355: $GPGLL,5351.50591,N,02729.10148,E,111353.00,A,A*65
1357: $GPGLL,5351.50586,N,02729.10134,E,111354.00,A,A*6F
1359: $GPGLL,5351.50583,N,02729.10131,E,111355.00,A,A*6E
1361: $GPGLL,5351.50585,N,02729.10139,E,111356.00,A,A*63
1363: $GPGLL,5351.50589,N,02729.10142,E,111357.00,A,A*62
1365: $GPGLL,5351.50605,N,02729.10136,E,111358.00,A,A*69
1367: $GPGLL,5351.50608,N,02729.10131,E,111359.00,A,A*62
1369: $GPGLL,5351.50607,N,02729.10125,E,111400.00,A,A*63
1371: $GPGLL,5351.50606,N,02729.10118,E,111401.00,A,A*6D
1373: $GPGLL,5351.50609,N,02729.10112,E,111402.00,A,A*6B
1375: $GPGLL,5351.50603,N,02729.10092,E,111403.00,A,A*69
1377: $GPGLL,5351.50597,N,02729.10075,E,111404.00,A,A*69
1379: $GPGLL,5351.50607,N,02729.10086,E,111405.00,A,A*6E
1381: $GPGLL,5351.50616,N,02729.10096,E,111406.00,A,A*6C
1383: $GPGLL,5351.50613,N,02729.10086,E,111407.00,A,A*69
1385: $GPGLL,5351.50620,N,02729.10097,E,111408.00,A,A*66
1387: $GPGLL,5351.50628,N,02729.10112,E,111409.00,A,A*63
1389: $GPGLL,5351.50638,N,02729.10129,E,111410.00,A,A*62
1391: $GPGLL,5351.50648,N,02729.10147,E,111411.00,A,A*6C
1393: $GPGLL,5351.50657,N,02729.10160,E,111412.00,A,A*64
1395: $GPGLL,5351.50666,N,02729.10178,E,111413.00,A,A*6E
1397: $GPGLL,5351.50683,N,02729.10198,E,111414.00,A,A*6C
1399: $GPGLL,5351.50706,N,02729.10232,E,111415.00,A,A*62
1401: $GPGLL,5351.50709,N,02729.10246,E,111416.00,A,A*6D
1403: $GPGLL,5351.50708,N,02729.10246,E,111417.00,A,A*6D
1405: $GPGLL,5351.50717,N,02729.10260,E,111418.00,A,A*68
1407: $GPGLL,5351.50719,N,02729.10270,E,111419.00,A,A*66
1409: $GPGLL,5351.50719,N,02729.10275,E,111420.00,A,A*69
1411: $GPGLL,5351.50725,N,02729.10287,E,111421.00,A,A*6A
1413: $GPGLL,5351.50723,N,02729.10294,E,111422.00,A,A*6D
1415: $GPGLL,5351.50724,N,02729.10302,E,111423.00,A,A*65
1417: $GPGLL,5351.50726,N,02729.10309,E,111424.00,A,A*6B
1419: $GPGLL,5351.50716,N,02729.10308,E,111425.00,A,A*68
1421: $GPGLL,5351.50712,N,02729.10310,E,111426.00,A,A*66
1423: $GPGLL,5351.50707,N,02729.10311,E,111427.00,A,A*62
1425: $GPGLL,5351.50698,N,02729.10309,E,111428.00,A,A*63
1427: $GPGLL,5351.50697,N,02729.10312,E,111429.00,A,A*67
1429: $GPGLL,5351.50696,N,02729.10318,E,111430.00,A,A*64
1431: $GPGLL,5351.50706,N,02729.10322,E,111431.00,A,A*64
1433: $GPGLL,5351.50606,N,02729.10275,E,111432.00,A,A*65
1435: $GPGLL,5351.50596,N,02729.10272,E,111433.00,A,A*69
1437: $GPGLL,5351.50591,N,02729.10267,E,111434.00,A,A*6D
1439: $GPGLL,5351.50601,N,02729.10280,E,111435.00,A,A*6F
1441: $GPGLL,5351.50602,N,02729.10286,E,111436.00,A,A*69
1443: $GPGLL,5351.50595,N,02729.10290,E,111437.00,A,A*62
1445: $GPGLL,5351.50591,N,02729.10290,E,111438.00,A,A*69
1447: $GPGLL,5351.50589,N,02729.10294,E,111439.00,A,A*65
1449: $GPGLL,5351.50584,N,02729.10294,E,111440.00,A,A*66
1451: $GPGLL,5351.50601,N,02729.10324,E,111441.00,A,A*63
1453: $GPGLL,5351.50621,N,02729.10346,E,111442.00,A,A*66
1455: $GPGLL,5351.50612,N,02729.10336,E,111443.00,A,A*60
1457: $GPGLL,5351.50597,N,02729.10321,E,111444.00,A,A*6F
1459: $GPGLL,5351.50614,N,02729.10348,E,111445.00,A,A*69
1461: $GPGLL,5351.50623,N,02729.10365,E,111446.00,A,A*61
1463: $GPGLL,5351.50622,N,02729.10360,E,111447.00,A,A*64
1465: $GPGLL,5351.50634,N,02729.10377,E,111448.00,A,A*6A
1467: $GPGLL,5351.50642,N,02729.10387,E,111449.00,A,A*65
1469: $GPGLL,5351.50656,N,02729.10402,E,111450.00,A,A*62
1471: $GPGLL,5351.50665,N,02729.10414,E,111451.00,A,A*64
1473: $GPGLL,5351.50666,N,02729.10409,E,111452.00,A,A*68
1475: $GPGLL,5351.50667,N,02729.10407,E,111453.00,A,A*66
1477: $GPGLL,5351.50679,N,02729.10427,E,111454.00,A,A*6C
1479: $GPGLL,5351.50682,N,02729.10429,E,111455.00,A,A*67
1481: $GPGLL,5351.50676,N,02729.10410,E,111456.00,A,A*65
1483: $GPGLL,5351.50674,N,02729.10406,E,111457.00,A,A*61
1485: $GPGLL,5351.50672,N,02729.10405,E,111458.00,A,A*6B
1487: $GPGLL,5351.50675,N,02729.10411,E,111459.00,A,A*68
1489: $GPGLL,5351.50669,N,02729.10405,E,111500.00,A,A*6D
1491: $GPGLL,5351.50658,N,02729.10383,E,111501.00,A,A*67
1493: $GPGLL,5351.50647,N,02729.10358,E,111502.00,A,A*6C
1495: $GPGLL,5351.50649,N,02729.10362,E,111503.00,A,A*6A
1497: $GPGLL,5351.50648,N,02729.10365,E,111504.00,A,A*6B
1499: $GPGLL,5351.50641,N,02729.10349,E,111505.00,A,A*6D
1501: $GPGLL,5351.50630,N,02729.10318,E,111506.00,A,A*6C
1503: $GPGLL,5351.50634,N,02729.10320,E,111507.00,A,A*62
1505: $GPGLL,5351.50637,N,02729.10320,E,111508.00,A,A*6E
1507: $GPGLL,5351.50633,N,02729.10306,E,111509.00,A,A*6F
1509: $GPGLL,5351.50633,N,02729.10320,E,111510.00,A,A*63
1511: $GPGLL,5351.50631,N,02729.10309,E,111511.00,A,A*6B
1513: $GPGLL,5351.50639,N,02729.10319,E,111512.00,A,A*61
1515: $GPGLL,5351.50639,N,02729.10328,E,111513.00,A,A*62
1517: $GPGLL,5351.50633,N,02729.10316,E,111514.00,A,A*62
1519: $GPGLL,5351.50633,N,02729.10311,E,111515.00,A,A*64
1521: $GPGLL,5351.50633,N,02729.10310,E,111516.00,A,A*66
1523: $GPGLL,5351.50631,N,02729.10307,E,111517.00,A,A*63
1525: $GPGLL,5351.50630,N,02729.10315,E,111518.00,A,A*6E
1527: $GPGLL,5351.50635,N,02729.10326,E,111519.00,A,A*6A
1529: $GPGLL,5351.50641,N,02729.10331,E,111520.00,A,A*65
1531: $GPGLL,5351.50646,N,02729.10333,E,111521.00,A,A*61
1533: $GPGLL,5351.50656,N,02729.10345,E,111522.00,A,A*62
1535: $GPGLL,5351.50662,N,02729.10354,E,111523.00,A,A*64
1537: $GPGLL,5351.50670,N,02729.10363,E,111524.00,A,A*64
1539: $GPGLL,5351.50674,N,02729.10365,E,111525.00,A,A*67
1541: $GPGLL,5351.50678,N,02729.10364,E,111526.00,A,A*69
1543: $GPGLL,5351.50696,N,02729.10376,E,111527.00,A,A*6B
1545: $GPGLL,5351.50696,N,02729.10372,E,111528.00,A,A*60
1547: $GPGLL,5351.50715,N,02729.10386,E,111529.00,A,A*60
1549: $GPGLL,5351.50717,N,02729.10380,E,111530.00,A,A*6C
1551: $GPGLL,5351.50713,N,02729.10373,E,111531.00,A,A*65
1553: $GPGLL,5351.50714,N,02729.10370,E,111532.00,A,A*62
1555: $GPGLL,5351.50708,N,02729.10365,E,111533.00,A,A*6A
1557: $GPGLL,5351.50706,N,02729.10370,E,111534.00,A,A*67
1559: $GPGLL,5351.50704,N,02729.10363,E,111535.00,A,A*66
1561: $GPGLL,5351.50696,N,02729.10346,E,111536.00,A,A*68
1563: $GPGLL,5351.50680,N,02729.10317,E,111537.00,A,A*6A
1565: $GPGLL,5351.50689,N,02729.10323,E,111538.00,A,A*6B
1567: $GPGLL,5351.50693,N,02729.10330,E,111539.00,A,A*63
1569: $GPGLL,5351.50682,N,02729.10315,E,111540.00,A,A*6A
1571: $GPGLL,5351.50673,N,02729.10307,E,111541.00,A,A*66
1573: $GPGLL,5351.50659,N,02729.10293,E,111542.00,A,A*61
1575: $GPGLL,5351.50652,N,02729.10291,E,111543.00,A,A*69
1577: $GPGLL,5351.50650,N,02729.10295,E,111544.00,A,A*68
1579: $GPGLL,5351.50647,N,02729.10297,E,111545.00,A,A*6D
1581: $GPGLL,5351.50646,N,02729.10307,E,111546.00,A,A*67
1583: $GPGLL,5351.50655,N,02729.10326,E,111547.00,A,A*67
1585: $GPGLL,5351.50663,N,02729.10336,E,111548.00,A,A*6C
1587: $GPGLL,5351.50655,N,02729.10322,E,111549.00,A,A*6D
1589: $GPGLL,5351.50643,N,02729.10306,E,111550.00,A,A*64
1591: $GPGLL,5351.50647,N,02729.10313,E,111551.00,A,A*65
1593: $GPGLL,5351.50645,N,02729.10320,E,111552.00,A,A*64
1595: $GPGLL,5351.50642,N,02729.10324,E,111553.00,A,A*66
1597: $GPGLL,5351.50638,N,02729.10320,E,111554.00,A,A*68
1599: $GPGLL,5351.50635,N,02729.10314,E,111555.00,A,A*63
1601: $GPGLL,5351.50641,N,02729.10323,E,111556.00,A,A*67
1603: $GPGLL,5351.50643,N,02729.10331,E,111557.00,A,A*67
1605: $GPGLL,5351.50640,N,02729.10335,E,111558.00,A,A*6F
1607: $GPGLL,5351.50637,N,02729.10325,E,111559.00,A,A*6F
1609: $GPGLL,5351.50633,N,02729.10312,E,111600.00,A,A*60
1611: $GPGLL,5351.50624,N,02729.10298,E,111601.00,A,A*64
1613: $GPGLL,5351.50617,N,02729.10293,E,111602.00,A,A*6C
1615: $GPGLL,5351.50594,N,02729.10280,E,111603.00,A,A*67
1617: $GPGLL,5351.50580,N,02729.10267,E,111604.00,A,A*6C
1619: $GPGLL,5351.50565,N,02729.10251,E,111605.00,A,A*63
1621: $GPGLL,5351.50562,N,02729.10245,E,111606.00,A,A*62
1623: $GPGLL,5351.50545,N,02729.10235,E,111607.00,A,A*61
1625: $GPGLL,5351.50537,N,02729.10232,E,111608.00,A,A*6C
1627: $GPGLL,5351.50529,N,02729.10223,E,111609.00,A,A*62
1629: $GPGLL,5351.50522,N,02729.10215,E,111610.00,A,A*64
1631: $GPGLL,5351.50516,N,02729.10212,E,111611.00,A,A*65
1633: $GPGLL,5351.50509,N,02729.10212,E,111612.00,A,A*68
1635: $GPGLL,5351.50505,N,02729.10211,E,111613.00,A,A*66
1637: $GPGLL,5351.50483,N,02729.10205,E,111614.00,A,A*6B
1639: $GPGLL,5351.50475,N,02729.10189,E,111615.00,A,A*64
1641: $GPGLL,5351.50468,N,02729.10183,E,111616.00,A,A*61
1643: $GPGLL,5351.50458,N,02729.10175,E,111617.00,A,A*6A
1645: $GPGLL,5351.50457,N,02729.10172,E,111618.00,A,A*6D
1647: $GPGLL,5351.50460,N,02729.10172,E,111619.00,A,A*68
1649: $GPGLL,5351.50454,N,02729.10176,E,111620.00,A,A*61
1651: $GPGLL,5351.50453,N,02729.10191,E,111621.00,A,A*6E
1653: $GPGLL,5351.50457,N,02729.10193,E,111622.00,A,A*6B
1655: $GPGLL,5351.50462,N,02729.10211,E,111623.00,A,A*65
1657: $GPGLL,5351.50459,N,02729.10215,E,111624.00,A,A*6E
1659: $GPGLL,5351.50462,N,02729.10225,E,111625.00,A,A*64
1661: $GPGLL,5351.50459,N,02729.10230,E,111626.00,A,A*6B
1663: $GPGLL,5351.50474,N,02729.10252,E,111627.00,A,A*61
1665: $GPGLL,5351.50497,N,02729.10284,E,111628.00,A,A*68
1667: $GPGLL,5351.50492,N,02729.10288,E,111629.00,A,A*60
1669: $GPGLL,5351.50490,N,02729.10288,E,111630.00,A,A*6A
1671: $GPGLL,5351.50489,N,02729.10282,E,111631.00,A,A*69
1673: $GPGLL,5351.50490,N,02729.10279,E,111632.00,A,A*66
1675: $GPGLL,5351.50490,N,02729.10272,E,111633.00,A,A*6C
1677: $GPGLL,5351.50481,N,02729.10254,E,111634.00,A,A*6F
1679: $GPGLL,5351.50477,N,02729.10248,E,111635.00,A,A*6A
1681: $GPGLL,5351.50480,N,02729.10252,E,111636.00,A,A*6A
1683: $GPGLL,5351.50491,N,02729.10270,E,111637.00,A,A*6B
1685: $GPGLL,5351.50478,N,02729.10264,E,111638.00,A,A*66
1687: $GPGLL,5351.50464,N,02729.10254,E,111639.00,A,A*69
1689: $GPGLL,5351.50467,N,02729.10269,E,111640.00,A,A*6A
1691: $GPGLL,5351.50476,N,02729.10282,E,111641.00,A,A*6E
1693: $GPGLL,5351.50467,N,02729.10271,E,111642.00,A,A*61
1695: $GPGLL,5351.50466,N,02729.10277,E,111643.00,A,A*67
1697: $GPGLL,5351.50464,N,02729.10270,E,111644.00,A,A*65
1699: $GPGLL,5351.50467,N,02729.10275,E,111645.00,A,A*62
1701: $GPGLL,5351.50461,N,02729.10264,E,111646.00,A,A*67
1703: $GPGLL,5351.50441,N,02729.10241,E,111647.00,A,A*63
