1: $GPRMC,110011.00,A,5351.46919,N,02729.10708,E,1.204,,211015,,,A*70
2: $GPRMC,110012.00,A,5351.47073,N,02729.10768,E,2.076,,211015,,,A*75
3: $GPRMC,110013.00,A,5351.47370,N,02729.10835,E,3.506,,211015,,,A*70
4: $GPRMC,110014.00,A,5351.47567,N,02729.10909,E,2.683,,211015,,,A*76
5: $GPRMC,110015.00,A,5351.47771,N,02729.10979,E,2.715,,211015,,,A*7B
6: $GPRMC,110016.00,A,5351.47797,N,02729.10990,E,2.355,,211015,,,A*77
7: $GPRMC,110017.00,A,5351.47951,N,02729.11045,E,3.834,95.28,211015,,,A*57
8: $GPRMC,110018.00,A,5351.48091,N,02729.11094,E,2.968,,211015,,,A*7F
9: $GPRMC,110019.00,A,5351.48210,N,02729.11163,E,1.360,,211015,,,A*7D
10: $GPRMC,110020.00,A,5351.48439,N,02729.11264,E,2.394,,211015,,,A*76
11: $GPRMC,110021.00,A,5351.48602,N,02729.11334,E,3.258,,211015,,,A*79
12: $GPRMC,110022.00,A,5351.48772,N,02729.11389,E,4.150,46.24,211015,,,A*5C
14: $GPRMC,110023.00,A,5351.48611,N,02729.11336,E,0.210,,211015,,,A*74
15: $GPRMC,110024.00,A,5351.48844,N,02729.11432,E,0.094,,211015,,,A*70
16: $GPRMC,110025.00,A,5351.48977,N,02729.11498,E,0.233,,211015,,,A*7F
18: $GPRMC,110026.00,A,5351.48986,N,02729.11503,E,0.317,,211015,,,A*76
19: $GPRMC,110027.00,A,5351.49062,N,02729.11529,E,0.403,,211015,,,A*7F
20: $GPRMC,110028.00,A,5351.49151,N,02729.11535,E,1.195,,211015,,,A*77
22: $GPRMC,110029.00,A,5351.49178,N,02729.11531,E,0.828,,211015,,,A*77
24: $GPRMC,110030.00,A,5351.49254,N,02729.11549,E,0.919,,211015,,,A*7E
25: $GPRMC,110031.00,A,5351.49324,N,02729.11555,E,0.499,,211015,,,A*71
27: $GPRMC,110032.00,A,5351.49356,N,02729.11556,E,2.075,,211015,,,A*70
28: $GPRMC,110033.00,A,5351.49533,N,02729.11637,E,1.690,,211015,,,A*7E
29: $GPRMC,110034.00,A,5351.49744,N,02729.11714,E,0.432,,211015,,,A*70
30: $GPRMC,110035.00,A,5351.49886,N,02729.11749,E,1.187,,211015,,,A*72
31: $GPRMC,110036.00,A,5351.49783,N,02729.11711,E,1.354,,211015,,,A*7A
32: $GPRMC,110037.00,A,5351.49735,N,02729.11705,E,3.909,127.20,211015,,,A*6B
34: $GPRMC,110038.00,A,5351.49688,N,02729.11689,E,4.188,162.24,211015,,,A*65
36: $GPRMC,110039.00,A,5351.49705,N,02729.11683,E,2.699,,211015,,,A*76
38: $GPRMC,110040.00,A,5351.49699,N,02729.11665,E,3.373,175.97,211015,,,A*67
40: $GPRMC,110041.00,A,5351.49802,N,02729.11677,E,3.992,189.19,211015,,,A*69
42: $GPRMC,110042.00,A,5351.49989,N,02729.11742,E,2.927,,211015,,,A*76
44: $GPRMC,110043.00,A,5351.50156,N,02729.11806,E,0.786,,211015,,,A*7D
45: $GPRMC,110044.00,A,5351.50293,N,02729.11846,E,0.547,,211015,,,A*7B
46: $GPRMC,110045.00,A,5351.50247,N,02729.11815,E,2.784,,211015,,,A*7A
48: $GPRMC,110046.00,A,5351.50270,N,02729.11817,E,4.132,191.70,211015,,,A*62
50: $GPRMC,110047.00,A,5351.50316,N,02729.11816,E,3.001,,211015,,,A*75
52: $GPRMC,110048.00,A,5351.50306,N,02729.11785,E,2.673,,211015,,,A*7C
53: $GPRMC,110049.00,A,5351.50306,N,02729.11762,E,4.030,194.34,211015,,,A*66
55: $GPRMC,110050.00,A,5351.50286,N,02729.11739,E,5.590,196.12,211015,,,A*61
57: $GPRMC,110051.00,A,5351.50368,N,02729.11759,E,4.232,196.29,211015,,,A*61
59: $GPRMC,110052.00,A,5351.50395,N,02729.11768,E,3.435,,211015,,,A*7F
61: $GPRMC,110053.00,A,5351.50399,N,02729.11760,E,3.854,197.75,211015,,,A*62
63: $GPRMC,110054.00,A,5351.50394,N,02729.11749,E,5.583,199.35,211015,,,A*68
65: $GPRMC,110055.00,A,5351.50478,N,02729.11777,E,5.326,199.70,211015,,,A*69
67: $GPRMC,110056.00,A,5351.50505,N,02729.11782,E,4.036,201.03,211015,,,A*6E
69: $GPRMC,110057.00,A,5351.50485,N,02729.11764,E,2.957,,211015,,,A*78
71: $GPRMC,110058.00,A,5351.50449,N,02729.11751,E,3.204,,211015,,,A*7D
73: $GPRMC,110059.00,A,5351.50410,N,02729.11751,E,3.586,204.32,211015,,,A*64
75: $GPRMC,110100.00,A,5351.50370,N,02729.11751,E,2.384,,211015,,,A*74
77: $GPRMC,110101.00,A,5351.50324,N,02729.11734,E,1.642,,211015,,,A*7B
78: $GPRMC,110102.00,A,5351.50277,N,02729.11713,E,2.423,,211015,,,A*7C
79: $GPRMC,110103.00,A,5351.50248,N,02729.11713,E,3.019,,211015,,,A*7D
80: $GPRMC,110104.00,A,5351.55861,N,02729.12081,E,0.511,,211015,,,A*7F
81: $GPRMC,110105.00,A,5351.55770,N,02729.12072,E,0.391,,211015,,,A*73
82: $GPRMC,110106.00,A,5351.55682,N,02729.11962,E,0.755,,211015,,,A*7B
84: $GPRMC,110107.00,A,5351.55573,N,02729.11828,E,2.212,,211015,,,A*7C
85: $GPRMC,110108.00,A,5351.55465,N,02729.11672,E,2.258,214.45,211015,,,A*62
87: $GPRMC,110109.00,A,5351.55398,N,02729.11580,E,1.148,,211015,,,A*71
88: $GPRMC,110110.00,A,5351.55338,N,02729.11496,E,0.311,,211015,,,A*7A
89: $GPRMC,110111.00,A,5351.55272,N,02729.11409,E,0.971,,211015,,,A*7E
90: $GPRMC,110112.00,A,5351.55211,N,02729.11338,E,1.560,,211015,,,A*70
92: $GPRMC,110113.00,A,5351.55146,N,02729.11285,E,1.234,,211015,,,A*71
93: $GPRMC,110114.00,A,5351.55088,N,02729.11242,E,0.414,,211015,,,A*7B
94: $GPRMC,110115.00,A,5351.55019,N,02729.11169,E,0.730,,211015,,,A*7D
95: $GPRMC,110116.00,A,5351.54965,N,02729.11101,E,0.503,,211015,,,A*71
96: $GPRMC,110117.00,A,5351.54921,N,02729.11054,E,1.133,,211015,,,A*77
98: $GPRMC,110118.00,A,5351.54892,N,02729.11026,E,0.479,,211015,,,A*7E
99: $GPRMC,110119.00,A,5351.54863,N,02729.11001,E,0.427,,211015,,,A*7F
101: $GPRMC,110120.00,A,5351.54848,N,02729.10985,E,0.303,,211015,,,A*79
103: $GPRMC,110121.00,A,5351.54829,N,02729.10963,E,1.227,,211015,,,A*71
104: $GPRMC,110122.00,A,5351.54829,N,02729.10972,E,0.498,,211015,,,A*71
105: $GPRMC,110123.00,A,5351.54826,N,02729.10987,E,0.836,,211015,,,A*7D
106: $GPRMC,110124.00,A,5351.54824,N,02729.10991,E,0.296,,211015,,,A*7F
107: $GPRMC,110125.00,A,5351.54840,N,02729.11005,E,0.702,,211015,,,A*71
109: $GPRMC,110126.00,A,5351.54841,N,02729.11005,E,0.790,,211015,,,A*78
110: $GPRMC,110127.00,A,5351.54831,N,02729.10996,E,0.612,,211015,,,A*77
112: $GPRMC,110128.00,A,5351.54839,N,02729.10998,E,1.398,,211015,,,A*78
113: $GPRMC,110129.00,A,5351.54854,N,02729.11003,E,0.813,,211015,,,A*71
115: $GPRMC,110130.00,A,5351.54864,N,02729.10999,E,0.659,,211015,,,A*71
117: $GPRMC,110131.00,A,5351.54885,N,02729.11020,E,0.612,,211015,,,A*7A
119: $GPRMC,110132.00,A,5351.54907,N,02729.11046,E,0.333,,211015,,,A*74
121: $GPRMC,110133.00,A,5351.54916,N,02729.11048,E,0.130,,211015,,,A*7A
123: $GPRMC,110134.00,A,5351.54949,N,02729.11078,E,0.826,,211015,,,A*7A
125: $GPRMC,110135.00,A,5351.54946,N,02729.11118,E,1.281,,211015,,,A*75
127: $GPRMC,110136.00,A,5351.54932,N,02729.11144,E,0.289,,211015,,,A*75
129: $GPRMC,110137.00,A,5351.54922,N,02729.11175,E,0.589,,211015,,,A*70
131: $GPRMC,110138.00,A,5351.54914,N,02729.11211,E,0.645,,211015,,,A*78
133: $GPRMC,110139.00,A,5351.54897,N,02729.11240,E,1.753,,211015,,,A*70
135: $GPRMC,110140.00,A,5351.54875,N,02729.11261,E,0.965,,211015,,,A*7B
137: $GPRMC,110141.00,A,5351.54848,N,02729.11271,E,0.435,,211015,,,A*7D
139: $GPRMC,110142.00,A,5351.54811,N,02729.11276,E,0.743,,211015,,,A*77
141: $GPRMC,110143.00,A,5351.54778,N,02729.11277,E,1.030,,211015,,,A*75
143: $GPRMC,110144.00,A,5351.54742,N,02729.11275,E,1.173,,211015,,,A*7F
145: $GPRMC,110145.00,A,5351.54700,N,02729.11273,E,0.339,,211015,,,A*73
147: $GPRMC,110146.00,A,5351.54642,N,02729.11251,E,0.209,,211015,,,A*75
149: $GPRMC,110147.00,A,5351.54586,N,02729.11229,E,0.841,,211015,,,A*76
151: $GPRMC,110148.00,A,5351.54526,N,02729.11201,E,1.467,,211015,,,A*70
153: $GPRMC,110149.00,A,5351.54472,N,02729.11184,E,0.667,,211015,,,A*7C
155: $GPRMC,110150.00,A,5351.54418,N,02729.11163,E,0.382,,211015,,,A*7F
157: $GPRMC,110151.00,A,5351.54367,N,02729.11144,E,0.350,,211015,,,A*7B
159: $GPRMC,110152.00,A,5351.54327,N,02729.11137,E,1.134,,211015,,,A*79
161: $GPRMC,110153.00,A,5351.54307,N,02729.11155,E,0.541,,211015,,,A*79
163: $GPRMC,110154.00,A,5351.54273,N,02729.11153,E,1.067,,211015,,,A*7A
165: $GPRMC,110155.00,A,5351.54254,N,02729.11146,E,1.578,,211015,,,A*71
167: $GPRMC,110156.00,A,5351.54247,N,02729.11165,E,0.621,,211015,,,A*7F
169: $GPRMC,110157.00,A,5351.54230,N,02729.11181,E,0.446,,211015,,,A*77
171: $GPRMC,110158.00,A,5351.54197,N,02729.11172,E,0.244,,211015,,,A*7E
173: $GPRMC,110159.00,A,5351.54173,N,02729.11168,E,0.530,,211015,,,A*7A
175: $GPRMC,110200.00,A,5351.54153,N,02729.11146,E,0.538,,211015,,,A*73
177: $GPRMC,110201.00,A,5351.54118,N,02729.11142,E,0.991,,211015,,,A*76
179: $GPRMC,110202.00,A,5351.54102,N,02729.11148,E,0.566,,211015,,,A*70
181: $GPRMC,110203.00,A,5351.54096,N,02729.11167,E,0.269,,211015,,,A*78
183: $GPRMC,110204.00,A,5351.54094,N,02729.11188,E,0.389,,211015,,,A*73
185: $GPRMC,110205.00,A,5351.54076,N,02729.11183,E,1.312,,211015,,,A*76
187: $GPRMC,110206.00,A,5351.54060,N,02729.11191,E,1.273,208.41,211015,,,A*66
189: $GPRMC,110207.00,A,5351.54051,N,02729.11200,E,0.215,,211015,,,A*7E
191: $GPRMC,110208.00,A,5351.54047,N,02729.11194,E,0.597,,211015,,,A*75
193: $GPRMC,110209.00,A,5351.54073,N,02729.11224,E,0.254,,211015,,,A*73
195: $GPRMC,110210.00,A,5351.54134,N,02729.11283,E,0.078,,211015,,,A*78
197: $GPRMC,110211.00,A,5351.54157,N,02729.11308,E,0.675,,211015,,,A*75
199: $GPRMC,110212.00,A,5351.54175,N,02729.11330,E,2.330,,211015,,,A*7B
201: $GPRMC,110213.00,A,5351.54189,N,02729.11349,E,3.237,,211015,,,A*70
203: $GPRMC,110214.00,A,5351.54154,N,02729.11341,E,1.733,,211015,,,A*7C
205: $GPRMC,110215.00,A,5351.54125,N,02729.11334,E,0.601,,211015,,,A*78
207: $GPRMC,110216.00,A,5351.54077,N,02729.11311,E,0.519,,211015,,,A*70
209: $GPRMC,110217.00,A,5351.54026,N,02729.11280,E,0.490,,211015,,,A*7C
211: $GPRMC,110218.00,A,5351.54003,N,02729.11270,E,0.751,,211015,,,A*75
213: $GPRMC,110219.00,A,5351.53961,N,02729.11246,E,1.647,,211015,,,A*7C
215: $GPRMC,110220.00,A,5351.53934,N,02729.11233,E,0.658,,211015,,,A*7B
217: $GPRMC,110221.00,A,5351.53884,N,02729.11195,E,0.191,,211015,,,A*7D
219: $GPRMC,110222.00,A,5351.53831,N,02729.11170,E,0.125,,211015,,,A*74
221: $GPRMC,110223.00,A,5351.53785,N,02729.11151,E,1.283,,211015,,,A*78
223: $GPRMC,110224.00,A,5351.53735,N,02729.11117,E,2.267,214.42,211015,,,A*60
225: $GPRMC,110225.00,A,5351.53679,N,02729.11079,E,1.419,,211015,,,A*72
227: $GPRMC,110226.00,A,5351.53625,N,02729.11051,E,0.633,,211015,,,A*79
229: $GPRMC,110227.00,A,5351.53595,N,02729.11067,E,0.967,,211015,,,A*7B
231: $GPRMC,110228.00,A,5351.53547,N,02729.11031,E,1.989,215.02,211015,,,A*63
233: $GPRMC,110229.00,A,5351.53509,N,02729.11014,E,0.880,,211015,,,A*7C
235: $GPRMC,110230.00,A,5351.53470,N,02729.10986,E,0.158,,211015,,,A*74
237: $GPRMC,110231.00,A,5351.53450,N,02729.10992,E,0.758,,211015,,,A*74
239: $GPRMC,110232.00,A,5351.53407,N,02729.10991,E,0.453,,211015,,,A*7E
241: $GPRMC,110233.00,A,5351.53341,N,02729.10950,E,1.600,,211015,,,A*72
243: $GPRMC,110234.00,A,5351.53245,N,02729.10896,E,1.083,,211015,,,A*76
245: $GPRMC,110235.00,A,5351.53195,N,02729.10879,E,0.642,,211015,,,A*72
247: $GPRMC,110236.00,A,5351.53154,N,02729.10859,E,1.304,,211015,,,A*78
249: $GPRMC,110237.00,A,5351.53134,N,02729.10872,E,1.662,205.09,211015,,,A*63
251: $GPRMC,110238.00,A,5351.53092,N,02729.10844,E,1.912,,211015,,,A*7C
253: $GPRMC,110239.00,A,5351.53068,N,02729.10830,E,0.902,,211015,,,A*7B
255: $GPRMC,110240.00,A,5351.53066,N,02729.10834,E,0.871,,211015,,,A*7A
257: $GPRMC,110241.00,A,5351.53074,N,02729.10861,E,1.633,203.65,211015,,,A*6D
259: $GPRMC,110242.00,A,5351.53062,N,02729.10867,E,2.000,199.81,211015,,,A*60
261: $GPRMC,110243.00,A,5351.53129,N,02729.10918,E,0.481,,211015,,,A*7F
263: $GPRMC,110244.00,A,5351.53178,N,02729.10956,E,0.343,,211015,,,A*7F
265: $GPRMC,110245.00,A,5351.53236,N,02729.11004,E,0.565,,211015,,,A*7A
267: $GPRMC,110246.00,A,5351.53332,N,02729.11072,E,0.740,,211015,,,A*78
269: $GPRMC,110247.00,A,5351.53405,N,02729.11129,E,0.590,,211015,,,A*7A
271: $GPRMC,110248.00,A,5351.53502,N,02729.11181,E,1.374,117.63,211015,,,A*60
273: $GPRMC,110249.00,A,5351.53561,N,02729.11227,E,0.818,,211015,,,A*77
275: $GPRMC,110250.00,A,5351.53633,N,02729.11284,E,0.106,,211015,,,A*74
277: $GPRMC,110251.00,A,5351.53674,N,02729.11316,E,0.119,,211015,,,A*72
279: $GPRMC,110252.00,A,5351.53776,N,02729.11410,E,2.199,79.69,211015,,,A*56
281: $GPRMC,110253.00,A,5351.53878,N,02729.11488,E,1.474,,211015,,,A*7D
283: $GPRMC,110254.00,A,5351.53781,N,02729.11427,E,1.247,,211015,,,A*70
285: $GPRMC,110255.00,A,5351.53819,N,02729.11450,E,1.902,,211015,,,A*75
287: $GPRMC,110256.00,A,5351.53834,N,02729.11456,E,0.772,,211015,,,A*77
289: $GPRMC,110257.00,A,5351.53839,N,02729.11441,E,0.445,,211015,,,A*7A
291: $GPRMC,110258.00,A,5351.53840,N,02729.11420,E,0.795,,211015,,,A*72
293: $GPRMC,110259.00,A,5351.53673,N,02729.11541,E,3.029,161.92,211015,,,A*6B
295: $GPRMC,110300.00,A,5351.53489,N,02729.11421,E,1.658,,211015,,,A*77
297: $GPRMC,110301.00,A,5351.53375,N,02729.11356,E,0.338,,211015,,,A*77
299: $GPRMC,110302.00,A,5351.53290,N,02729.11342,E,0.300,,211015,,,A*70
301: $GPRMC,110303.00,A,5351.53245,N,02729.11324,E,0.268,,211015,,,A*76
303: $GPRMC,110304.00,A,5351.53206,N,02729.11352,E,0.663,,211015,,,A*78
305: $GPRMC,110305.00,A,5351.53170,N,02729.11337,E,1.193,,211015,,,A*71
307: $GPRMC,110306.00,A,5351.53132,N,02729.11298,E,0.942,,211015,,,A*75
309: $GPRMC,110307.00,A,5351.53113,N,02729.11262,E,0.310,,211015,,,A*7F
311: $GPRMC,110308.00,A,5351.53085,N,02729.11237,E,1.015,,211015,,,A*79
313: $GPRMC,110309.00,A,5351.53034,N,02729.11202,E,0.685,,211015,,,A*7A
315: $GPRMC,110310.00,A,5351.52985,N,02729.11155,E,0.186,,211015,,,A*75
317: $GPRMC,110311.00,A,5351.52937,N,02729.11099,E,0.724,,211015,,,A*72
319: $GPRMC,110312.00,A,5351.52890,N,02729.11053,E,1.689,,211015,,,A*7C
321: $GPRMC,110313.00,A,5351.52901,N,02729.11046,E,1.034,,211015,,,A*70
323: $GPRMC,110314.00,A,5351.52876,N,02729.11022,E,0.337,,211015,,,A*75
325: $GPRMC,110315.00,A,5351.52859,N,02729.10996,E,0.356,,211015,,,A*79
327: $GPRMC,110316.00,A,5351.52849,N,02729.10982,E,0.141,,211015,,,A*7A
329: $GPRMC,110317.00,A,5351.52839,N,02729.10968,E,0.482,,211015,,,A*72
331: $GPRMC,110318.00,A,5351.52831,N,02729.10952,E,0.263,,211015,,,A*75
333: $GPRMC,110319.00,A,5351.52850,N,02729.10968,E,0.848,,211015,,,A*79
335: $GPRMC,110320.00,A,5351.52817,N,02729.10933,E,0.471,,211015,,,A*78
337: $GPRMC,110321.00,A,5351.52857,N,02729.10934,E,1.607,,211015,,,A*78
339: $GPRMC,110322.00,A,5351.52910,N,02729.10949,E,1.012,,211015,,,A*71
341: $GPRMC,110323.00,A,5351.53289,N,02729.10944,E,1.703,,211015,,,A*70
343: $GPRMC,110324.00,A,5351.53448,N,02729.10922,E,1.336,,211015,,,A*7E
345: $GPRMC,110325.00,A,5351.53567,N,02729.10972,E,0.472,,211015,,,A*70
347: $GPRMC,110326.00,A,5351.53647,N,02729.11033,E,0.366,,211015,,,A*7D
349: $GPRMC,110327.00,A,5351.53672,N,02729.11026,E,1.250,,211015,,,A*7B
351: $GPRMC,110328.00,A,5351.53601,N,02729.11066,E,0.744,,211015,,,A*75
353: $GPRMC,110329.00,A,5351.53524,N,02729.11100,E,0.264,,211015,,,A*76
355: $GPRMC,110330.00,A,5351.53474,N,02729.11093,E,1.108,,211015,,,A*79
357: $GPRMC,110331.00,A,5351.53406,N,02729.11066,E,0.892,,211015,,,A*7C
359: $GPRMC,110332.00,A,5351.53344,N,02729.11028,E,0.505,,211015,,,A*77
361: $GPRMC,110333.00,A,5351.53269,N,02729.10993,E,1.841,185.07,211015,,,A*69
363: $GPRMC,110334.00,A,5351.53193,N,02729.10964,E,2.974,208.12,211015,,,A*66
365: $GPRMC,110335.00,A,5351.53135,N,02729.10947,E,2.480,209.82,211015,,,A*64
367: $GPRMC,110336.00,A,5351.53069,N,02729.10923,E,1.117,,211015,,,A*7A
369: $GPRMC,110337.00,A,5351.53003,N,02729.10881,E,0.423,,211015,,,A*7D
371: $GPRMC,110338.00,A,5351.52947,N,02729.10858,E,0.693,,211015,,,A*77
373: $GPRMC,110339.00,A,5351.52896,N,02729.10849,E,0.857,,211015,,,A*7D
375: $GPRMC,110338.00,A,5351.52841,N,02729.10842,E,0.296,,211015,,,A*7A
377: $GPRMC,110339.00,A,5351.52780,N,02729.10817,E,0.168,,211015,,,A*7B
379: $GPRMC,110340.00,A,5351.52731,N,02729.10817,E,1.908,,211015,,,A*70
381: $GPRMC,110341.00,A,5351.52703,N,02729.10840,E,3.690,213.77,211015,,,A*60
383: $GPRMC,110342.00,A,5351.52675,N,02729.10862,E,3.683,213.95,211015,,,A*6D
385: $GPRMC,110343.00,A,5351.52639,N,02729.10869,E,2.134,213.22,211015,,,A*69
387: $GPRMC,110344.00,A,5351.52602,N,02729.10866,E,2.084,213.60,211015,,,A*65
389: $GPRMC,110345.00,A,5351.52567,N,02729.10863,E,2.870,213.66,211015,,,A*64
391: $GPRMC,110346.00,A,5351.52543,N,02729.10871,E,2.873,212.92,211015,,,A*6B
393: $GPRMC,110347.00,A,5351.52509,N,02729.10863,E,1.034,,211015,,,A*7B
395: $GPRMC,110348.00,A,5351.52474,N,02729.10847,E,0.570,,211015,,,A*7D
397: $GPRMC,110349.00,A,5351.52442,N,02729.10836,E,1.919,,211015,,,A*7D
399: $GPRMC,110350.00,A,5351.52392,N,02729.10825,E,2.849,210.06,211015,,,A*61
401: $GPRMC,110351.00,A,5351.52348,N,02729.10811,E,2.001,,211015,,,A*7F
403: $GPRMC,110352.00,A,5351.52307,N,02729.10778,E,0.728,,211015,,,A*79
405: $GPRMC,110353.00,A,5351.52293,N,02729.10755,E,1.266,,211015,,,A*75
407: $GPRMC,110354.00,A,5351.52316,N,02729.10762,E,2.643,213.39,211015,,,A*6E
409: $GPRMC,110355.00,A,5351.52357,N,02729.10801,E,3.118,212.30,211015,,,A*60
411: $GPRMC,110356.00,A,5351.52381,N,02729.10837,E,2.161,,211015,,,A*7E
413: $GPRMC,110357.00,A,5351.52497,N,02729.11229,E,1.833,,211015,,,A*76
415: $GPRMC,110358.00,A,5351.52270,N,02729.11059,E,3.637,206.96,211015,,,A*6E
417: $GPRMC,110359.00,A,5351.52049,N,02729.10935,E,4.739,205.36,211015,,,A*64
419: $GPRMC,110400.00,A,5351.51880,N,02729.10818,E,3.512,203.51,211015,,,A*64
421: $GPRMC,110401.00,A,5351.51787,N,02729.10754,E,1.765,,211015,,,A*71
423: $GPRMC,110402.00,A,5351.51802,N,02729.10780,E,0.604,,211015,,,A*7E
425: $GPRMC,110403.00,A,5351.51852,N,02729.10828,E,0.185,,211015,,,A*79
427: $GPRMC,110404.00,A,5351.51907,N,02729.10868,E,1.661,,211015,,,A*77
429: $GPRMC,110405.00,A,5351.51803,N,02729.10809,E,2.154,147.03,211015,,,A*69
431: $GPRMC,110406.00,A,5351.51769,N,02729.10794,E,1.948,94.03,211015,,,A*5B
433: $GPRMC,110407.00,A,5351.51656,N,02729.10724,E,0.668,,211015,,,A*70
435: $GPRMC,110408.00,A,5351.51625,N,02729.10718,E,0.679,,211015,,,A*74
437: $GPRMC,110409.00,A,5351.51636,N,02729.10725,E,1.937,66.06,211015,,,A*55
439: $GPRMC,110410.00,A,5351.51605,N,02729.10682,E,1.890,52.15,211015,,,A*58
441: $GPRMC,110411.00,A,5351.51549,N,02729.10636,E,0.293,,211015,,,A*78
443: $GPRMC,110412.00,A,5351.51534,N,02729.10611,E,1.477,,211015,,,A*79
445: $GPRMC,110413.00,A,5351.51512,N,02729.10579,E,0.891,,211015,,,A*74
447: $GPRMC,110414.00,A,5351.51498,N,02729.10556,E,0.128,,211015,,,A*76
449: $GPRMC,110415.00,A,5351.51468,N,02729.10519,E,0.665,,211015,,,A*7D
451: $GPRMC,110416.00,A,5351.51459,N,02729.10511,E,0.902,,211015,,,A*7A
453: $GPRMC,110417.00,A,5351.51450,N,02729.10510,E,0.998,,211015,,,A*70
455: $GPRMC,110418.00,A,5351.51437,N,02729.10515,E,0.160,,211015,,,A*74
457: $GPRMC,110419.00,A,5351.51418,N,02729.10503,E,0.207,,211015,,,A*7D
459: $GPRMC,110420.00,A,5351.51403,N,02729.10492,E,0.905,,211015,,,A*7D
461: $GPRMC,110421.00,A,5351.51396,N,02729.10491,E,1.397,,211015,,,A*74
463: $GPRMC,110422.00,A,5351.51386,N,02729.10492,E,0.410,,211015,,,A*7C
465: $GPRMC,110423.00,A,5351.51377,N,02729.10488,E,1.710,,211015,,,A*7A
467: $GPRMC,110424.00,A,5351.51366,N,02729.10483,E,1.403,,211015,,,A*77
469: $GPRMC,110425.00,A,5351.51364,N,02729.10485,E,0.788,,211015,,,A*73
471: $GPRMC,110426.00,A,5351.51378,N,02729.10500,E,0.709,,211015,,,A*78
473: $GPRMC,110427.00,A,5351.51379,N,02729.10494,E,1.902,46.73,211015,,,A*58
475: $GPRMC,110428.00,A,5351.51386,N,02729.10494,E,2.545,42.04,211015,,,A*5F
477: $GPRMC,110429.00,A,5351.51398,N,02729.10507,E,1.659,,211015,,,A*7B
479: $GPRMC,110430.00,A,5351.51408,N,02729.10514,E,0.251,,211015,,,A*72
481: $GPRMC,110431.00,A,5351.51428,N,02729.10536,E,0.800,,211015,,,A*7F
483: $GPRMC,110432.00,A,5351.51429,N,02729.10542,E,1.215,,211015,,,A*71
485: $GPRMC,110433.00,A,5351.51411,N,02729.10536,E,0.452,,211015,,,A*7C
487: $GPRMC,110434.00,A,5351.51412,N,02729.10546,E,0.206,,211015,,,A*78
489: $GPRMC,110435.00,A,5351.51404,N,02729.10562,E,0.467,,211015,,,A*79
491: $GPRMC,110436.00,A,5351.51407,N,02729.10581,E,0.486,,211015,,,A*7B
493: $GPRMC,110437.00,A,5351.51391,N,02729.10577,E,0.531,,211015,,,A*76
495: $GPRMC,110438.00,A,5351.51367,N,02729.10565,E,0.393,,211015,,,A*7D
497: $GPRMC,110439.00,A,5351.51350,N,02729.10568,E,0.587,,211015,,,A*76
499: $GPRMC,110440.00,A,5351.51327,N,02729.10556,E,0.449,,211015,,,A*76
501: $GPRMC,110441.00,A,5351.51301,N,02729.10543,E,1.089,,211015,,,A*7E
503: $GPRMC,110442.00,A,5351.51274,N,02729.10523,E,0.532,,211015,,,A*7C
505: $GPRMC,110443.00,A,5351.51249,N,02729.10500,E,0.188,,211015,,,A*77
507: $GPRMC,110444.00,A,5351.51227,N,02729.10497,E,0.244,,211015,,,A*74
509: $GPRMC,110445.00,A,5351.51201,N,02729.10492,E,1.101,,211015,,,A*77
511: $GPRMC,110446.00,A,5351.51164,N,02729.10461,E,0.686,,211015,,,A*71
513: $GPRMC,110447.00,A,5351.51138,N,02729.10449,E,0.856,,211015,,,A*70
515: $GPRMC,110448.00,A,5351.51102,N,02729.10423,E,1.808,,211015,,,A*70
517: $GPRMC,110449.00,A,5351.51082,N,02729.10415,E,0.973,,211015,,,A*71
519: $GPRMC,110450.00,A,5351.51051,N,02729.10395,E,0.313,,211015,,,A*74
521: $GPRMC,110451.00,A,5351.51018,N,02729.10384,E,1.266,,211015,,,A*7A
523: $GPRMC,110452.00,A,5351.51001,N,02729.10380,E,2.131,124.15,211015,,,A*6A
525: $GPRMC,110453.00,A,5351.51006,N,02729.10404,E,1.223,,211015,,,A*79
527: $GPRMC,110454.00,A,5351.50990,N,02729.10400,E,0.278,,211015,,,A*72
529: $GPRMC,110455.00,A,5351.50980,N,02729.10396,E,0.275,,211015,,,A*77
531: $GPRMC,110456.00,A,5351.50979,N,02729.10397,E,0.966,,211015,,,A*7A
533: $GPRMC,110457.00,A,5351.50982,N,02729.10404,E,1.407,,211015,,,A*79
535: $GPRMC,110458.00,A,5351.50974,N,02729.10399,E,0.459,,211015,,,A*76
537: $GPRMC,110459.00,A,5351.50941,N,02729.10366,E,0.203,,211015,,,A*78
539: $GPRMC,110500.00,A,5351.50921,N,02729.10346,E,1.085,,211015,,,A*7C
541: $GPRMC,110501.00,A,5351.50910,N,02729.10335,E,1.639,,211015,,,A*7A
543: $GPRMC,110502.00,A,5351.50889,N,02729.10322,E,0.407,,211015,,,A*70
545: $GPRMC,110503.00,A,5351.50864,N,02729.10311,E,1.024,,211015,,,A*76
547: $GPRMC,110504.00,A,5351.50870,N,02729.10325,E,0.751,,211015,,,A*77
549: $GPRMC,110505.00,A,5351.50893,N,02729.10354,E,0.072,,211015,,,A*7B
551: $GPRMC,110506.00,A,5351.50909,N,02729.10379,E,0.236,,211015,,,A*77
553: $GPRMC,110507.00,A,5351.50930,N,02729.10399,E,0.781,,211015,,,A*7B
555: $GPRMC,110508.00,A,5351.50900,N,02729.10372,E,1.098,,211015,,,A*7C
557: $GPRMC,110509.00,A,5351.50925,N,02729.10393,E,1.003,,211015,,,A*77
559: $GPRMC,110510.00,A,5351.50928,N,02729.10408,E,0.183,,211015,,,A*7F
561: $GPRMC,110511.00,A,5351.50910,N,02729.10407,E,0.526,,211015,,,A*71
563: $GPRMC,110512.00,A,5351.50874,N,02729.10391,E,0.840,,211015,,,A*74
565: $GPRMC,110513.00,A,5351.50868,N,02729.10388,E,0.293,,211015,,,A*74
567: $GPRMC,110514.00,A,5351.50869,N,02729.10390,E,0.303,,211015,,,A*73
569: $GPRMC,110515.00,A,5351.50882,N,02729.10409,E,0.275,,211015,,,A*70
571: $GPRMC,110516.00,A,5351.50885,N,02729.10415,E,1.193,,211015,,,A*73
573: $GPRMC,110517.00,A,5351.50880,N,02729.10404,E,1.182,,211015,,,A*77
575: $GPRMC,110518.00,A,5351.50896,N,02729.10416,E,0.534,,211015,,,A*74
577: $GPRMC,110519.00,A,5351.50920,N,02729.10440,E,0.275,,211015,,,A*78
579: $GPRMC,110520.00,A,5351.50948,N,02729.10463,E,0.871,,211015,,,A*73
581: $GPRMC,110521.00,A,5351.50958,N,02729.10467,E,0.970,,211015,,,A*77
583: $GPRMC,110522.00,A,5351.50963,N,02729.10472,E,0.157,,211015,,,A*75
585: $GPRMC,110523.00,A,5351.50984,N,02729.10503,E,0.398,,211015,,,A*7B
587: $GPRMC,110524.00,A,5351.51001,N,02729.10522,E,0.422,,211015,,,A*7C
589: $GPRMC,110525.00,A,5351.51025,N,02729.10560,E,0.265,,211015,,,A*78
591: $GPRMC,110526.00,A,5351.51028,N,02729.10567,E,0.351,,211015,,,A*77
593: $GPRMC,110527.00,A,5351.51030,N,02729.10569,E,0.724,,211015,,,A*77
595: $GPRMC,110528.00,A,5351.51029,N,02729.10570,E,1.289,,211015,,,A*7B
597: $GPRMC,110529.00,A,5351.51017,N,02729.10552,E,0.863,,211015,,,A*78
599: $GPRMC,110530.00,A,5351.51003,N,02729.10544,E,0.238,,211015,,,A*76
601: $GPRMC,110531.00,A,5351.50976,N,02729.10521,E,0.538,,211015,,,A*79
603: $GPRMC,110532.00,A,5351.50959,N,02729.10505,E,1.392,,211015,,,A*76
605: $GPRMC,110533.00,A,5351.50949,N,02729.10504,E,0.911,,211015,,,A*77
607: $GPRMC,110534.00,A,5351.50918,N,02729.10476,E,0.168,,211015,,,A*76
609: $GPRMC,110535.00,A,5351.50886,N,02729.10450,E,0.210,,211015,,,A*79
611: $GPRMC,110536.00,A,5351.50861,N,02729.10435,E,1.553,,211015,,,A*71
613: $GPRMC,110537.00,A,5351.50822,N,02729.10405,E,2.684,186.15,211015,,,A*6B
615: $GPRMC,110538.00,A,5351.50796,N,02729.10383,E,1.826,,211015,,,A*7D
617: $GPRMC,110539.00,A,5351.50781,N,02729.10365,E,1.194,,211015,,,A*72
619: $GPRMC,110540.00,A,5351.50774,N,02729.10363,E,2.070,198.90,211015,,,A*6F
621: $GPRMC,110541.00,A,5351.50778,N,02729.10377,E,2.892,210.76,211015,,,A*68
623: $GPRMC,110542.00,A,5351.50799,N,02729.10413,E,1.706,,211015,,,A*7C
625: $GPRMC,110543.00,A,5351.50791,N,02729.10417,E,0.974,,211015,,,A*7B
627: $GPRMC,110544.00,A,5351.50789,N,02729.10425,E,0.873,,211015,,,A*72
629: $GPRMC,110545.00,A,5351.50795,N,02729.10439,E,1.359,,211015,,,A*71
631: $GPRMC,110546.00,A,5351.50809,N,02729.10464,E,1.468,,211015,,,A*75
633: $GPRMC,110547.00,A,5351.50817,N,02729.10472,E,0.232,,211015,,,A*74
635: $GPRMC,110548.00,A,5351.50828,N,02729.10482,E,0.852,,211015,,,A*74
637: $GPRMC,110549.00,A,5351.50845,N,02729.10497,E,0.201,,211015,,,A*76
639: $GPRMC,110550.00,A,5351.50863,N,02729.10517,E,0.672,,211015,,,A*73
641: $GPRMC,110551.00,A,5351.50896,N,02729.10548,E,0.168,,211015,,,A*7E
643: $GPRMC,110552.00,A,5351.50920,N,02729.10577,E,0.912,,211015,,,A*78
645: $GPRMC,110553.00,A,5351.50932,N,02729.10588,E,0.683,,211015,,,A*7D
647: $GPRMC,110554.00,A,5351.50957,N,02729.10622,E,0.378,,211015,,,A*7B
649: $GPRMC,110555.00,A,5351.50977,N,02729.10651,E,0.202,,211015,,,A*70
651: $GPRMC,110556.00,A,5351.50982,N,02729.10658,E,0.173,,211015,,,A*75
653: $GPRMC,110557.00,A,5351.50987,N,02729.10666,E,0.471,,211015,,,A*7B
655: $GPRMC,110558.00,A,5351.50999,N,02729.10685,E,0.378,,211015,,,A*78
657: $GPRMC,110559.00,A,5351.51013,N,02729.10707,E,0.861,,211015,,,A*7B
659: $GPRMC,110600.00,A,5351.51020,N,02729.10720,E,0.227,,211015,,,A*79
661: $GPRMC,110601.00,A,5351.51025,N,02729.10725,E,0.896,,211015,,,A*78
663: $GPRMC,110602.00,A,5351.51022,N,02729.10719,E,0.626,,211015,,,A*76
665: $GPRMC,110603.00,A,5351.51023,N,02729.10713,E,0.387,,211015,,,A*72
667: $GPRMC,110604.00,A,5351.51033,N,02729.10728,E,0.526,,211015,,,A*71
669: $GPRMC,110605.00,A,5351.51022,N,02729.10712,E,0.538,,211015,,,A*76
671: $GPRMC,110606.00,A,5351.51009,N,02729.10694,E,0.912,,211015,,,A*77
673: $GPRMC,110607.00,A,5351.51006,N,02729.10687,E,0.214,,211015,,,A*76
675: $GPRMC,110608.00,A,5351.51002,N,02729.10683,E,0.672,,211015,,,A*7D
677: $GPRMC,110609.00,A,5351.50999,N,02729.10688,E,0.242,,211015,,,A*7A
679: $GPRMC,110610.00,A,5351.50986,N,02729.10671,E,0.558,,211015,,,A*76
681: $GPRMC,110611.00,A,5351.50974,N,02729.10654,E,0.492,,211015,,,A*7A
683: $GPRMC,110612.00,A,5351.50962,N,02729.10641,E,0.810,,211015,,,A*7C
685: $GPRMC,110613.00,A,5351.50957,N,02729.10637,E,0.329,,211015,,,A*7B
687: $GPRMC,110614.00,A,5351.50960,N,02729.10649,E,0.511,,211015,,,A*7C
689: $GPRMC,110615.00,A,5351.50942,N,02729.10627,E,0.030,,211015,,,A*73
691: $GPRMC,110616.00,A,5351.50942,N,02729.10630,E,1.229,,211015,,,A*7D
693: $GPRMC,110617.00,A,5351.50933,N,02729.10637,E,1.506,,211015,,,A*77
695: $GPRMC,110618.00,A,5351.50925,N,02729.10627,E,0.202,,211015,,,A*7C
697: $GPRMC,110619.00,A,5351.50900,N,02729.10607,E,0.430,,211015,,,A*7F
699: $GPRMC,110620.00,A,5351.50880,N,02729.10600,E,0.999,,211015,,,A*75
701: $GPRMC,110621.00,A,5351.50867,N,02729.10596,E,1.417,,211015,,,A*7B
703: $GPRMC,110622.00,A,5351.50863,N,02729.10602,E,0.285,,211015,,,A*7E
705: $GPRMC,110623.00,A,5351.50850,N,02729.10595,E,1.507,,211015,,,A*7E
707: $GPRMC,110624.00,A,5351.50837,N,02729.10587,E,1.140,,211015,,,A*7C
709: $GPRMC,110625.00,A,5351.50837,N,02729.10594,E,0.221,,211015,,,A*7A
711: $GPRMC,110626.00,A,5351.50843,N,02729.10608,E,0.216,,211015,,,A*78
713: $GPRMC,110627.00,A,5351.50844,N,02729.10610,E,0.657,,211015,,,A*76
715: $GPRMC,110628.00,A,5351.50831,N,02729.10598,E,0.733,,211015,,,A*7B
717: $GPRMC,110629.00,A,5351.50813,N,02729.10575,E,0.180,,211015,,,A*77
719: $GPRMC,110630.00,A,5351.50801,N,02729.10564,E,0.685,,211015,,,A*7E
721: $GPRMC,110631.00,A,5351.50792,N,02729.10548,E,0.124,,211015,,,A*78
723: $GPRMC,110632.00,A,5351.50782,N,02729.10532,E,0.200,,211015,,,A*72
725: $GPRMC,110633.00,A,5351.50782,N,02729.10528,E,0.632,,211015,,,A*7D
727: $GPRMC,110634.00,A,5351.50790,N,02729.10538,E,0.954,,211015,,,A*77
729: $GPRMC,110635.00,A,5351.50810,N,02729.10556,E,0.312,,211015,,,A*71
731: $GPRMC,110636.00,A,5351.50838,N,02729.10577,E,0.736,,211015,,,A*79
733: $GPRMC,110637.00,A,5351.50850,N,02729.10583,E,0.247,,211015,,,A*7E
735: $GPRMC,110638.00,A,5351.50875,N,02729.10605,E,0.990,,211015,,,A*7A
737: $GPRMC,110639.00,A,5351.50888,N,02729.10621,E,0.836,,211015,,,A*72
739: $GPRMC,110640.00,A,5351.50886,N,02729.10619,E,0.717,,211015,,,A*75
741: $GPRMC,110641.00,A,5351.50881,N,02729.10611,E,1.409,,211015,,,A*76
743: $GPRMC,110642.00,A,5351.50881,N,02729.10609,E,0.113,,211015,,,A*73
745: $GPRMC,110643.00,A,5351.50877,N,02729.10595,E,1.074,,211015,,,A*7C
747: $GPRMC,110644.00,A,5351.50885,N,02729.10604,E,0.436,,211015,,,A*7E
749: $GPRMC,110645.00,A,5351.50885,N,02729.10606,E,0.487,,211015,,,A*77
751: $GPRMC,110646.00,A,5351.50880,N,02729.10596,E,0.221,,211015,,,A*71
753: $GPRMC,110647.00,A,5351.50889,N,02729.10600,E,0.288,,211015,,,A*76
755: $GPRMC,110648.00,A,5351.50907,N,02729.10620,E,0.453,,211015,,,A*7C
757: $GPRMC,110649.00,A,5351.50912,N,02729.10627,E,1.167,,211015,,,A*7D
759: $GPRMC,110650.00,A,5351.50910,N,02729.10619,E,0.923,,211015,,,A*73
761: $GPRMC,110651.00,A,5351.50919,N,02729.10622,E,0.065,,211015,,,A*78
763: $GPRMC,110652.00,A,5351.50920,N,02729.10622,E,0.191,,211015,,,A*7B
765: $GPRMC,110653.00,A,5351.50916,N,02729.10617,E,1.052,,211015,,,A*76
767: $GPRMC,110654.00,A,5351.50902,N,02729.10600,E,1.502,,211015,,,A*72
769: $GPRMC,110655.00,A,5351.50891,N,02729.10588,E,0.451,,211015,,,A*7D
771: $GPRMC,110656.00,A,5351.50883,N,02729.10595,E,0.876,,211015,,,A*78
773: $GPRMC,110657.00,A,5351.50866,N,02729.10595,E,1.291,,211015,,,A*70
775: $GPRMC,110658.00,A,5351.50866,N,02729.10602,E,0.331,,211015,,,A*78
777: $GPRMC,110659.00,A,5351.50840,N,02729.10578,E,0.124,,211015,,,A*75
779: $GPRMC,110700.00,A,5351.50822,N,02729.10567,E,0.568,,211015,,,A*7E
781: $GPRMC,110701.00,A,5351.50812,N,02729.10565,E,0.572,,211015,,,A*75
783: $GPRMC,110702.00,A,5351.50824,N,02729.10574,E,1.288,,211015,,,A*70
785: $GPRMC,110703.00,A,5351.50842,N,02729.10573,E,2.504,,211015,,,A*76
787: $GPRMC,110704.00,A,5351.50838,N,02729.10572,E,1.370,,211015,,,A*7B
789: $GPRMC,110705.00,A,5351.50852,N,02729.10595,E,0.322,,211015,,,A*79
791: $GPRMC,110706.00,A,5351.50860,N,02729.10609,E,0.626,,211015,,,A*7C
793: $GPRMC,110707.00,A,5351.50864,N,02729.10614,E,0.966,,211015,,,A*7E
795: $GPRMC,110708.00,A,5351.50877,N,02729.10629,E,0.171,,211015,,,A*73
797: $GPRMC,110709.00,A,5351.50887,N,02729.10642,E,0.328,,211015,,,A*7E
799: $GPRMC,110710.00,A,5351.50901,N,02729.10662,E,0.246,,211015,,,A*72
801: $GPRMC,110711.00,A,5351.50899,N,02729.10661,E,1.091,,211015,,,A*79
803: $GPRMC,110712.00,A,5351.50900,N,02729.10656,E,1.301,,211015,,,A*75
805: $GPRMC,110713.00,A,5351.50908,N,02729.10662,E,0.219,,211015,,,A*72
807: $GPRMC,110714.00,A,5351.50924,N,02729.10678,E,1.100,,211015,,,A*7A
809: $GPRMC,110715.00,A,5351.50935,N,02729.10685,E,0.148,,211015,,,A*74
811: $GPRMC,110716.00,A,5351.50948,N,02729.10687,E,0.639,,211015,,,A*7E
813: $GPRMC,110717.00,A,5351.50965,N,02729.10698,E,0.370,,211015,,,A*76
815: $GPRMC,110718.00,A,5351.50980,N,02729.10710,E,0.399,,211015,,,A*74
817: $GPRMC,110719.00,A,5351.50996,N,02729.10732,E,0.177,,211015,,,A*70
819: $GPRMC,110720.00,A,5351.50999,N,02729.10735,E,0.524,,211015,,,A*70
821: $GPRMC,110721.00,A,5351.50998,N,02729.10727,E,0.346,,211015,,,A*71
823: $GPRMC,110722.00,A,5351.51004,N,02729.10724,E,0.670,,211015,,,A*7C
825: $GPRMC,110723.00,A,5351.51006,N,02729.10719,E,1.423,,211015,,,A*74
827: $GPRMC,110724.00,A,5351.51004,N,02729.10711,E,0.266,,211015,,,A*7F
829: $GPRMC,110725.00,A,5351.50995,N,02729.10697,E,0.538,,211015,,,A*7D
831: $GPRMC,110726.00,A,5351.50995,N,02729.10697,E,0.170,,211015,,,A*76
833: $GPRMC,110727.00,A,5351.50999,N,02729.10705,E,0.970,,211015,,,A*79
835: $GPRMC,110728.00,A,5351.51005,N,02729.10717,E,0.854,,211015,,,A*7F
837: $GPRMC,110729.00,A,5351.51006,N,02729.10729,E,0.308,,211015,,,A*72
839: $GPRMC,110730.00,A,5351.51004,N,02729.10728,E,0.099,,211015,,,A*72
841: $GPRMC,110731.00,A,5351.51007,N,02729.10740,E,0.748,,211015,,,A*75
843: $GPRMC,110732.00,A,5351.51008,N,02729.10758,E,1.324,,211015,,,A*7F
845: $GPRMC,110733.00,A,5351.50998,N,02729.10761,E,0.299,,211015,,,A*73
847: $GPRMC,110734.00,A,5351.50975,N,02729.10746,E,0.297,,211015,,,A*7C
849: $GPRMC,110735.00,A,5351.50970,N,02729.10753,E,1.292,,211015,,,A*78
851: $GPRMC,110736.00,A,5351.50955,N,02729.10753,E,1.824,,211015,,,A*7B
853: $GPRMC,110737.00,A,5351.50924,N,02729.10734,E,1.737,,211015,,,A*70
855: $GPRMC,110738.00,A,5351.50896,N,02729.10719,E,0.764,,211015,,,A*7F
857: $GPRMC,110739.00,A,5351.50864,N,02729.10692,E,1.319,,211015,,,A*7E
859: $GPRMC,110740.00,A,5351.50856,N,02729.10693,E,2.342,215.12,211015,,,A*66
861: $GPRMC,110741.00,A,5351.50860,N,02729.10708,E,2.468,215.10,211015,,,A*6C
863: $GPRMC,110742.00,A,5351.50845,N,02729.10696,E,1.450,,211015,,,A*7F
865: $GPRMC,110743.00,A,5351.50819,N,02729.10669,E,0.970,,211015,,,A*79
867: $GPRMC,110744.00,A,5351.50813,N,02729.10650,E,1.868,,211015,,,A*77
869: $GPRMC,110745.00,A,5351.50819,N,02729.10642,E,2.185,215.77,211015,,,A*6E
871: $GPRMC,110746.00,A,5351.50814,N,02729.10626,E,1.548,,211015,,,A*7C
873: $GPRMC,110747.00,A,5351.50823,N,02729.10634,E,0.543,,211015,,,A*70
875: $GPRMC,110748.00,A,5351.50834,N,02729.10650,E,1.144,,211015,,,A*79
877: $GPRMC,110749.00,A,5351.50846,N,02729.10662,E,1.507,,211015,,,A*7F
879: $GPRMC,110750.00,A,5351.50848,N,02729.10657,E,1.503,,211015,,,A*7B
881: $GPRMC,110751.00,A,5351.50867,N,02729.10668,E,0.190,,211015,,,A*74
883: $GPRMC,110752.00,A,5351.50864,N,02729.10644,E,0.215,,211015,,,A*74
885: $GPRMC,110753.00,A,5351.50870,N,02729.10631,E,0.770,,211015,,,A*74
887: $GPRMC,110754.00,A,5351.50888,N,02729.10629,E,1.317,,211015,,,A*79
889: $GPRMC,110755.00,A,5351.50888,N,02729.10622,E,0.380,,211015,,,A*7C
891: $GPRMC,110756.00,A,5351.50902,N,02729.10625,E,1.277,,211015,,,A*73
893: $GPRMC,110757.00,A,5351.50903,N,02729.10622,E,0.543,,211015,,,A*75
895: $GPRMC,110758.00,A,5351.50915,N,02729.10627,E,0.147,,211015,,,A*78
897: $GPRMC,110759.00,A,5351.50931,N,02729.10646,E,0.330,,211015,,,A*7A
899: $GPRMC,110800.00,A,5351.50934,N,02729.10651,E,0.760,,211015,,,A*7B
901: $GPRMC,110801.00,A,5351.50942,N,02729.10646,E,0.805,,211015,,,A*71
903: $GPRMC,110802.00,A,5351.50953,N,02729.10646,E,0.536,,211015,,,A*7F
905: $GPRMC,110803.00,A,5351.50969,N,02729.10658,E,1.479,,211015,,,A*73
907: $GPRMC,110804.00,A,5351.50976,N,02729.10658,E,0.667,,211015,,,A*76
909: $GPRMC,110805.00,A,5351.50972,N,02729.10640,E,0.140,,211015,,,A*78
911: $GPRMC,110806.00,A,5351.50967,N,02729.10620,E,0.282,,211015,,,A*74
913: $GPRMC,110807.00,A,5351.50973,N,02729.10614,E,0.666,,211015,,,A*79
915: $GPRMC,110808.00,A,5351.50980,N,02729.10625,E,0.325,,211015,,,A*7A
917: $GPRMC,110809.00,A,5351.50982,N,02729.10641,E,0.604,,211015,,,A*7D
919: $GPRMC,110810.00,A,5351.50977,N,02729.10646,E,0.474,,211015,,,A*7D
921: $GPRMC,110811.00,A,5351.50983,N,02729.10666,E,0.382,,211015,,,A*7B
923: $GPRMC,110812.00,A,5351.50985,N,02729.10677,E,0.360,,211015,,,A*72
925: $GPRMC,110813.00,A,5351.50969,N,02729.10660,E,0.150,,211015,,,A*76
927: $GPRMC,110814.00,A,5351.50956,N,02729.10650,E,0.152,,211015,,,A*7C
929: $GPRMC,110815.00,A,5351.50945,N,02729.10643,E,1.284,,211015,,,A*74
931: $GPRMC,110816.00,A,5351.50931,N,02729.10632,E,1.812,,211015,,,A*77
933: $GPRMC,110817.00,A,5351.50923,N,02729.10634,E,0.561,,211015,,,A*7B
935: $GPRMC,110818.00,A,5351.50897,N,02729.10609,E,0.409,,211015,,,A*7B
937: $GPRMC,110819.00,A,5351.50872,N,02729.10578,E,0.243,,211015,,,A*7C
939: $GPRMC,110820.00,A,5351.50856,N,02729.10562,E,0.392,,211015,,,A*76
941: $GPRMC,110821.00,A,5351.50851,N,02729.10561,E,0.152,,211015,,,A*7D
943: $GPRMC,110822.00,A,5351.50842,N,02729.10554,E,0.668,,211015,,,A*74
945: $GPRMC,110823.00,A,5351.50825,N,02729.10533,E,0.675,,211015,,,A*79
947: $GPRMC,110824.00,A,5351.50820,N,02729.10529,E,0.502,,211015,,,A*73
949: $GPRMC,110825.00,A,5351.50819,N,02729.10533,E,1.087,,211015,,,A*7A
951: $GPRMC,110826.00,A,5351.50818,N,02729.10530,E,0.353,,211015,,,A*70
953: $GPRMC,110827.00,A,5351.50814,N,02729.10519,E,1.053,,211015,,,A*74
955: $GPRMC,110828.00,A,5351.50812,N,02729.10500,E,0.375,,211015,,,A*73
957: $GPRMC,110829.00,A,5351.50806,N,02729.10485,E,0.518,,211015,,,A*76
959: $GPRMC,110830.00,A,5351.50820,N,02729.10496,E,0.672,,211015,,,A*77
961: $GPRMC,110831.00,A,5351.50824,N,02729.10499,E,0.255,,211015,,,A*7C
963: $GPRMC,110832.00,A,5351.50832,N,02729.10502,E,1.079,,211015,,,A*76
965: $GPRMC,110833.00,A,5351.50832,N,02729.10498,E,0.382,,211015,,,A*73
967: $GPRMC,110834.00,A,5351.50827,N,02729.10488,E,0.255,,211015,,,A*7A
969: $GPRMC,110835.00,A,5351.50822,N,02729.10475,E,0.241,,211015,,,A*79
971: $GPRMC,110836.00,A,5351.50819,N,02729.10464,E,0.658,,211015,,,A*7E
973: $GPRMC,110837.00,A,5351.50809,N,02729.10449,E,0.181,,211015,,,A*72
975: $GPRMC,110838.00,A,5351.50807,N,02729.10448,E,0.799,,211015,,,A*7D
977: $GPRMC,110839.00,A,5351.50820,N,02729.10478,E,0.785,,211015,,,A*77
979: $GPRMC,110840.00,A,5351.50818,N,02729.10480,E,0.454,,211015,,,A*7A
981: $GPRMC,110841.00,A,5351.50823,N,02729.10488,E,0.626,,211015,,,A*7C
983: $GPRMC,110842.00,A,5351.50828,N,02729.10505,E,0.136,,211015,,,A*76
985: $GPRMC,110843.00,A,5351.50843,N,02729.10533,E,0.498,,211015,,,A*7E
987: $GPRMC,110844.00,A,5351.50844,N,02729.10540,E,0.331,,211015,,,A*7E
989: $GPRMC,110845.00,A,5351.50841,N,02729.10541,E,0.330,,211015,,,A*7A
991: $GPRMC,110846.00,A,5351.50830,N,02729.10522,E,1.210,,211015,,,A*78
991: $GPRMC,110847.00,A,5351.50820,N,02729.10505,E,1.785,,211015,,,A*74
991: $GPRMC,110848.00,A,5351.50815,N,02729.10504,E,1.270,,211015,,,A*73
991: $GPRMC,110849.00,A,5351.50804,N,02729.10489,E,0.430,,211015,,,A*75
991: $GPRMC,110850.00,A,5351.50789,N,02729.10468,E,0.525,,211015,,,A*7D
991: $GPRMC,110851.00,A,5351.50789,N,02729.10475,E,0.799,,211015,,,A*75
991: $GPRMC,110852.00,A,5351.50785,N,02729.10483,E,1.250,,211015,,,A*72
991: $GPRMC,110853.00,A,5351.50786,N,02729.10497,E,1.470,,211015,,,A*71
991: $GPRMC,110854.00,A,5351.50780,N,02729.10495,E,1.281,,211015,,,A*7A
991: $GPRMC,110855.00,A,5351.50782,N,02729.10501,E,1.673,,211015,,,A*7C
991: $GPRMC,110856.00,A,5351.50799,N,02729.10515,E,1.736,,211015,,,A*70
991: $GPRMC,110857.00,A,5351.50825,N,02729.10548,E,1.600,,211015,,,A*75
991: $GPRMC,110858.00,A,5351.50844,N,02729.10564,E,1.985,,211015,,,A*71
991: $GPRMC,110859.00,A,5351.50866,N,02729.10593,E,2.156,,211015,,,A*7D
991: $GPRMC,110900.00,A,5351.50879,N,02729.10610,E,1.165,,211015,,,A*75
991: $GPRMC,110901.00,A,5351.50898,N,02729.10639,E,0.459,,211015,,,A*7B
991: $GPRMC,110902.00,A,5351.50919,N,02729.10654,E,0.100,,211015,,,A*72
991: $GPRMC,110903.00,A,5351.50931,N,02729.10649,E,0.117,,211015,,,A*73
991: $GPRMC,110904.00,A,5351.50932,N,02729.10634,E,0.395,,211015,,,A*75
991: $GPRMC,110905.00,A,5351.50936,N,02729.10618,E,0.537,,211015,,,A*70
991: $GPRMC,110906.00,A,5351.50937,N,02729.10607,E,0.222,,211015,,,A*7F
991: $GPRMC,110907.00,A,5351.50940,N,02729.10607,E,0.058,,211015,,,A*71
991: $GPRMC,110908.00,A,5351.50938,N,02729.10593,E,0.312,,211015,,,A*72
991: $GPRMC,110909.00,A,5351.50934,N,02729.10580,E,0.399,,211015,,,A*7E
991: $GPRMC,110910.00,A,5351.50940,N,02729.10582,E,0.066,,211015,,,A*74
991: $GPRMC,110911.00,A,5351.50948,N,02729.10584,E,0.266,,211015,,,A*79
991: $GPRMC,110912.00,A,5351.50937,N,02729.10564,E,0.092,,211015,,,A*75
991: $GPRMC,110913.00,A,5351.50938,N,02729.10562,E,0.366,,211015,,,A*75
991: $GPRMC,110914.00,A,5351.50955,N,02729.10579,E,0.314,,211015,,,A*76
991: $GPRMC,110915.00,A,5351.50965,N,02729.10580,E,0.146,,211015,,,A*77
991: $GPRMC,110916.00,A,5351.50966,N,02729.10577,E,0.194,,211015,,,A*70
991: $GPRMC,110917.00,A,5351.50956,N,02729.10562,E,0.358,,211015,,,A*74
991: $GPRMC,110918.00,A,5351.50944,N,02729.10547,E,0.446,,211015,,,A*77
991: $GPRMC,110919.00,A,5351.50947,N,02729.10554,E,0.198,,211015,,,A*71
991: $GPRMC,110920.00,A,5351.50949,N,02729.10566,E,0.030,,211015,,,A*77
991: $GPRMC,110921.00,A,5351.50931,N,02729.10549,E,0.181,,211015,,,A*7F
991: $GPRMC,110922.00,A,5351.50921,N,02729.10542,E,0.312,,211015,,,A*7E
991: $GPRMC,110923.00,A,5351.50921,N,02729.10542,E,0.236,,211015,,,A*78
991: $GPRMC,110924.00,A,5351.50922,N,02729.10542,E,0.139,,211015,,,A*70
991: $GPRMC,110925.00,A,5351.50914,N,02729.10527,E,0.157,,211015,,,A*7F
991: $GPRMC,110926.00,A,5351.50906,N,02729.10511,E,0.247,,211015,,,A*78
991: $GPRMC,110927.00,A,5351.50900,N,02729.10498,E,0.367,,211015,,,A*7C
991: $GPRMC,110928.00,A,5351.50906,N,02729.10508,E,0.252,,211015,,,A*7A
991: $GPRMC,110929.00,A,5351.50901,N,02729.10506,E,0.187,,211015,,,A*79
991: $GPRMC,110930.00,A,5351.50897,N,02729.10501,E,0.216,,211015,,,A*73
991: $GPRMC,110931.00,A,5351.50896,N,02729.10502,E,0.215,,211015,,,A*73
991: $GPRMC,110932.00,A,5351.50893,N,02729.10505,E,0.157,,211015,,,A*77
991: $GPRMC,110933.00,A,5351.50887,N,02729.10496,E,0.085,,211015,,,A*76
991: $GPRMC,110934.00,A,5351.50877,N,02729.10471,E,0.111,,211015,,,A*7B
991: $GPRMC,110935.00,A,5351.50866,N,02729.10447,E,0.187,,211015,,,A*70
991: $GPRMC,110936.00,A,5351.50853,N,02729.10428,E,0.325,,211015,,,A*76
991: $GPRMC,110937.00,A,5351.50852,N,02729.10435,E,0.215,,211015,,,A*78
991: $GPRMC,110938.00,A,5351.50849,N,02729.10437,E,0.089,,211015,,,A*78
991: $GPRMC,110939.00,A,5351.50838,N,02729.10428,E,0.068,,211015,,,A*7E
991: $GPRMC,110940.00,A,5351.50825,N,02729.10418,E,0.149,,211015,,,A*7D
991: $GPRMC,110941.00,A,5351.50829,N,02729.10421,E,0.062,,211015,,,A*72
991: $GPRMC,110942.00,A,5351.50835,N,02729.10433,E,0.288,,211015,,,A*79
991: $GPRMC,110943.00,A,5351.50823,N,02729.10420,E,0.167,,211015,,,A*7F
991: $GPRMC,110944.00,A,5351.50821,N,02729.10416,E,0.015,,211015,,,A*7B
991: $GPRMC,110945.00,A,5351.50819,N,02729.10410,E,0.105,,211015,,,A*77
991: $GPRMC,110946.00,A,5351.50813,N,02729.10394,E,0.071,,211015,,,A*77
991: $GPRMC,110947.00,A,5351.50803,N,02729.10381,E,0.027,,211015,,,A*70
991: $GPRMC,110948.00,A,5351.50789,N,02729.10362,E,0.212,,211015,,,A*7B
991: $GPRMC,110949.00,A,5351.50777,N,02729.10347,E,0.377,,211015,,,A*7E
991: $GPRMC,110950.00,A,5351.50778,N,02729.10345,E,0.256,,211015,,,A*79
991: $GPRMC,110951.00,A,5351.50773,N,02729.10340,E,0.161,,211015,,,A*71
991: $GPRMC,110952.00,A,5351.50755,N,02729.10319,E,0.300,,211015,,,A*7F
991: $GPRMC,110953.00,A,5351.50752,N,02729.10315,E,0.355,,211015,,,A*75
991: $GPRMC,110954.00,A,5351.50751,N,02729.10314,E,0.306,,211015,,,A*76
991: $GPRMC,110955.00,A,5351.50756,N,02729.10322,E,0.094,,211015,,,A*7D
991: $GPRMC,110956.00,A,5351.50755,N,02729.10314,E,0.064,,211015,,,A*77
991: $GPRMC,110957.00,A,5351.50750,N,02729.10297,E,0.066,,211015,,,A*7B
991: $GPRMC,110958.00,A,5351.50744,N,02729.10280,E,0.143,,211015,,,A*71
991: $GPRMC,110959.00,A,5351.50750,N,02729.10285,E,0.106,,211015,,,A*71
991: $GPRMC,111000.00,A,5351.50754,N,02729.10281,E,0.238,,211015,,,A*7B
991: $GPRMC,111001.00,A,5351.50751,N,02729.10267,E,0.164,,211015,,,A*7D
991: $GPRMC,111002.00,A,5351.50748,N,02729.10257,E,0.033,,211015,,,A*76
991: $GPRMC,111003.00,A,5351.50744,N,02729.10247,E,0.032,,211015,,,A*7B
991: $GPRMC,111004.00,A,5351.50739,N,02729.10231,E,0.020,,211015,,,A*74
991: $GPRMC,111005.00,A,5351.50732,N,02729.10220,E,0.066,,211015,,,A*7C
991: $GPRMC,111006.00,A,5351.50723,N,02729.10201,E,0.082,,211015,,,A*76
991: $GPRMC,111007.00,A,5351.50718,N,02729.10186,E,0.136,,211015,,,A*7D
991: $GPRMC,111008.00,A,5351.50724,N,02729.10191,E,0.022,,211015,,,A*7F
991: $GPRMC,111009.00,A,5351.50730,N,02729.10197,E,0.166,,211015,,,A*7C
991: $GPRMC,111010.00,A,5351.50735,N,02729.10194,E,0.107,,211015,,,A*75
991: $GPRMC,111011.00,A,5351.50741,N,02729.10193,E,0.045,,211015,,,A*77
991: $GPRMC,111012.00,A,5351.50745,N,02729.10188,E,0.032,,211015,,,A*7A
991: $GPRMC,111013.00,A,5351.50755,N,02729.10200,E,0.202,,211015,,,A*78
991: $GPRMC,111014.00,A,5351.50750,N,02729.10179,E,0.195,,211015,,,A*7A
991: $GPRMC,111015.00,A,5351.50745,N,02729.10162,E,0.079,,211015,,,A*76
991: $GPRMC,111016.00,A,5351.50743,N,02729.10155,E,0.031,,211015,,,A*7B
991: $GPRMC,111017.00,A,5351.50748,N,02729.10160,E,0.110,,211015,,,A*75
991: $GPRMC,111018.00,A,5351.50748,N,02729.10163,E,0.184,,211015,,,A*74
991: $GPRMC,111019.00,A,5351.50738,N,02729.10150,E,0.059,,211015,,,A*73
991: $GPRMC,111020.00,A,5351.50733,N,02729.10153,E,0.017,,211015,,,A*7B
991: $GPRMC,111021.00,A,5351.50733,N,02729.10158,E,0.035,,211015,,,A*71
991: $GPRMC,111022.00,A,5351.50733,N,02729.10167,E,0.048,,211015,,,A*74
991: $GPRMC,111023.00,A,5351.50738,N,02729.10182,E,0.124,,211015,,,A*7E
991: $GPRMC,111024.00,A,5351.50742,N,02729.10186,E,0.088,,211015,,,A*77
991: $GPRMC,111025.00,A,5351.50741,N,02729.10181,E,0.011,,211015,,,A*72
991: $GPRMC,111026.00,A,5351.50744,N,02729.10187,E,0.112,,211015,,,A*70
991: $GPRMC,111027.00,A,5351.50740,N,02729.10185,E,0.179,,211015,,,A*7A
991: $GPRMC,111028.00,A,5351.50729,N,02729.10177,E,0.095,,211015,,,A*74
991: $GPRMC,111029.00,A,5351.50727,N,02729.10187,E,0.209,,211015,,,A*73
991: $GPRMC,111030.00,A,5351.50733,N,02729.10207,E,0.175,,211015,,,A*7D
991: $GPRMC,111031.00,A,5351.50736,N,02729.10217,E,0.041,,211015,,,A*7E
991: $GPRMC,111032.00,A,5351.50728,N,02729.10208,E,0.080,,211015,,,A*71
991: $GPRMC,111033.00,A,5351.50725,N,02729.10202,E,0.164,,211015,,,A*7C
991: $GPRMC,111034.00,A,5351.50723,N,02729.10208,E,0.141,,211015,,,A*70
991: $GPRMC,111035.00,A,5351.50716,N,02729.10203,E,0.050,,211015,,,A*7D
991: $GPRMC,111036.00,A,5351.50703,N,02729.10187,E,0.099,,211015,,,A*70
991: $GPRMC,111037.00,A,5351.50691,N,02729.10164,E,0.080,,211015,,,A*7E
991: $GPRMC,111038.00,A,5351.50683,N,02729.10148,E,0.268,,211015,,,A*78
991: $GPRMC,111039.00,A,5351.50683,N,02729.10137,E,0.251,,211015,,,A*7B
991: $GPRMC,111040.00,A,5351.50685,N,02729.10121,E,0.110,,211015,,,A*72
991: $GPRMC,111041.00,A,5351.50678,N,02729.10093,E,0.047,,211015,,,A*7A
991: $GPRMC,111042.00,A,5351.50672,N,02729.10063,E,0.054,,211015,,,A*7E
991: $GPRMC,111043.00,A,5351.50670,N,02729.10046,E,0.066,,211015,,,A*7B
991: $GPRMC,111044.00,A,5351.50671,N,02729.10041,E,0.039,,211015,,,A*70
991: $GPRMC,111045.00,A,5351.50666,N,02729.10026,E,0.059,,211015,,,A*70
991: $GPRMC,111046.00,A,5351.50660,N,02729.10020,E,0.024,,211015,,,A*79
991: $GPRMC,111047.00,A,5351.50648,N,02729.10005,E,0.239,,211015,,,A*7B
991: $GPRMC,111048.00,A,5351.50648,N,02729.10005,E,0.180,,211015,,,A*75
991: $GPRMC,111049.00,A,5351.50649,N,02729.10001,E,0.048,,211015,,,A*74
991: $GPRMC,111050.00,A,5351.50642,N,02729.09981,E,0.115,,211015,,,A*77
991: $GPRMC,111051.00,A,5351.50643,N,02729.09972,E,0.224,,211015,,,A*7A
992: $GPRMC,111052.00,A,5351.50645,N,02729.09969,E,0.267,,211015,,,A*72
994: $GPRMC,111053.00,A,5351.50641,N,02729.09955,E,0.138,,211015,,,A*71
996: $GPRMC,111054.00,A,5351.50639,N,02729.09936,E,0.043,,211015,,,A*71
998: $GPRMC,111055.00,A,5351.50639,N,02729.09929,E,0.169,,211015,,,A*77
1000: $GPRMC,111056.00,A,5351.50640,N,02729.09935,E,0.275,,211015,,,A*79
1002: $GPRMC,111057.00,A,5351.50650,N,02729.09947,E,0.085,,211015,,,A*71
1004: $GPRMC,111058.00,A,5351.50654,N,02729.09954,E,0.226,,211015,,,A*73
1006: $GPRMC,111059.00,A,5351.50644,N,02729.09930,E,0.027,,211015,,,A*72
1008: $GPRMC,111100.00,A,5351.50652,N,02729.09936,E,0.068,,211015,,,A*75
1010: $GPRMC,111101.00,A,5351.50666,N,02729.09951,E,0.076,,211015,,,A*7D
1012: $GPRMC,111102.00,A,5351.50667,N,02729.09953,E,0.117,,211015,,,A*7B
1014: $GPRMC,111103.00,A,5351.50665,N,02729.09952,E,0.031,,211015,,,A*7C
1016: $GPRMC,111104.00,A,5351.50668,N,02729.09958,E,0.050,,211015,,,A*7B
1018: $GPRMC,111105.00,A,5351.50672,N,02729.09961,E,0.123,,211015,,,A*7E
1020: $GPRMC,111106.00,A,5351.50687,N,02729.09989,E,0.061,,211015,,,A*76
1022: $GPRMC,111107.00,A,5351.50698,N,02729.10013,E,0.211,,211015,,,A*7E
1024: $GPRMC,111108.00,A,5351.50699,N,02729.10017,E,0.099,,211015,,,A*76
1026: $GPRMC,111109.00,A,5351.50700,N,02729.10024,E,0.038,,211015,,,A*7D
1028: $GPRMC,111110.00,A,5351.50708,N,02729.10049,E,0.102,,211015,,,A*7E
1030: $GPRMC,111111.00,A,5351.50704,N,02729.10056,E,0.118,,211015,,,A*76
1032: $GPRMC,111112.00,A,5351.50704,N,02729.10054,E,0.051,,211015,,,A*7B
1034: $GPRMC,111113.00,A,5351.50712,N,02729.10073,E,0.100,,211015,,,A*7D
1036: $GPRMC,111114.00,A,5351.50714,N,02729.10081,E,0.100,,211015,,,A*71
1038: $GPRMC,111115.00,A,5351.50721,N,02729.10097,E,0.107,,211015,,,A*76
1040: $GPRMC,111116.00,A,5351.50727,N,02729.10107,E,0.293,,211015,,,A*75
1042: $GPRMC,111117.00,A,5351.50725,N,02729.10096,E,0.109,,211015,,,A*7F
1044: $GPRMC,111118.00,A,5351.50727,N,02729.10095,E,0.032,,211015,,,A*78
1046: $GPRMC,111119.00,A,5351.50739,N,02729.10120,E,0.243,,211015,,,A*7D
1048: $GPRMC,111120.00,A,5351.50746,N,02729.10128,E,0.393,,211015,,,A*7B
1050: $GPRMC,111121.00,A,5351.50741,N,02729.10116,E,0.353,,211015,,,A*7C
1052: $GPRMC,111122.00,A,5351.50737,N,02729.10105,E,0.133,,211015,,,A*78
1054: $GPRMC,111123.00,A,5351.50739,N,02729.10099,E,0.032,,211015,,,A*73
1056: $GPRMC,111124.00,A,5351.50748,N,02729.10097,E,0.021,,211015,,,A*7E
1058: $GPRMC,111125.00,A,5351.50749,N,02729.10082,E,0.024,,211015,,,A*7F
1060: $GPRMC,111126.00,A,5351.50744,N,02729.10071,E,0.141,,211015,,,A*7F
1062: $GPRMC,111127.00,A,5351.50740,N,02729.10066,E,0.256,,211015,,,A*79
1064: $GPRMC,111128.00,A,5351.50745,N,02729.10077,E,0.162,,211015,,,A*77
1066: $GPRMC,111129.00,A,5351.50747,N,02729.10074,E,0.041,,211015,,,A*77
1068: $GPRMC,111130.00,A,5351.50739,N,02729.10063,E,0.059,,211015,,,A*79
1070: $GPRMC,111131.00,A,5351.50729,N,02729.10051,E,0.231,,211015,,,A*74
1072: $GPRMC,111132.00,A,5351.50730,N,02729.10048,E,0.355,,211015,,,A*74
1074: $GPRMC,111133.00,A,5351.50729,N,02729.10048,E,0.232,,211015,,,A*7D
1076: $GPRMC,111134.00,A,5351.50731,N,02729.10054,E,0.071,,211015,,,A*7B
1078: $GPRMC,111135.00,A,5351.50718,N,02729.10031,E,0.008,,211015,,,A*7C
1080: $GPRMC,111136.00,A,5351.50706,N,02729.10009,E,0.105,,211015,,,A*77
1082: $GPRMC,111137.00,A,5351.50708,N,02729.10013,E,0.080,,211015,,,A*7F
1084: $GPRMC,111138.00,A,5351.50705,N,02729.10007,E,0.196,,211015,,,A*7E
1086: $GPRMC,111139.00,A,5351.50692,N,02729.09985,E,0.045,,211015,,,A*74
1088: $GPRMC,111140.00,A,5351.50692,N,02729.09988,E,0.071,,211015,,,A*70
1090: $GPRMC,111141.00,A,5351.50698,N,02729.09993,E,0.104,,211015,,,A*72
1092: $GPRMC,111142.00,A,5351.50698,N,02729.09992,E,0.148,,211015,,,A*78
1094: $GPRMC,111143.00,A,5351.50702,N,02729.10000,E,0.173,,211015,,,A*79
1096: $GPRMC,111144.00,A,5351.50696,N,02729.09994,E,0.047,,211015,,,A*78
1098: $GPRMC,111145.00,A,5351.50700,N,02729.09998,E,0.161,,211015,,,A*7E
1100: $GPRMC,111146.00,A,5351.50715,N,02729.10022,E,0.056,,211015,,,A*7C
1102: $GPRMC,111147.00,A,5351.50722,N,02729.10042,E,0.058,,211015,,,A*71
1104: $GPRMC,111148.00,A,5351.50717,N,02729.10031,E,0.106,,211015,,,A*76
1106: $GPRMC,111149.00,A,5351.50713,N,02729.10021,E,0.281,,211015,,,A*7E
1108: $GPRMC,111150.00,A,5351.50718,N,02729.10024,E,0.223,,211015,,,A*70
1110: $GPRMC,111151.00,A,5351.50720,N,02729.10023,E,0.084,,211015,,,A*72
1112: $GPRMC,111152.00,A,5351.50715,N,02729.10017,E,0.083,,211015,,,A*77
1114: $GPRMC,111153.00,A,5351.50713,N,02729.10012,E,0.187,,211015,,,A*70
1116: $GPRMC,111154.00,A,5351.50708,N,02729.10019,E,0.270,,211015,,,A*7D
1118: $GPRMC,111155.00,A,5351.50710,N,02729.10034,E,0.137,,211015,,,A*7A
1120: $GPRMC,111156.00,A,5351.50716,N,02729.10052,E,0.069,,211015,,,A*75
1122: $GPRMC,111157.00,A,5351.50710,N,02729.10040,E,0.015,,211015,,,A*7A
1124: $GPRMC,111158.00,A,5351.50708,N,02729.10035,E,0.078,,211015,,,A*75
1126: $GPRMC,111159.00,A,5351.50716,N,02729.10048,E,0.011,,211015,,,A*7E
1128: $GPRMC,111200.00,A,5351.50716,N,02729.10056,E,0.051,,211015,,,A*7A
1130: $GPRMC,111201.00,A,5351.50714,N,02729.10050,E,0.067,,211015,,,A*7A
1132: $GPRMC,111202.00,A,5351.50708,N,02729.10035,E,0.189,,211015,,,A*76
1134: $GPRMC,111203.00,A,5351.50703,N,02729.10034,E,0.261,,211015,,,A*78
1136: $GPRMC,111204.00,A,5351.50701,N,02729.10040,E,0.166,,211015,,,A*7A
1138: $GPRMC,111205.00,A,5351.50697,N,02729.10049,E,0.017,,211015,,,A*7B
1140: $GPRMC,111206.00,A,5351.50681,N,02729.10031,E,0.192,,211015,,,A*7C
1142: $GPRMC,111207.00,A,5351.50675,N,02729.10020,E,0.223,,211015,,,A*7F
1144: $GPRMC,111208.00,A,5351.50684,N,02729.10031,E,0.032,,211015,,,A*7C
1146: $GPRMC,111209.00,A,5351.50685,N,02729.10029,E,0.081,,211015,,,A*7D
1148: $GPRMC,111210.00,A,5351.50680,N,02729.10022,E,0.064,,211015,,,A*70
1150: $GPRMC,111211.00,A,5351.50672,N,02729.10010,E,0.069,,211015,,,A*70
1152: $GPRMC,111212.00,A,5351.50668,N,02729.10009,E,0.129,,211015,,,A*75
1154: $GPRMC,111213.00,A,5351.50670,N,02729.10019,E,0.063,,211015,,,A*73
1156: $GPRMC,111214.00,A,5351.50661,N,02729.10014,E,0.066,,211015,,,A*7C
1158: $GPRMC,111215.00,A,5351.50655,N,02729.10009,E,0.164,,211015,,,A*75
1160: $GPRMC,111216.00,A,5351.50654,N,02729.10009,E,0.202,,211015,,,A*74
1162: $GPRMC,111217.00,A,5351.50663,N,02729.10028,E,0.046,,211015,,,A*70
1164: $GPRMC,111218.00,A,5351.50667,N,02729.10035,E,0.205,,211015,,,A*72
1166: $GPRMC,111219.00,A,5351.50668,N,02729.10046,E,0.188,,211015,,,A*7E
1168: $GPRMC,111220.00,A,5351.50667,N,02729.10046,E,0.072,,211015,,,A*7F
1170: $GPRMC,111221.00,A,5351.50670,N,02729.10054,E,0.035,,211015,,,A*78
1172: $GPRMC,111222.00,A,5351.50673,N,02729.10056,E,0.065,,211015,,,A*7F
1174: $GPRMC,111223.00,A,5351.50671,N,02729.10056,E,0.015,,211015,,,A*7B
1176: $GPRMC,111224.00,A,5351.50668,N,02729.10050,E,0.091,,211015,,,A*7E
1178: $GPRMC,111225.00,A,5351.50665,N,02729.10049,E,0.174,,211015,,,A*70
1180: $GPRMC,111226.00,A,5351.50669,N,02729.10059,E,0.038,,211015,,,A*77
1182: $GPRMC,111227.00,A,5351.50674,N,02729.10073,E,0.142,,211015,,,A*7E
1184: $GPRMC,111228.00,A,5351.50673,N,02729.10072,E,0.018,,211015,,,A*79
1186: $GPRMC,111229.00,A,5351.50680,N,02729.10081,E,0.118,,211015,,,A*79
1188: $GPRMC,111230.00,A,5351.50692,N,02729.10103,E,0.077,,211015,,,A*71
1190: $GPRMC,111231.00,A,5351.50695,N,02729.10110,E,0.142,,211015,,,A*72
1192: $GPRMC,111232.00,A,5351.50697,N,02729.10115,E,0.108,,211015,,,A*78
1194: $GPRMC,111233.00,A,5351.50699,N,02729.10120,E,0.110,,211015,,,A*78
1196: $GPRMC,111234.00,A,5351.50697,N,02729.10115,E,0.183,,211015,,,A*7D
1198: $GPRMC,111235.00,A,5351.50698,N,02729.10115,E,0.198,,211015,,,A*79
1200: $GPRMC,111236.00,A,5351.50703,N,02729.10114,E,0.190,,211015,,,A*70
1202: $GPRMC,111237.00,A,5351.50702,N,02729.10116,E,0.458,,211015,,,A*73
1204: $GPRMC,111238.00,A,5351.50705,N,02729.10125,E,0.598,,211015,,,A*76
1206: $GPRMC,111239.00,A,5351.50706,N,02729.10133,E,0.540,,211015,,,A*76
1208: $GPRMC,111240.00,A,5351.50720,N,02729.10156,E,0.240,,211015,,,A*78
1210: $GPRMC,111241.00,A,5351.50723,N,02729.10161,E,0.052,,211015,,,A*7F
1212: $GPRMC,111242.00,A,5351.50719,N,02729.10151,E,0.149,,211015,,,A*7D
1214: $GPRMC,111243.00,A,5351.50713,N,02729.10138,E,0.306,,211015,,,A*70
1216: $GPRMC,111244.00,A,5351.50712,N,02729.10132,E,0.314,,211015,,,A*7F
1218: $GPRMC,111245.00,A,5351.50722,N,02729.10140,E,0.125,,211015,,,A*78
1220: $GPRMC,111246.00,A,5351.50723,N,02729.10137,E,0.020,,211015,,,A*7E
1222: $GPRMC,111247.00,A,5351.50716,N,02729.10125,E,0.105,,211015,,,A*7C
1224: $GPRMC,111248.00,A,5351.50714,N,02729.10118,E,0.111,,211015,,,A*7A
1226: $GPRMC,111249.00,A,5351.50723,N,02729.10129,E,0.049,,211015,,,A*71
1228: $GPRMC,111250.00,A,5351.50732,N,02729.10139,E,0.114,,211015,,,A*71
1230: $GPRMC,111251.00,A,5351.50729,N,02729.10127,E,0.088,,211015,,,A*71
1232: $GPRMC,111252.00,A,5351.50720,N,02729.10109,E,0.067,,211015,,,A*76
1234: $GPRMC,111253.00,A,5351.50716,N,02729.10102,E,0.130,,211015,,,A*7A
1236: $GPRMC,111254.00,A,5351.50723,N,02729.10118,E,0.012,,211015,,,A*71
1238: $GPRMC,111255.00,A,5351.50729,N,02729.10138,E,0.101,,211015,,,A*7B
1240: $GPRMC,111256.00,A,5351.50724,N,02729.10136,E,0.024,,211015,,,A*7D
1242: $GPRMC,111257.00,A,5351.50725,N,02729.10133,E,0.058,,211015,,,A*73
1244: $GPRMC,111258.00,A,5351.50738,N,02729.10148,E,0.067,,211015,,,A*70
1246: $GPRMC,111259.00,A,5351.50742,N,02729.10153,E,0.208,,211015,,,A*7D
1248: $GPRMC,111300.00,A,5351.50734,N,02729.10146,E,0.155,,211015,,,A*7E
1250: $GPRMC,111301.00,A,5351.50733,N,02729.10140,E,0.074,,211015,,,A*7C
1252: $GPRMC,111302.00,A,5351.50737,N,02729.10140,E,0.181,,211015,,,A*70
1254: $GPRMC,111303.00,A,5351.50745,N,02729.10157,E,0.015,,211015,,,A*7E
1256: $GPRMC,111304.00,A,5351.50750,N,02729.10168,E,0.135,,211015,,,A*72
1258: $GPRMC,111305.00,A,5351.50748,N,02729.10164,E,0.039,,211015,,,A*7B
1260: $GPRMC,111306.00,A,5351.50751,N,02729.10175,E,0.021,,211015,,,A*79
1262: $GPRMC,111307.00,A,5351.50755,N,02729.10186,E,0.028,,211015,,,A*79
1264: $GPRMC,111308.00,A,5351.50758,N,02729.10194,E,0.038,,211015,,,A*79
1266: $GPRMC,111309.00,A,5351.50757,N,02729.10192,E,0.101,,211015,,,A*7A
1268: $GPRMC,111310.00,A,5351.50761,N,02729.10198,E,0.171,,211015,,,A*7A
1270: $GPRMC,111311.00,A,5351.50759,N,02729.10199,E,0.224,,211015,,,A*72
1272: $GPRMC,111312.00,A,5351.50759,N,02729.10206,E,0.054,,211015,,,A*71
1274: $GPRMC,111313.00,A,5351.50752,N,02729.10202,E,0.043,,211015,,,A*79
1276: $GPRMC,111314.00,A,5351.50743,N,02729.10188,E,0.161,,211015,,,A*7E
1278: $GPRMC,111315.00,A,5351.50737,N,02729.10177,E,0.336,,211015,,,A*7C
1280: $GPRMC,111316.00,A,5351.50740,N,02729.10188,E,0.207,,211015,,,A*7C
1282: $GPRMC,111317.00,A,5351.50739,N,02729.10193,E,0.098,,211015,,,A*7D
1284: $GPRMC,111318.00,A,5351.50725,N,02729.10167,E,0.146,,211015,,,A*76
1286: $GPRMC,111319.00,A,5351.50714,N,02729.10144,E,0.244,,211015,,,A*75
1288: $GPRMC,111320.00,A,5351.50706,N,02729.10132,E,0.331,,211015,,,A*7E
1290: $GPRMC,111321.00,A,5351.50698,N,02729.10115,E,0.216,,211015,,,A*78
1292: $GPRMC,111322.00,A,5351.50688,N,02729.10100,E,0.145,,211015,,,A*7B
1294: $GPRMC,111323.00,A,5351.50672,N,02729.10084,E,0.236,,211015,,,A*75
1296: $GPRMC,111324.00,A,5351.50659,N,02729.10073,E,0.286,,211015,,,A*78
1298: $GPRMC,111325.00,A,5351.50655,N,02729.10069,E,0.160,,211015,,,A*75
1300: $GPRMC,111326.00,A,5351.50650,N,02729.10069,E,0.076,,211015,,,A*75
1302: $GPRMC,111327.00,A,5351.50639,N,02729.10052,E,0.083,,211015,,,A*79
1304: $GPRMC,111328.00,A,5351.50633,N,02729.10047,E,0.197,,211015,,,A*7C
1306: $GPRMC,111329.00,A,5351.50638,N,02729.10065,E,0.111,,211015,,,A*78
1308: $GPRMC,111330.00,A,5351.50646,N,02729.10090,E,0.146,,211015,,,A*71
1310: $GPRMC,111331.00,A,5351.50633,N,02729.10088,E,0.093,,211015,,,A*72
1312: $GPRMC,111332.00,A,5351.50626,N,02729.10084,E,0.066,,211015,,,A*73
1314: $GPRMC,111333.00,A,5351.50620,N,02729.10074,E,0.192,,211015,,,A*71
1316: $GPRMC,111334.00,A,5351.50624,N,02729.10089,E,0.183,,211015,,,A*70
1318: $GPRMC,111335.00,A,5351.50636,N,02729.10116,E,0.015,,211015,,,A*7B
1320: $GPRMC,111336.00,A,5351.50630,N,02729.10118,E,0.143,,211015,,,A*72
1322: $GPRMC,111337.00,A,5351.50625,N,02729.10126,E,0.314,,211015,,,A*7A
1324: $GPRMC,111338.00,A,5351.50633,N,02729.10147,E,0.226,,211015,,,A*75
1326: $GPRMC,111339.00,A,5351.50637,N,02729.10156,E,0.121,,211015,,,A*74
1328: $GPRMC,111340.00,A,5351.50635,N,02729.10152,E,0.062,,211015,,,A*7A
1330: $GPRMC,111341.00,A,5351.50630,N,02729.10154,E,0.186,,211015,,,A*73
1332: $GPRMC,111342.00,A,5351.50626,N,02729.10157,E,0.340,,211015,,,A*7C
1334: $GPRMC,111343.00,A,5351.50631,N,02729.10177,E,0.264,,211015,,,A*7E
1336: $GPRMC,111344.00,A,5351.50637,N,02729.10193,E,0.023,,211015,,,A*74
1338: $GPRMC,111345.00,A,5351.50621,N,02729.10175,E,0.236,,211015,,,A*7C
1340: $GPRMC,111346.00,A,5351.50613,N,02729.10174,E,0.379,,211015,,,A*75
1342: $GPRMC,111347.00,A,5351.50608,N,02729.10174,E,0.302,,211015,,,A*72
1344: $GPRMC,111348.00,A,5351.50611,N,02729.10185,E,0.050,,211015,,,A*7F
1346: $GPRMC,111349.00,A,5351.50603,N,02729.10167,E,0.029,,211015,,,A*7F
1348: $GPRMC,111350.00,A,5351.50602,N,02729.10159,E,0.028,,211015,,,A*7A
1350: $GPRMC,111351.00,A,5351.50598,N,02729.10154,E,0.108,,211015,,,A*75
1352: $GPRMC,111352.00,A,5351.50594,N,02729.10148,E,0.074,,211015,,,A*7D
1354: $GPRMC,111353.00,A,5351.50591,N,02729.10148,E,0.051,,211015,,,A*7E
1356: $GPRMC,111354.00,A,5351.50586,N,02729.10134,E,0.071,,211015,,,A*76
1358: $GPRMC,111355.00,A,5351.50583,N,02729.10131,E,0.104,,211015,,,A*74
