0: $GPGSV,3,3,12,22,01,091,20,23,23,214,18,31,32,104,30,32,79,083,25*79
0: $GPGLL,5350.88998,N,02742.31918,E,141749.00,A,A*6D
0: $GPRMC,141750.00,A,5350.88353,N,02742.33235,E,36.459,129.78,241015,,,A*52
0: $GPVTG,129.78,T,,M,36.459,N,67.523,K,A*30
0: $GPGGA,141750.00,5350.88353,N,02742.33235,E,1,10,0.94,188.8,M,24.9,M,,*51
0: $GPGSA,A,3,32,01,03,04,11,19,17,14,23,31,,,1.77,0.94,1.49*0D
1: $GPGSV,3,1,12,01,72,201,24,03,59,272,40,04,47,159,38,11,47,194,28*71
1: $GPGSV,3,2,12,12,05,016,23,14,24,051,33,17,29,305,28,19,29,226,18*71
1: $GPGSV,3,3,12,22,01,091,21,23,23,214,17,31,32,104,31,32,79,083,25*76
1: $GPGLL,5350.88353,N,02742.33235,E,141750.00,A,A*6E
1: $GPRMC,141751.00,A,5350.87707,N,02742.34546,E,36.574,129.40,241015,,,A*58
1: $GPVTG,129.40,T,,M,36.574,N,67.735,K,A*30
1: $GPGGA,141751.00,5350.87707,N,02742.34546,E,1,10,1.02,188.3,M,24.9,M,,*5B
1: $GPGSA,A,3,32,01,03,04,11,19,17,14,23,31,,,2.00,1.02,1.72*08
1: $GPGSV,3,1,12,01,72,201,23,03,59,272,40,04,47,159,36,11,47,194,28*78
2: $GPGSV,3,2,12,12,05,016,21,14,24,051,33,17,29,305,30,19,29,226,18*7A
2: $GPGSV,3,3,12,22,01,091,20,23,23,214,17,31,32,104,34,32,79,083,25*72
2: $GPGLL,5350.87707,N,02742.34546,E,141751.00,A,A*61
2: $GPRMC,141752.00,A,5350.87077,N,02742.35903,E,36.846,129.30,241015,,,A*5C
2: $GPVTG,129.30,T,,M,36.846,N,68.238,K,A*3C
2: $GPGGA,141752.00,5350.87077,N,02742.35903,E,1,10,0.94,188.7,M,24.9,M,,*5E
2: $GPGSA,A,3,32,01,03,04,11,19,17,14,23,31,,,1.77,0.94,1.49*0D
2: $GPGSV,3,1,12,01,72,201,21,03,59,272,40,04,47,159,36,11,47,194,27*75
2: $GPGSV,3,2,12,12,05,016,17,14,24,051,38,17,29,305,29,19,29,226,17*73
3: $GPGSV,3,3,12,22,01,091,,23,23,214,18,31,32,104,35,32,79,083,25*7E
3: $GPGLL,5350.87077,N,02742.35903,E,141752.00,A,A*6E
3: $GPRMC,141753.00,A,5350.86425,N,02742.37224,E,36.820,129.81,241015,,,A*59
3: $GPVTG,129.81,T,,M,36.820,N,68.191,K,A*36
3: $GPGGA,141753.00,5350.86425,N,02742.37224,E,1,10,0.94,188.4,M,24.9,M,,*52
3: $GPGSA,A,3,32,01,03,04,11,19,17,14,23,31,,,1.77,0.94,1.49*0D
3: $GPGSV,3,1,12,01,72,201,20,03,59,272,40,04,47,159,36,11,47,194,28*7B
3: $GPGSV,3,2,12,12,05,016,15,14,24,051,27,17,29,305,33,19,29,226,17*74
4: $GPGSV,3,3,12,22,01,091,19,23,23,214,18,31,32,104,37,32,79,083,25*74
4: $GPGLL,5350.86425,N,02742.37224,E,141753.00,A,A*61
4: $GPRMC,141754.00,A,5350.85773,N,02742.38547,E,36.636,129.78,241015,,,A*5F
4: $GPVTG,129.78,T,,M,36.636,N,67.850,K,A*32
4: $GPGGA,141754.00,5350.85773,N,02742.38547,E,1,10,0.94,188.2,M,24.9,M,,*5D
4: $GPGSA,A,3,32,01,03,04,11,19,17,14,23,31,,,1.77,0.94,1.49*0D
4: $GPGSV,3,1,12,01,72,201,20,03,59,272,40,04,47,159,38,11,47,194,28*75
4: $GPGSV,3,2,12,12,05,016,13,14,24,051,28,17,29,305,29,19,29,226,18*79
5: $GPGSV,3,3,12,22,01,091,21,23,23,214,19,31,32,104,33,32,79,083,25*7A
5: $GPGLL,5350.85773,N,02742.38547,E,141754.00,A,A*68
5: $GPRMC,141755.00,A,5350.85138,N,02742.39882,E,36.534,129.47,241015,,,A*5F
5: $GPVTG,129.47,T,,M,36.534,N,67.662,K,A*30
5: $GPGGA,141755.00,5350.85138,N,02742.39882,E,1,10,0.94,188.5,M,24.9,M,,*57
5: $GPGSA,A,3,32,01,03,04,11,19,17,14,23,31,,,1.77,0.94,1.50*05
5: $GPGSV,3,1,12,01,72,201,18,03,59,272,39,04,47,159,35,11,47,194,29*7C
5: $GPGSV,3,2,12,12,05,016,25,14,24,051,38,17,29,305,29,19,29,226,19*7C
5: $GPGSV,3,3,12,22,01,091,21,23,23,214,20,31,32,103,32,32,79,083,24*77
6: $GPGLL,5350.85138,N,02742.39882,E,141755.00,A,A*65
6: $GPRMC,141756.00,A,5350.84514,N,02742.41227,E,36.350,129.31,241015,,,A*58
6: $GPVTG,129.31,T,,M,36.350,N,67.320,K,A*36
6: $GPGGA,141756.00,5350.84514,N,02742.41227,E,1,10,0.94,189.2,M,24.9,M,,*53
6: $GPGSA,A,3,32,01,03,04,11,19,17,14,23,31,,,1.77,0.94,1.50*05
6: $GPGSV,3,1,12,01,72,201,17,03,59,272,39,04,47,159,36,11,47,194,33*7B
6: $GPGSV,3,2,12,12,05,016,22,14,24,051,33,17,29,305,30,19,29,226,35*76
6: $GPGSV,3,3,12,22,01,091,19,23,23,214,30,31,32,103,26,32,78,084,24*7E
6: $GPGLL,5350.84514,N,02742.41227,E,141756.00,A,A*67
7: $GPRMC,141757.00,A,5350.83883,N,02742.42548,E,36.121,129.47,241015,,,A*55
7: $GPVTG,129.47,T,,M,36.121,N,66.896,K,A*34
7: $GPGGA,141757.00,5350.83883,N,02742.42548,E,1,10,0.94,189.4,M,24.9,M,,*5D
7: $GPGSA,A,3,32,01,03,04,11,19,17,14,23,31,,,1.77,0.94,1.50*05
7: $GPGSV,3,1,12,01,72,201,15,03,59,272,39,04,47,159,36,11,47,194,35*7F
7: $GPGSV,3,2,12,12,05,016,22,14,24,051,34,17,29,305,30,19,29,226,35*71
7: $GPGSV,3,3,12,22,01,091,16,23,23,214,31,31,32,103,31,32,78,084,25*77
7: $GPGLL,5350.83883,N,02742.42548,E,141757.00,A,A*6F
7: $GPRMC,141758.00,A,5350.83253,N,02742.43856,E,35.833,129.58,241015,,,A*59
8: $GPVTG,129.58,T,,M,35.833,N,66.363,K,A*32
8: $GPGGA,141758.00,5350.83253,N,02742.43856,E,1,10,0.94,189.6,M,24.9,M,,*54
8: $GPGSA,A,3,32,01,03,04,11,19,17,14,23,31,,,1.77,0.94,1.50*05
8: $GPGSV,3,1,12,01,72,201,16,03,59,272,39,04,47,159,38,11,47,194,35*72
8: $GPGSV,3,2,12,12,05,016,22,14,24,051,35,17,29,305,30,19,29,226,34*71
8: $GPGSV,3,3,12,22,01,091,20,23,23,214,32,31,32,103,30,32,78,084,26*73
8: $GPGLL,5350.83253,N,02742.43856,E,141758.00,A,A*64
8: $GPRMC,141759.00,A,5350.82624,N,02742.45136,E,35.600,129.63,241015,,,A*52
9: $GPVTG,129.63,T,,M,35.600,N,65.931,K,A*3A
9: $GPGGA,141759.00,5350.82624,N,02742.45136,E,1,10,0.94,189.1,M,24.9,M,,*5E
9: $GPGSA,A,3,32,01,03,04,11,19,17,14,23,31,,,1.77,0.94,1.50*05
9: $GPGSV,3,1,12,01,72,201,14,03,59,272,39,04,47,159,36,11,47,194,32*79
9: $GPGSV,3,2,12,12,05,016,23,14,24,051,33,17,29,305,29,19,29,226,35*7F
9: $GPGSV,3,3,12,22,01,091,18,23,23,214,27,31,32,103,31,32,78,084,26*7D
9: $GPGLL,5350.82624,N,02742.45136,E,141759.00,A,A*69
9: $GPRMC,141800.00,A,5350.82000,N,02742.46408,E,35.358,129.56,241015,,,A*54
9: $GPVTG,129.56,T,,M,35.358,N,65.483,K,A*30
10: $GPGGA,141800.00,5350.82000,N,02742.46408,E,1,10,0.94,188.8,M,24.9,M,,*5E
10: $GPGSA,A,3,32,01,03,04,11,19,17,14,23,31,,,1.77,0.94,1.50*05
10: $GPGSV,3,1,12,01,72,201,15,03,59,272,39,04,47,159,34,11,47,194,30*78
10: $GPGSV,3,2,12,12,05,016,22,14,24,051,30,17,29,305,30,19,29,226,34*74
10: $GPGSV,3,3,12,22,01,091,16,23,23,214,32,31,32,103,31,32,78,084,27*76
10: $GPGLL,5350.82000,N,02742.46408,E,141800.00,A,A*61
10: $GPRMC,141801.00,A,5350.81381,N,02742.47682,E,35.182,129.46,241015,,,A*59
10: $GPVTG,129.46,T,,M,35.182,N,65.157,K,A*38
10: $GPGGA,141801.00,5350.81381,N,02742.47682,E,1,10,0.94,188.4,M,24.9,M,,*5B
11: $GPGSA,A,3,32,01,03,04,11,19,17,14,23,31,,,1.77,0.94,1.50*05
11: $GPGSV,3,1,12,01,72,201,16,03,59,272,39,04,47,159,35,11,47,194,33*79
11: $GPGSV,3,2,12,12,05,016,21,14,24,051,33,17,29,305,28,19,29,226,34*7D
11: $GPGSV,3,3,12,22,01,091,15,23,23,214,28,31,32,103,31,32,78,084,28*71
11: $GPGLL,5350.81381,N,02742.47682,E,141801.00,A,A*68
11: $GPRMC,141802.00,A,5350.80766,N,02742.48957,E,35.137,129.82,241015,,,A*58
11: $GPVTG,129.82,T,,M,35.137,N,65.074,K,A*3E
11: $GPGGA,141802.00,5350.80766,N,02742.48957,E,1,10,0.94,188.4,M,24.9,M,,*5C
12: $GPGSA,A,3,32,01,03,04,11,19,17,14,23,31,,,1.77,0.94,1.50*05
12: $GPGSV,3,1,12,01,72,201,17,03,59,272,39,04,47,159,35,11,47,194,27*7D
12: $GPGSV,3,2,12,12,05,016,19,14,24,051,33,17,29,305,29,19,29,226,34*77
12: $GPGSV,3,3,12,22,01,091,14,23,23,214,29,31,32,103,30,32,78,084,27*7F
12: $GPGLL,5350.80766,N,02742.48957,E,141802.00,A,A*6F
12: $GPRMC,141803.00,A,5350.80148,N,02742.50225,E,35.157,130.00,241015,,,A*50
12: $GPVTG,130.00,T,,M,35.157,N,65.111,K,A*38
12: $GPGGA,141803.00,5350.80148,N,02742.50225,E,1,10,0.94,188.5,M,24.9,M,,*51
13: $GPGSA,A,3,32,01,03,04,11,19,17,14,23,31,,,1.77,0.94,1.50*05
13: $GPGSV,3,1,12,01,72,201,17,03,59,272,39,04,47,159,35,11,47,194,29*73
13: $GPGSV,3,2,12,12,05,016,20,14,24,051,33,17,29,305,30,19,29,226,35*74
13: $GPGSV,3,3,12,22,01,091,12,23,23,214,30,31,32,103,31,32,78,084,27*70
13: $GPGLL,5350.80148,N,02742.50225,E,141803.00,A,A*63
13: $GPRMC,141804.00,A,5350.79531,N,02742.51495,E,35.086,129.63,241015,,,A*57
13: $GPVTG,129.63,T,,M,35.086,N,64.979,K,A*3F
13: $GPGGA,141804.00,5350.79531,N,02742.51495,E,1,10,0.94,188.5,M,24.9,M,,*56
14: $GPGSA,A,3,32,01,03,04,11,19,17,14,23,31,,,1.77,0.94,1.50*05
14: $GPGSV,3,1,12,01,72,201,17,03,59,272,39,04,47,159,35,11,47,194,30*7B
14: $GPGSV,3,2,12,12,05,016,20,14,24,051,33,17,29,305,29,19,29,226,35*7C
14: $GPGSV,3,3,12,22,01,091,10,23,23,214,29,31,32,103,32,32,78,084,27*79
14: $GPGLL,5350.79531,N,02742.51495,E,141804.00,A,A*64
14: $GPRMC,141805.00,A,5350.78912,N,02742.52773,E,35.357,129.62,241015,,,A*5C
14: $GPVTG,129.62,T,,M,35.357,N,65.480,K,A*3B
14: $GPGGA,141805.00,5350.78912,N,02742.52773,E,1,10,0.94,188.4,M,24.9,M,,*52
15: $GPGSA,A,3,32,01,03,04,11,19,17,14,23,31,,,1.77,0.94,1.50*05
15: $GPGSV,3,1,12,01,72,201,19,03,59,272,39,04,47,159,35,11,47,194,30*75
15: $GPGSV,3,2,12,12,05,016,19,14,24,051,34,17,29,305,28,19,29,226,34*71
15: $GPGSV,3,3,12,22,01,091,11,23,23,214,29,31,32,103,32,32,78,084,27*78
15: $GPGLL,5350.78912,N,02742.52773,E,141805.00,A,A*61
15: $GPRMC,141806.00,A,5350.78287,N,02742.54059,E,35.747,129.45,241015,,,A*51
15: $GPVTG,129.45,T,,M,35.747,N,66.204,K,A*32
15: $GPGGA,141806.00,5350.78287,N,02742.54059,E,1,10,0.94,188.3,M,24.9,M,,*58
16: $GPGSA,A,3,32,01,03,04,11,19,17,14,23,31,,,1.77,0.94,1.50*05
16: $GPGSV,3,1,12,01,72,201,19,03,59,272,39,04,47,159,35,11,47,194,31*74
16: $GPGSV,3,2,12,12,05,016,18,14,24,051,34,17,29,305,30,19,29,226,35*78
16: $GPGSV,3,3,12,22,01,091,11,23,23,214,28,31,32,103,33,32,78,084,27*78
16: $GPGLL,5350.78287,N,02742.54059,E,141806.00,A,A*6C
16: $GPRMC,141807.00,A,5350.77659,N,02742.55365,E,36.106,129.29,241015,,,A*5F
16: $GPVTG,129.29,T,,M,36.106,N,66.868,K,A*38
16: $GPGGA,141807.00,5350.77659,N,02742.55365,E,1,10,0.94,188.0,M,24.9,M,,*5F
16: $GPGSA,A,3,32,01,03,04,11,19,17,14,23,31,,,1.77,0.94,1.50*05
17: $GPGSV,3,1,12,01,72,201,19,03,59,272,40,04,47,159,35,11,47,194,25*7F
17: $GPGSV,3,2,12,12,05,016,18,14,24,051,34,17,29,305,31,19,29,226,32*7E
17: $GPGSV,3,3,12,22,01,091,09,23,23,214,28,31,32,103,27,32,78,084,27*74
17: $GPGLL,5350.77659,N,02742.55365,E,141807.00,A,A*68
17: $GPRMC,141808.00,A,5350.77074,N,02742.56646,E,34.184,126.90,241015,,,A*5B
17: $GPVTG,126.90,T,,M,34.184,N,63.309,K,A*34
17: $GPGGA,141808.00,5350.77074,N,02742.56646,E,1,10,0.94,187.5,M,24.9,M,,*54
17: $GPGSA,A,3,32,01,03,04,11,19,17,14,23,31,,,1.77,0.94,1.50*05
17: $GPGSV,3,1,12,01,72,201,18,03,59,272,25,04,47,159,24,11,47,194,24*7C
18: $GPGSV,3,2,12,12,05,016,20,14,24,051,23,17,29,305,32,19,29,226,15*75
18: $GPGSV,3,3,12,22,01,091,09,23,23,214,17,31,32,103,23,32,78,084,25*7E
18: $GPGLL,5350.77074,N,02742.56646,E,141808.00,A,A*69
18: $GPRMC,141809.00,A,5350.76443,N,02742.58071,E,38.274,126.66,241015,,,A*5E
18: $GPVTG,126.66,T,,M,38.274,N,70.884,K,A*31
18: $GPGGA,141809.00,5350.76443,N,02742.58071,E,1,10,0.94,186.5,M,24.9,M,,*59
18: $GPGSA,A,3,32,01,03,04,11,19,17,14,23,31,,,1.93,0.94,1.69*05
18: $GPGSV,3,1,12,01,72,201,17,03,59,272,31,04,47,159,34,11,47,194,34*76
18: $GPGSV,3,2,12,12,05,016,21,14,24,051,33,17,29,305,26,19,29,226,29*7F
19: $GPGSV,3,3,12,22,01,091,08,23,23,214,31,31,32,103,33,32,78,084,22*7D
19: $GPGLL,5350.76443,N,02742.58071,E,141809.00,A,A*65
19: $GPRMC,141810.00,A,5350.75794,N,02742.59440,E,37.149,128.60,241015,,,A*51
19: $GPVTG,128.60,T,,M,37.149,N,68.799,K,A*31
19: $GPGGA,141810.00,5350.75794,N,02742.59440,E,1,09,0.94,186.4,M,24.9,M,,*55
19: $GPGSA,A,3,32,03,04,11,19,17,14,23,31,,,,1.93,0.94,1.69*04
19: $GPGSV,3,1,12,01,72,201,09,03,59,272,38,04,47,159,35,11,47,194,34*71
19: $GPGSV,3,2,12,12,05,016,19,14,24,051,34,17,29,305,32,19,29,226,32*7C
19: $GPGSV,3,3,12,22,01,091,09,23,23,214,27,31,32,103,33,32,78,084,26*7F
20: $GPGLL,5350.75794,N,02742.59440,E,141810.00,A,A*60
20: $GPRMC,141811.00,A,5350.75142,N,02742.60782,E,37.221,129.36,241015,,,A*55
20: $GPVTG,129.36,T,,M,37.221,N,68.934,K,A*37
20: $GPGGA,141811.00,5350.75142,N,02742.60782,E,1,09,0.94,186.3,M,24.9,M,,*59
20: $GPGSA,A,3,32,03,04,11,19,17,14,23,31,,,,1.93,0.94,1.69*04
20: $GPGSV,3,1,12,01,72,201,07,03,59,272,38,04,47,159,34,11,47,194,33*79
20: $GPGSV,3,2,12,12,05,016,17,14,24,051,34,17,29,305,32,19,29,226,33*73
20: $GPGSV,3,3,12,22,01,091,10,23,23,214,27,31,32,103,32,32,78,084,27*77
20: $GPGLL,5350.75142,N,02742.60782,E,141811.00,A,A*6B
21: $GPRMC,141812.00,A,5350.74487,N,02742.62132,E,37.553,129.55,241015,,,A*53
21: $GPVTG,129.55,T,,M,37.553,N,69.549,K,A*37
21: $GPGGA,141812.00,5350.74487,N,02742.62132,E,1,10,0.94,186.3,M,24.9,M,,*50
21: $GPGSA,A,3,32,01,03,04,11,19,17,14,23,31,,,1.93,0.94,1.69*05
21: $GPGSV,3,1,12,01,72,201,10,03,59,272,39,04,47,159,34,11,47,194,32*7F
21: $GPGSV,3,2,12,12,05,016,15,14,24,051,34,17,29,305,32,19,29,226,33*71
21: $GPGSV,3,3,12,22,01,091,08,23,23,214,26,31,32,103,31,32,78,084,27*7C
21: $GPGLL,5350.74487,N,02742.62132,E,141812.00,A,A*6A
21: $GPRMC,141813.00,A,5350.73830,N,02742.63496,E,37.823,129.49,241015,,,A*58
22: $GPVTG,129.49,T,,M,37.823,N,70.048,K,A*3C
22: $GPGGA,141813.00,5350.73830,N,02742.63496,E,1,10,0.94,186.3,M,24.9,M,,*5C
22: $GPGSA,A,3,32,01,03,04,11,19,17,14,23,31,,,1.93,0.94,1.69*05
22: $GPGSV,3,1,12,01,72,201,15,03,59,272,39,04,47,159,34,11,47,194,31*79
22: $GPGSV,3,2,12,12,05,016,14,14,24,051,35,17,29,305,33,19,29,226,33*70
22: $GPGSV,3,3,12,22,01,091,08,23,23,214,26,31,32,103,30,32,78,084,26*7C
22: $GPGLL,5350.73830,N,02742.63496,E,141813.00,A,A*66
22: $GPRMC,141814.00,A,5350.73179,N,02742.64876,E,37.884,129.25,241015,,,A*59
23: $GPVTG,129.25,T,,M,37.884,N,70.162,K,A*32
23: $GPGGA,141814.00,5350.73179,N,02742.64876,E,1,10,0.94,186.4,M,24.9,M,,*5D
23: $GPGSA,A,3,32,01,03,04,11,19,17,14,23,31,,,1.93,0.94,1.69*05
23: $GPGSV,3,1,12,01,72,201,19,03,59,272,38,04,47,159,34,11,47,194,31*74
23: $GPGSV,3,2,12,12,05,016,13,14,24,051,35,17,29,305,32,19,29,226,32*77
23: $GPGSV,3,3,12,22,01,091,08,23,23,214,26,31,32,103,34,32,78,084,27*79
23: $GPGLL,5350.73179,N,02742.64876,E,141814.00,A,A*60
23: $GPRMC,141815.00,A,5350.72515,N,02742.66272,E,38.378,129.12,241015,,,A*58
24: $GPVTG,129.12,T,,M,38.378,N,71.077,K,A*35
24: $GPGGA,141815.00,5350.72515,N,02742.66272,E,1,10,0.94,186.2,M,24.9,M,,*59
24: $GPGSA,A,3,32,01,03,04,11,19,17,14,23,31,,,1.93,0.94,1.69*05
24: $GPGSV,3,1,12,01,72,201,21,03,59,272,38,04,47,159,35,11,47,194,31*7E
24: $GPGSV,3,2,12,12,05,016,12,14,24,051,36,17,29,305,33,19,29,226,32*74
24: $GPGSV,3,3,12,22,01,091,,23,23,214,27,31,32,103,33,32,78,084,27*77
24: $GPGLL,5350.72515,N,02742.66272,E,141815.00,A,A*62
24: $GPRMC,141816.00,A,5350.71830,N,02742.67685,E,39.078,129.21,241015,,,A*5D
24: $GPVTG,129.21,T,,M,39.078,N,72.372,K,A*32
25: $GPGGA,141816.00,5350.71830,N,02742.67685,E,1,10,0.94,186.4,M,24.9,M,,*58
25: $GPGSA,A,3,32,01,03,04,11,19,17,14,23,31,,,1.93,0.94,1.69*05
25: $GPGSV,3,1,12,01,72,201,22,03,59,272,38,04,47,159,34,11,47,194,31*7C
25: $GPGSV,3,2,12,12,05,016,12,14,24,051,33,17,29,305,34,19,29,226,32*76
25: $GPGSV,3,3,12,22,01,091,,23,23,214,26,31,32,103,32,32,78,084,28*78
25: $GPGLL,5350.71830,N,02742.67685,E,141816.00,A,A*65
25: $GPRMC,141817.00,A,5350.71162,N,02742.69118,E,39.659,128.82,241015,,,A*52
25: $GPVTG,128.82,T,,M,39.659,N,73.448,K,A*30
26: $GPGGA,141817.00,5350.71162,N,02742.69118,E,1,10,0.94,186.3,M,24.9,M,,*5D
26: $GPGSA,A,3,32,01,03,04,11,19,17,14,23,31,,,1.93,0.94,1.69*05
26: $GPGSV,3,1,12,01,72,201,22,03,59,272,38,04,47,159,34,11,47,194,32*7F
26: $GPGSV,3,2,12,12,05,016,13,14,24,051,36,17,29,305,33,19,29,226,33*74
26: $GPGSV,3,3,12,22,01,091,,23,23,214,25,31,32,103,31,32,78,084,28*78
26: $GPGLL,5350.71162,N,02742.69118,E,141817.00,A,A*67
26: $GPRMC,141818.00,A,5350.70474,N,02742.70553,E,40.122,128.97,241015,,,A*5C
26: $GPVTG,128.97,T,,M,40.122,N,74.307,K,A*3A
27: $GPGGA,141818.00,5350.70474,N,02742.70553,E,1,10,0.94,186.3,M,24.9,M,,*52
27: $GPGSA,A,3,32,01,03,04,11,19,17,14,23,31,,,1.93,0.94,1.69*05
27: $GPGSV,3,1,12,01,72,201,22,03,59,272,39,04,47,159,34,11,47,194,31*7D
27: $GPGSV,3,2,12,12,05,016,13,14,24,051,38,17,29,305,35,19,29,226,34*7B
27: $GPGSV,3,3,12,22,01,091,,23,23,214,25,31,32,103,34,32,78,084,28*7D
27: $GPGLL,5350.70474,N,02742.70553,E,141818.00,A,A*68
27: $GPRMC,141819.00,A,5350.69765,N,02742.72017,E,40.491,128.88,241015,,,A*52
27: $GPVTG,128.88,T,,M,40.491,N,74.989,K,A*35
27: $GPGGA,141819.00,5350.69765,N,02742.72017,E,1,10,0.94,186.3,M,24.9,M,,*5F
28: $GPGSA,A,3,32,01,03,04,11,19,17,14,23,31,,,1.93,0.94,1.69*05
28: $GPGSV,3,1,12,01,72,201,21,03,59,272,39,04,47,159,36,11,47,194,35*78
28: $GPGSV,3,2,12,12,05,016,,14,24,051,40,17,29,305,34,19,29,226,23*71
28: $GPGSV,3,3,12,22,01,091,,23,23,214,27,31,32,103,31,32,78,084,29*7B
28: $GPGLL,5350.69765,N,02742.72017,E,141819.00,A,A*65
28: $GPRMC,141820.00,A,5350.69060,N,02742.73510,E,40.919,128.47,241015,,,A*57
28: $GPVTG,128.47,T,,M,40.919,N,75.782,K,A*3F
28: $GPGGA,141820.00,5350.69060,N,02742.73510,E,1,10,0.94,186.5,M,24.9,M,,*52
28: $GPGSA,A,3,32,01,03,04,11,19,17,14,23,31,,,1.93,0.94,1.69*05
29: $GPGSV,3,1,12,01,72,201,20,03,59,272,37,04,47,159,35,11,47,194,31*70
29: $GPGSV,3,2,12,12,05,016,,14,24,051,29,17,29,305,33,19,29,226,22*78
29: $GPGSV,3,3,12,22,01,091,,23,23,214,25,31,32,103,33,32,78,084,29*7B
29: $GPGLL,5350.69060,N,02742.73510,E,141820.00,A,A*6E
29: $GPRMC,141821.00,A,5350.68338,N,02742.74999,E,41.248,128.97,241015,,,A*50
29: $GPVTG,128.97,T,,M,41.248,N,76.391,K,A*39
29: $GPGGA,141821.00,5350.68338,N,02742.74999,E,1,10,0.94,186.4,M,24.9,M,,*57
29: $GPGSA,A,3,32,01,03,04,11,19,17,14,23,31,,,1.93,0.94,1.69*05
30: $GPGSV,3,1,12,01,72,201,20,03,59,272,37,04,47,159,34,11,47,194,31*71
30: $GPGSV,3,2,12,12,05,016,25,14,24,051,40,17,29,305,33,19,29,226,21*73
30: $GPGSV,3,3,12,22,01,091,,23,23,214,23,31,32,103,38,32,78,084,29*76
30: $GPGLL,5350.68338,N,02742.74999,E,141821.00,A,A*6A
30: $GPRMC,141822.00,A,5350.67624,N,02742.76505,E,41.357,128.42,241015,,,A*58
30: $GPVTG,128.42,T,,M,41.357,N,76.594,K,A*3D
30: $GPGGA,141822.00,5350.67624,N,02742.76505,E,1,10,0.94,186.6,M,24.9,M,,*5A
30: $GPGSA,A,3,32,01,03,04,11,19,17,14,23,31,,,1.93,0.94,1.69*05
30: $GPGSV,3,1,12,01,72,201,19,03,59,272,38,04,47,159,34,11,47,194,32*77
31: $GPGSV,3,2,12,12,05,016,26,14,24,051,23,17,29,305,33,19,29,226,20*74
31: $GPGSV,3,3,12,22,01,091,,23,23,214,22,31,32,103,32,32,78,084,29*7D
31: $GPGLL,5350.67624,N,02742.76505,E,141822.00,A,A*65
31: $GPRMC,141823.00,A,5350.66904,N,02742.78017,E,41.601,128.90,241015,,,A*54
31: $GPVTG,128.90,T,,M,41.601,N,77.045,K,A*3C
31: $GPGGA,141823.00,5350.66904,N,02742.78017,E,1,10,0.94,186.9,M,24.9,M,,*50
31: $GPGSA,A,3,32,01,03,04,11,19,17,14,23,31,,,1.93,0.94,1.69*05
31: $GPGSV,3,1,12,01,72,201,22,03,59,272,38,04,47,159,33,11,47,194,32*78
32: $GPGSV,3,2,12,12,05,016,23,14,24,051,34,17,29,305,33,19,29,226,33*75
32: $GPGSV,3,3,12,22,01,091,,23,23,214,22,31,32,103,26,32,78,084,29*78
32: $GPGLL,5350.66904,N,02742.78017,E,141823.00,A,A*60
32: $GPRMC,141824.00,A,5350.66172,N,02742.79538,E,41.944,129.09,241015,,,A*5C
32: $GPVTG,129.09,T,,M,41.944,N,77.681,K,A*3D
32: $GPGGA,141824.00,5350.66172,N,02742.79538,E,1,10,0.94,187.2,M,24.9,M,,*5D
32: $GPGSA,A,3,32,01,03,04,11,19,17,14,23,31,,,1.93,0.94,1.69*05
32: $GPGSV,3,1,12,01,72,201,21,03,59,272,38,04,47,159,33,11,47,194,33*7A
32: $GPGSV,3,2,12,12,05,016,21,14,24,051,31,17,29,305,30,19,29,226,28*7B
33: $GPGSV,3,3,12,22,01,091,,23,23,214,22,31,32,103,32,32,78,084,29*7D
33: $GPGLL,5350.66172,N,02742.79538,E,141824.00,A,A*67
33: $GPRMC,141825.00,A,5350.65439,N,02742.81079,E,42.137,128.95,241015,,,A*58
33: $GPVTG,128.95,T,,M,42.137,N,78.039,K,A*3C
33: $GPGGA,141825.00,5350.65439,N,02742.81079,E,1,10,0.94,187.6,M,24.9,M,,*56
33: $GPGSA,A,3,32,01,03,04,11,19,17,14,23,31,,,1.93,0.94,1.69*05
33: $GPGSV,3,1,12,01,72,201,21,03,59,272,38,04,47,159,31,11,47,194,31*7A
33: $GPGSV,3,2,12,12,05,016,19,14,24,051,32,17,29,305,30,19,29,226,32*78
34: $GPGSV,3,3,12,22,01,091,,23,23,214,22,31,32,103,31,32,78,084,28*7F
34: $GPGLL,5350.65439,N,02742.81079,E,141825.00,A,A*68
34: $GPRMC,141826.00,A,5350.64697,N,02742.82612,E,42.629,129.28,241015,,,A*5B
34: $GPVTG,129.28,T,,M,42.629,N,78.948,K,A*3C
34: $GPGGA,141826.00,5350.64697,N,02742.82612,E,1,10,0.94,187.4,M,24.9,M,,*58
34: $GPGSA,A,3,32,01,03,04,11,19,17,14,23,31,,,1.93,0.94,1.69*05
34: $GPGSV,3,1,12,01,72,201,21,03,59,272,38,04,47,159,31,11,47,194,34*7F
34: $GPGSV,3,2,12,12,05,016,19,14,24,051,33,17,29,305,34,19,29,226,32*7D
34: $GPGSV,3,3,12,22,01,091,,23,23,214,22,31,32,103,31,32,78,084,29*7E
35: $GPGLL,5350.64697,N,02742.82612,E,141826.00,A,A*64
35: $GPRMC,141827.00,A,5350.63946,N,02742.84152,E,42.760,129.26,241015,,,A*59
35: $GPVTG,129.26,T,,M,42.760,N,79.191,K,A*33
35: $GPGGA,141827.00,5350.63946,N,02742.84152,E,1,10,0.94,187.3,M,24.9,M,,*5F
35: $GPGSA,A,3,32,01,03,04,11,19,17,14,23,31,,,1.77,0.94,1.50*05
35: $GPGSV,3,1,12,01,72,201,21,03,59,272,38,04,47,159,32,11,47,194,30*78
35: $GPGSV,3,2,12,12,05,016,20,14,24,051,34,17,29,305,34,19,29,226,32*70
35: $GPGSV,3,3,12,22,01,091,,23,23,214,23,31,32,103,32,32,78,084,29*7C
36: $GPGLL,5350.63946,N,02742.84152,E,141827.00,A,A*64
36: $GPRMC,141828.00,A,5350.63199,N,02742.85703,E,42.829,129.44,241015,,,A*59
36: $GPVTG,129.44,T,,M,42.829,N,79.320,K,A*3D
36: $GPGGA,141828.00,5350.63199,N,02742.85703,E,1,10,0.94,187.4,M,24.9,M,,*5E
36: $GPGSA,A,3,32,01,03,04,11,19,17,14,23,31,,,1.77,0.94,1.50*05
36: $GPGSV,3,1,12,01,72,201,21,03,59,272,38,04,47,159,32,11,47,194,29*70
36: $GPGSV,3,2,12,12,05,016,22,14,24,051,33,17,29,305,30,19,29,226,32*71
36: $GPGSV,3,3,12,22,01,091,,23,23,214,25,31,32,103,32,32,78,084,29*7A
36: $GPGLL,5350.63199,N,02742.85703,E,141828.00,A,A*62
37: $GPRMC,141829.00,A,5350.62440,N,02742.87253,E,43.007,129.62,241015,,,A*5B
37: $GPVTG,129.62,T,,M,43.007,N,79.649,K,A*36
37: $GPGGA,141829.00,5350.62440,N,02742.87253,E,1,10,0.94,187.6,M,24.9,M,,*5F
37: $GPGSA,A,3,32,01,03,04,11,19,17,14,23,31,,,1.77,0.94,1.50*05
37: $GPGSV,3,1,12,01,72,201,19,03,59,272,38,04,47,159,32,11,47,194,30*73
37: $GPGSV,3,2,12,12,05,016,22,14,24,051,33,17,29,305,31,19,29,226,32*70
37: $GPGSV,3,3,12,22,01,091,,23,23,214,25,31,32,103,31,32,78,084,28*78
37: $GPGLL,5350.62440,N,02742.87253,E,141829.00,A,A*61
38: $GPRMC,141830.00,A,5350.61683,N,02742.88814,E,43.199,129.49,241015,,,A*54
38: $GPVTG,129.49,T,,M,43.199,N,80.005,K,A*31
38: $GPGGA,141830.00,5350.61683,N,02742.88814,E,1,10,0.94,187.7,M,24.9,M,,*5E
38: $GPGSA,A,3,32,01,03,04,11,19,17,14,23,31,,,1.77,0.94,1.50*05
38: $GPGSV,3,1,12,01,72,201,21,03,59,272,38,04,47,159,33,11,47,194,30*79
38: $GPGSV,3,2,12,12,05,016,21,14,24,051,33,17,29,305,35,19,29,226,32*77
38: $GPGSV,3,3,12,22,01,091,,23,23,214,24,31,32,103,31,32,78,084,28*79
38: $GPGLL,5350.61683,N,02742.88814,E,141830.00,A,A*61
39: $GPRMC,141831.00,A,5350.60921,N,02742.90396,E,43.356,129.39,241015,,,A*5D
39: $GPVTG,129.39,T,,M,43.356,N,80.295,K,A*3C
39: $GPGGA,141831.00,5350.60921,N,02742.90396,E,1,10,0.94,188.3,M,24.9,M,,*5A
39: $GPGSA,A,3,32,01,03,04,11,19,17,14,23,31,,,1.77,0.94,1.50*05
39: $GPGSV,3,1,12,01,72,201,20,03,59,272,38,04,47,159,32,11,47,194,30*79
39: $GPGSV,3,2,12,12,05,016,22,14,24,051,34,17,29,305,35,19,29,226,32*73
39: $GPGSV,3,3,12,22,01,091,,23,23,214,23,31,32,103,31,32,78,084,28*7E
39: $GPGLL,5350.60921,N,02742.90396,E,141831.00,A,A*6E
40: $GPRMC,141832.00,A,5350.60163,N,02742.91967,E,43.147,129.39,241015,,,A*57
40: $GPVTG,129.39,T,,M,43.147,N,79.908,K,A*37
40: $GPGGA,141832.00,5350.60163,N,02742.91967,E,1,10,0.94,188.7,M,24.9,M,,*56
40: $GPGSA,A,3,32,01,03,04,11,19,17,14,23,31,,,1.77,0.94,1.50*05
40: $GPGSV,3,1,12,01,72,201,19,03,59,272,37,04,47,159,31,11,47,194,30*7F
40: $GPGSV,3,2,12,12,05,016,21,14,24,051,34,17,29,305,35,19,29,226,32*70
40: $GPGSV,3,3,12,22,01,091,,23,23,214,25,31,32,103,33,32,78,084,28*7A
40: $GPGLL,5350.60163,N,02742.91967,E,141832.00,A,A*66
40: $GPRMC,141833.00,A,5350.59400,N,02742.93526,E,43.166,129.69,241015,,,A*51
41: $GPVTG,129.69,T,,M,43.166,N,79.943,K,A*3E
41: $GPGGA,141833.00,5350.59400,N,02742.93526,E,1,10,0.94,189.0,M,24.9,M,,*50
41: $GPGSA,A,3,32,01,03,04,11,19,17,14,23,31,,,1.93,0.94,1.69*05
41: $GPGSV,3,1,12,01,72,201,18,03,59,272,37,04,47,159,31,11,47,194,31*7F
41: $GPGSV,3,2,12,12,05,016,19,14,24,051,34,17,29,305,35,19,29,226,32*7B
41: $GPGSV,3,3,12,22,01,091,,23,23,214,24,31,32,103,31,32,78,084,28*79
41: $GPGLL,5350.59400,N,02742.93526,E,141833.00,A,A*66
41: $GPRMC,141834.00,A,5350.58645,N,02742.95086,E,42.938,129.66,241015,,,A*50
42: $GPVTG,129.66,T,,M,42.938,N,79.522,K,A*38
42: $GPGGA,141834.00,5350.58645,N,02742.95086,E,1,10,0.94,189.7,M,24.9,M,,*5B
42: $GPGSA,A,3,32,01,03,04,11,19,17,14,23,31,,,1.93,0.94,1.69*05
42: $GPGSV,3,1,12,01,72,201,16,03,59,272,37,04,47,159,32,11,47,194,32*71
42: $GPGSV,3,2,12,12,05,016,19,14,24,051,34,17,29,305,35,19,29,226,33*7A
42: $GPGSV,3,3,12,22,01,091,,23,23,214,25,31,32,103,32,32,78,084,29*7A
42: $GPGLL,5350.58645,N,02742.95086,E,141834.00,A,A*6A
42: $GPRMC,141835.00,A,5350.57895,N,02742.96640,E,42.412,129.49,241015,,,A*5A
42: $GPVTG,129.49,T,,M,42.412,N,78.547,K,A*32
43: $GPGGA,141835.00,5350.57895,N,02742.96640,E,1,10,0.94,190.5,M,24.9,M,,*53
43: $GPGSA,A,3,32,01,03,04,11,19,17,14,23,31,,,1.93,0.94,1.69*05
43: $GPGSV,3,1,12,01,72,201,15,03,59,272,37,04,47,159,33,11,47,194,32*73
43: $GPGSV,3,2,12,12,05,016,19,14,24,051,32,17,29,305,35,19,29,226,33*7C
43: $GPGSV,3,3,12,22,01,091,,23,23,214,24,31,32,103,35,32,78,084,29*7C
43: $GPGLL,5350.57895,N,02742.96640,E,141835.00,A,A*68
43: $GPRMC,141836.00,A,5350.57158,N,02742.98169,E,41.859,129.38,241015,,,A*55
43: $GPVTG,129.38,T,,M,41.859,N,77.522,K,A*38
44: $GPGGA,141836.00,5350.57158,N,02742.98169,E,1,10,0.94,191.1,M,24.9,M,,*5F
44: $GPGSA,A,3,32,01,03,04,11,19,17,14,23,31,,,1.77,0.94,1.50*05
44: $GPGSV,3,1,12,01,71,200,16,03,59,272,36,04,47,159,31,11,47,194,27*75
44: $GPGSV,3,2,12,12,05,016,19,14,24,051,33,17,29,305,35,19,29,226,32*7C
44: $GPGSV,3,3,12,22,01,091,,23,23,214,24,31,32,103,34,32,78,084,29*7D
44: $GPGLL,5350.57158,N,02742.98169,E,141836.00,A,A*61
44: $GPRMC,141837.00,A,5350.56427,N,02742.99682,E,41.631,129.39,241015,,,A*5A
44: $GPVTG,129.39,T,,M,41.631,N,77.100,K,A*3D
44: $GPGGA,141837.00,5350.56427,N,02742.99682,E,1,10,0.98,191.6,M,24.9,M,,*5A
45: $GPGSA,A,3,32,01,03,04,11,19,17,14,23,31,,,1.79,0.98,1.50*07
45: $GPGSV,3,1,12,01,71,200,17,03,59,272,36,04,47,159,34,11,47,194,33*74
45: $GPGSV,3,2,12,12,05,016,19,14,24,051,32,17,29,305,35,19,29,226,29*77
45: $GPGSV,3,3,12,22,01,091,,23,23,214,26,31,32,103,31,32,78,084,29*7A
45: $GPGLL,5350.56427,N,02742.99682,E,141837.00,A,A*6F
45: $GPRMC,141838.00,A,5350.55697,N,02743.01184,E,41.352,129.48,241015,,,A*58
45: $GPVTG,129.48,T,,M,41.352,N,76.585,K,A*33
45: $GPGGA,141838.00,5350.55697,N,02743.01184,E,1,10,0.98,192.1,M,24.9,M,,*5A
45: $GPGSA,A,3,32,01,03,04,11,19,17,14,23,31,,,1.79,0.98,1.50*07
46: $GPGSV,3,1,12,01,71,200,17,03,60,273,36,04,47,159,34,11,47,194,36*7A
46: $GPGSV,3,2,12,12,05,016,20,14,24,051,31,17,29,305,31,19,29,226,28*7B
46: $GPGSV,3,3,12,22,01,091,,23,23,214,26,31,32,103,32,32,78,084,30*71
46: $GPGLL,5350.55697,N,02743.01184,E,141838.00,A,A*6B
46: $GPRMC,141839.00,A,5350.54967,N,02743.02677,E,41.227,129.54,241015,,,A*5E
46: $GPVTG,129.54,T,,M,41.227,N,76.352,K,A*31
46: $GPGGA,141839.00,5350.54967,N,02743.02677,E,1,10,0.94,192.8,M,24.9,M,,*57
46: $GPGSA,A,3,32,01,03,04,11,19,17,14,23,31,,,1.77,0.94,1.50*05
47: $GPGSV,3,1,12,01,71,200,16,03,60,273,37,04,47,159,33,11,47,194,33*78
47: $GPGSV,3,2,12,12,05,016,20,14,24,051,31,17,29,305,34,19,29,226,33*74
47: $GPGSV,3,3,12,22,01,091,,23,23,214,27,31,32,103,32,32,78,084,30*70
47: $GPGLL,5350.54967,N,02743.02677,E,141839.00,A,A*63
47: $GPRMC,141840.00,A,5350.54242,N,02743.04159,E,40.871,129.36,241015,,,A*5D
47: $GPVTG,129.36,T,,M,40.871,N,75.693,K,A*36
47: $GPGGA,141840.00,5350.54242,N,02743.04159,E,1,10,0.94,193.2,M,24.9,M,,*53
47: $GPGSA,A,3,32,01,03,04,11,19,17,14,23,31,,,1.77,0.94,1.50*05
48: $GPGSV,3,1,12,01,71,200,18,03,60,273,37,04,47,159,32,11,47,194,33*77
48: $GPGSV,3,2,12,12,05,016,20,14,24,051,32,17,29,305,35,19,29,226,29*7D
48: $GPGSV,3,3,12,22,01,091,,23,23,214,26,31,32,103,33,32,78,084,30*70
48: $GPGLL,5350.54242,N,02743.04159,E,141840.00,A,A*6C
48: $GPRMC,141841.00,A,5350.53535,N,02743.05632,E,40.305,129.02,241015,,,A*58
48: $GPVTG,129.02,T,,M,40.305,N,74.645,K,A*33
48: $GPGGA,141841.00,5350.53535,N,02743.05632,E,1,10,0.94,193.9,M,24.9,M,,*52
48: $GPGSA,A,3,32,01,03,04,11,19,17,14,23,31,,,1.93,0.94,1.69*05
48: $GPGSV,3,1,12,01,71,200,20,03,60,273,38,04,47,159,32,11,47,194,29*78
49: $GPGSV,3,2,12,12,05,016,18,14,24,051,32,17,29,305,34,19,29,226,29*77
49: $GPGSV,3,3,12,22,01,091,,23,23,214,25,31,32,103,32,32,78,084,30*72
49: $GPGLL,5350.53535,N,02743.05632,E,141841.00,A,A*66
49: $GPRMC,141842.00,A,5350.52827,N,02743.07089,E,40.112,129.52,241015,,,A*51
49: $GPVTG,129.52,T,,M,40.112,N,74.287,K,A*38
49: $GPGGA,141842.00,5350.52827,N,02743.07089,E,1,10,0.94,194.4,M,24.9,M,,*50
49: $GPGSA,A,3,32,01,03,04,11,19,17,14,23,31,,,1.93,0.94,1.69*05
49: $GPGSV,3,1,12,01,71,200,21,03,60,273,38,04,47,159,32,11,47,194,30*71
49: $GPGSV,3,2,12,12,05,016,18,14,24,051,32,17,29,305,33,19,29,226,29*70
50: $GPGSV,3,3,12,22,01,091,,23,23,214,25,31,32,103,32,32,78,084,30*72
50: $GPGLL,5350.52827,N,02743.07089,E,141842.00,A,A*6E
50: $GPRMC,141843.00,A,5350.52120,N,02743.08534,E,39.784,129.47,241015,,,A*51
50: $GPVTG,129.47,T,,M,39.784,N,73.680,K,A*3F
50: $GPGGA,141843.00,5350.52120,N,02743.08534,E,1,10,0.94,194.8,M,24.9,M,,*5F
50: $GPGSA,A,3,32,01,03,04,11,19,17,14,23,31,,,1.93,0.94,1.69*05
50: $GPGSV,3,1,12,01,71,200,20,03,60,273,38,04,47,159,34,11,47,194,33*75
50: $GPGSV,3,2,12,12,05,016,18,14,24,051,33,17,29,305,33,19,29,226,31*78
51: $GPGSV,3,3,12,22,01,091,,23,23,214,24,31,32,103,32,32,78,084,30*73
51: $GPGLL,5350.52120,N,02743.08534,E,141843.00,A,A*6D
51: $GPRMC,141844.00,A,5350.51417,N,02743.09971,E,39.634,129.42,241015,,,A*57
51: $GPVTG,129.42,T,,M,39.634,N,73.402,K,A*38
51: $GPGGA,141844.00,5350.51417,N,02743.09971,E,1,10,0.94,195.1,M,24.9,M,,*5E
51: $GPGSA,A,3,32,01,03,04,11,19,17,14,23,31,,,1.93,0.94,1.69*05
51: $GPGSV,3,1,12,01,71,200,20,03,60,273,38,04,47,159,34,11,47,194,31*77
51: $GPGSV,3,2,12,12,05,016,20,14,24,051,33,17,29,305,33,19,29,226,31*73
51: $GPGSV,3,3,12,22,01,091,,23,23,214,24,31,32,103,30,32,78,084,30*71
52: $GPGLL,5350.51417,N,02743.09971,E,141844.00,A,A*64
52: $GPRMC,141845.00,A,5350.50719,N,02743.11403,E,39.590,129.62,241015,,,A*54
52: $GPVTG,129.62,T,,M,39.590,N,73.321,K,A*31
52: $GPGGA,141845.00,5350.50719,N,02743.11403,E,1,10,0.94,195.4,M,24.9,M,,*57
52: $GPGSA,A,3,32,01,03,04,11,19,17,14,23,31,,,1.93,0.94,1.69*05
52: $GPGSV,3,1,12,01,71,200,20,03,60,273,38,04,47,159,34,11,47,194,31*77
52: $GPGSV,3,2,12,12,05,016,20,14,24,051,30,17,29,305,33,19,29,226,34*75
52: $GPGSV,3,3,12,22,01,091,,23,23,214,22,31,32,103,29,32,78,084,30*7F
52: $GPGLL,5350.50719,N,02743.11403,E,141845.00,A,A*68
53: $GPRMC,141846.00,A,5350.50018,N,02743.12846,E,39.966,129.51,241015,,,A*5A
53: $GPVTG,129.51,T,,M,39.966,N,74.018,K,A*3A
53: $GPGGA,141846.00,5350.50018,N,02743.12846,E,1,10,0.94,195.7,M,24.9,M,,*5F
53: $GPGSA,A,3,32,01,03,04,11,19,17,14,23,31,,,1.93,0.94,1.69*05
53: $GPGSV,3,1,12,01,71,200,21,03,60,273,38,04,47,159,33,11,46,194,31*70
53: $GPGSV,3,2,12,12,05,016,21,14,24,051,34,17,29,305,36,19,29,226,33*72
53: $GPGSV,3,3,12,22,01,091,,23,23,214,22,31,32,103,29,32,78,084,29*77
53: $GPGLL,5350.50018,N,02743.12846,E,141846.00,A,A*63
53: $GPRMC,141847.00,A,5350.49308,N,02743.14311,E,40.499,129.30,241015,,,A*5A
54: $GPVTG,129.30,T,,M,40.499,N,75.004,K,A*32
54: $GPGGA,141847.00,5350.49308,N,02743.14311,E,1,10,0.94,196.1,M,24.9,M,,*5E
54: $GPGSA,A,3,32,01,03,04,11,19,17,14,23,31,,,1.93,0.94,1.69*05
54: $GPGSV,3,1,12,01,71,200,20,03,60,273,37,04,47,159,32,11,46,194,30*7E
54: $GPGSV,3,2,12,12,05,016,21,14,24,051,32,17,29,305,34,19,29,226,30*75
54: $GPGSV,3,3,12,22,01,091,,23,23,214,25,31,32,103,30,32,78,084,29*78
54: $GPGLL,5350.49308,N,02743.14311,E,141847.00,A,A*67
54: $GPRMC,141848.00,A,5350.48588,N,02743.15795,E,41.058,129.36,241015,,,A*5D
54: $GPVTG,129.36,T,,M,41.058,N,76.040,K,A*3F
55: $GPGGA,141848.00,5350.48588,N,02743.15795,E,1,10,0.94,196.4,M,24.9,M,,*52
55: $GPGSA,A,3,32,01,03,04,11,19,17,14,23,31,,,1.93,0.94,1.69*05
55: $GPGSV,3,1,12,01,71,200,19,03,60,273,38,04,47,159,34,11,46,194,31*7C
55: $GPGSV,3,2,12,12,05,016,21,14,24,051,33,17,29,305,34,19,29,226,33*77
55: $GPGSV,3,3,12,22,01,091,,23,23,214,25,31,32,103,30,32,78,084,29*78
55: $GPGLL,5350.48588,N,02743.15795,E,141848.00,A,A*6E
55: $GPRMC,141849.00,A,5350.47860,N,02743.17292,E,41.436,129.29,241015,,,A*5A
55: $GPVTG,129.29,T,,M,41.436,N,76.739,K,A*34
56: $GPGGA,141849.00,5350.47860,N,02743.17292,E,1,10,0.94,196.5,M,24.9,M,,*56
56: $GPGSA,A,3,32,01,03,04,11,19,17,14,23,31,,,1.93,0.94,1.69*05
56: $GPGSV,3,1,12,01,71,200,19,03,60,273,38,04,47,159,34,11,46,194,31*7C
56: $GPGSV,3,2,12,12,05,016,20,14,24,051,22,17,29,305,32,19,29,226,33*70
56: $GPGSV,3,3,12,22,01,091,,23,23,214,23,31,32,103,30,32,78,084,28*7F
56: $GPGLL,5350.47860,N,02743.17292,E,141849.00,A,A*6B
56: $GPRMC,141850.00,A,5350.47126,N,02743.18802,E,41.812,129.21,241015,,,A*57
56: $GPVTG,129.21,T,,M,41.812,N,77.436,K,A*3B
57: $GPGGA,141850.00,5350.47126,N,02743.18802,E,1,10,0.94,196.5,M,24.9,M,,*59
57: $GPGSA,A,3,32,01,03,04,11,19,17,14,23,31,,,1.93,0.94,1.69*05
57: $GPGSV,3,1,12,01,71,200,19,03,60,273,40,04,47,159,34,11,46,194,31*73
57: $GPGSV,3,2,12,12,05,016,19,14,24,051,30,17,29,305,33,19,29,226,32*79
57: $GPGSV,3,3,12,22,01,091,,23,23,214,24,31,32,103,30,32,78,084,28*78
57: $GPGLL,5350.47126,N,02743.18802,E,141850.00,A,A*64
57: $GPRMC,141851.00,A,5350.46386,N,02743.20323,E,42.215,129.54,241015,,,A*50
57: $GPVTG,129.54,T,,M,42.215,N,78.182,K,A*32
58: $GPGGA,141851.00,5350.46386,N,02743.20323,E,1,10,0.94,196.7,M,24.9,M,,*50
58: $GPGSA,A,3,32,01,03,04,11,19,17,14,23,31,,,1.93,0.94,1.69*05
58: $GPGSV,3,1,12,01,71,200,20,03,60,273,38,04,47,159,32,11,46,194,31*70
58: $GPGSV,3,2,12,12,05,016,18,14,24,051,31,17,29,305,34,19,29,226,32*7E
58: $GPGSV,3,3,12,22,01,091,,23,23,214,23,31,32,103,30,32,78,084,28*7F
58: $GPGLL,5350.46386,N,02743.20323,E,141851.00,A,A*6F
58: $GPRMC,141852.00,A,5350.45638,N,02743.21860,E,42.597,129.11,241015,,,A*51
58: $GPVTG,129.11,T,,M,42.597,N,78.890,K,A*34
58: $GPGGA,141852.00,5350.45638,N,02743.21860,E,1,10,0.94,196.8,M,24.9,M,,*52
59: $GPGSA,A,3,32,01,03,04,11,19,17,14,23,31,,,1.93,0.94,1.69*05
59: $GPGSV,3,1,12,01,71,200,21,03,60,273,39,04,47,159,35,11,46,194,34*72
59: $GPGSV,3,2,12,12,05,016,18,14,24,051,31,17,29,304,34,19,29,226,30*7D
59: $GPGSV,3,3,12,22,01,091,,23,23,214,24,31,32,103,30,32,78,084,29*79
59: $GPGLL,5350.45638,N,02743.21860,E,141852.00,A,A*62
59: $GPRMC,141853.00,A,5350.44888,N,02743.23414,E,42.889,129.14,241015,,,A*5E
59: $GPVTG,129.14,T,,M,42.889,N,79.430,K,A*34
59: $GPGGA,141853.00,5350.44888,N,02743.23414,E,1,10,0.94,196.9,M,24.9,M,,*5B
60: $GPGSA,A,3,32,01,03,04,11,19,17,14,23,31,,,1.93,0.94,1.69*05
60: $GPGSV,3,1,12,01,71,200,21,03,60,273,39,04,47,159,35,11,46,194,32*74
60: $GPGSV,3,2,12,12,05,016,20,14,24,051,32,17,29,304,33,19,29,226,32*70
60: $GPGSV,3,3,12,22,01,091,,23,23,214,24,31,32,103,30,32,78,084,28*78
60: $GPGLL,5350.44888,N,02743.23414,E,141853.00,A,A*6A
60: $GPRMC,141854.00,A,5350.44135,N,02743.24978,E,43.130,129.29,241015,,,A*52
60: $GPVTG,129.29,T,,M,43.130,N,79.877,K,A*3F
60: $GPGGA,141854.00,5350.44135,N,02743.24978,E,1,10,0.94,197.1,M,24.9,M,,*5A
60: $GPGSA,A,3,32,01,03,04,11,19,17,14,23,31,,,1.93,0.94,1.69*05
61: $GPGSV,3,1,12,01,71,200,20,03,60,273,39,04,47,159,34,11,46,194,32*74
61: $GPGSV,3,2,12,12,05,016,21,14,24,051,32,17,29,304,33,19,29,226,32*71
61: $GPGSV,3,3,12,22,01,091,,23,23,214,22,31,32,103,29,32,78,084,28*76
61: $GPGLL,5350.44135,N,02743.24978,E,141854.00,A,A*62
61: $GPRMC,141855.00,A,5350.43376,N,02743.26543,E,43.220,129.60,241015,,,A*58
61: $GPVTG,129.60,T,,M,43.220,N,80.044,K,A*3E
61: $GPGGA,141855.00,5350.43376,N,02743.26543,E,1,10,0.94,197.2,M,24.9,M,,*5C
61: $GPGSA,A,3,32,01,03,04,11,19,17,14,23,31,,,1.93,0.94,1.69*05
61: $GPGSV,3,1,12,01,71,200,20,03,60,273,38,04,47,159,34,11,46,194,32*75
62: $GPGSV,3,2,12,12,05,016,20,14,24,051,28,17,29,304,33,19,29,226,33*7A
62: $GPGSV,3,3,12,22,01,091,,23,23,214,20,31,32,103,28,32,78,084,28*75
62: $GPGLL,5350.43376,N,02743.26543,E,141855.00,A,A*67
62: $GPRMC,141856.00,A,5350.42615,N,02743.28111,E,43.379,129.44,241015,,,A*5C
62: $GPVTG,129.44,T,,M,43.379,N,80.339,K,A*3C
62: $GPGGA,141856.00,5350.42615,N,02743.28111,E,1,10,0.94,197.4,M,24.9,M,,*55
62: $GPGSA,A,3,32,01,03,04,11,19,17,14,23,31,,,1.93,0.94,1.69*05
62: $GPGSV,3,1,12,01,71,200,20,03,60,273,39,04,47,159,35,11,46,194,31*76
63: $GPGSV,3,2,12,12,05,016,22,14,24,051,32,17,29,304,33,19,29,226,33*73
63: $GPGSV,3,3,12,22,01,091,,23,23,214,21,31,32,103,28,32,78,084,28*74
63: $GPGLL,5350.42615,N,02743.28111,E,141856.00,A,A*68
63: $GPRMC,141857.00,A,5350.41850,N,02743.29685,E,43.492,129.39,241015,,,A*52
63: $GPVTG,129.39,T,,M,43.492,N,80.547,K,A*3B
63: $GPGGA,141857.00,5350.41850,N,02743.29685,E,1,10,0.94,197.5,M,24.9,M,,*52
63: $GPGSA,A,3,32,01,03,04,11,19,17,14,23,31,,,1.93,0.94,1.69*05
63: $GPGSV,3,1,12,01,71,200,21,03,60,273,39,04,47,159,35,11,46,194,32*74
63: $GPGSV,3,2,12,12,05,016,22,14,24,051,32,17,29,304,29,19,29,226,33*78
64: $GPGSV,3,3,12,22,00,091,,23,23,214,29,31,32,103,29,32,78,084,27*73
64: $GPGLL,5350.41850,N,02743.29685,E,141857.00,A,A*6E
64: $GPRMC,141858.00,A,5350.41084,N,02743.31264,E,43.641,129.43,241015,,,A*5F
64: $GPVTG,129.43,T,,M,43.641,N,80.823,K,A*35
64: $GPGGA,141858.00,5350.41084,N,02743.31264,E,1,10,0.94,197.7,M,24.9,M,,*5C
64: $GPGSA,A,3,32,01,03,04,11,19,17,14,23,31,,,1.93,0.94,1.69*05
64: $GPGSV,3,1,12,01,71,200,21,03,60,273,39,04,47,159,35,11,46,194,32*74
64: $GPGSV,3,2,12,12,05,016,21,14,24,051,31,17,29,304,31,19,29,226,31*73
65: $GPGSV,3,3,12,22,00,091,,23,24,214,28,31,32,103,29,32,78,084,27*75
65: $GPGLL,5350.41084,N,02743.31264,E,141858.00,A,A*62
65: $GPRMC,141859.00,A,5350.40317,N,02743.32854,E,43.879,129.41,241015,,,A*5B
65: $GPVTG,129.41,T,,M,43.879,N,81.265,K,A*3B
65: $GPGGA,141859.00,5350.40317,N,02743.32854,E,1,10,0.94,197.9,M,24.9,M,,*51
65: $GPGSA,A,3,32,01,03,04,11,19,17,14,23,31,,,1.93,0.94,1.69*05
65: $GPGSV,3,1,12,01,71,200,21,03,60,273,38,04,47,159,35,11,46,194,31*76
65: $GPGSV,3,2,12,12,05,016,20,14,24,051,31,17,29,304,32,19,29,226,33*73
66: $GPGSV,3,3,12,22,00,091,,23,24,214,28,31,32,103,28,32,78,084,26*75
66: $GPGLL,5350.40317,N,02743.32854,E,141859.00,A,A*61
66: $GPRMC,141900.00,A,5350.39546,N,02743.34453,E,44.102,129.33,241015,,,A*50
66: $GPVTG,129.33,T,,M,44.102,N,81.677,K,A*3B
66: $GPGGA,141900.00,5350.39546,N,02743.34453,E,1,10,0.94,198.2,M,24.9,M,,*59
66: $GPGSA,A,3,32,01,03,04,11,19,17,14,23,31,,,1.93,0.94,1.69*05
66: $GPGSV,3,1,12,01,71,200,21,03,60,273,39,04,47,159,35,11,46,194,31*77
66: $GPGSV,3,2,12,12,05,016,21,14,24,051,31,17,29,304,31,19,29,226,33*71
66: $GPGSV,3,3,12,22,00,091,,23,24,214,28,31,32,103,28,32,78,084,26*75
67: $GPGLL,5350.39546,N,02743.34453,E,141900.00,A,A*6D
67: $GPRMC,141901.00,A,5350.38765,N,02743.36058,E,44.379,129.45,241015,,,A*51
67: $GPVTG,129.45,T,,M,44.379,N,82.190,K,A*39
67: $GPGGA,141901.00,5350.38765,N,02743.36058,E,1,10,0.94,198.2,M,24.9,M,,*57
67: $GPGSA,A,3,32,01,03,04,11,19,17,14,23,31,,,1.93,0.94,1.69*05
67: $GPGSV,3,1,12,01,71,200,21,03,60,273,39,04,47,159,34,11,46,194,31*76
67: $GPGSV,3,2,12,12,05,016,22,14,24,051,31,17,29,304,31,19,29,226,32*73
67: $GPGSV,3,3,12,22,00,091,,23,24,214,13,31,32,103,28,32,78,084,25*7E
68: $GPGLL,5350.38765,N,02743.36058,E,141901.00,A,A*63
68: $GPRMC,141902.00,A,5350.37982,N,02743.37675,E,44.611,129.23,241015,,,A*59
68: $GPVTG,129.23,T,,M,44.611,N,82.620,K,A*3E
68: $GPGGA,141902.00,5350.37982,N,02743.37675,E,1,10,0.94,198.2,M,24.9,M,,*54
68: $GPGSA,A,3,32,01,03,04,11,19,17,14,23,31,,,1.93,0.94,1.69*05
68: $GPGSV,3,1,12,01,71,200,20,03,60,273,39,04,47,159,33,11,46,194,32*73
68: $GPGSV,3,2,12,12,05,016,23,14,24,051,26,17,29,304,33,19,29,226,32*76
68: $GPGSV,3,3,12,22,00,091,,23,24,214,24,31,32,103,28,32,78,084,26*79
68: $GPGLL,5350.37982,N,02743.37675,E,141902.00,A,A*60
69: $GPRMC,141903.00,A,5350.37199,N,02743.39292,E,44.578,129.33,241015,,,A*54
69: $GPVTG,129.33,T,,M,44.578,N,82.558,K,A*3F
69: $GPGGA,141903.00,5350.37199,N,02743.39292,E,1,10,0.94,198.2,M,24.9,M,,*54
69: $GPGSA,A,3,32,01,03,04,11,19,17,14,23,31,,,1.93,0.94,1.69*05
69: $GPGSV,3,1,12,01,71,200,20,03,60,273,39,04,47,159,33,11,46,194,32*73
69: $GPGSV,3,2,12,12,05,016,24,14,24,051,27,17,29,304,33,19,29,226,32*70
69: $GPGSV,3,3,12,22,00,091,,23,24,214,19,31,32,103,29,32,78,084,26*76
69: $GPGLL,5350.37199,N,02743.39292,E,141903.00,A,A*60
69: $GPRMC,141904.00,A,5350.36411,N,02743.40915,E,44.760,129.42,241015,,,A*50
70: $GPVTG,129.42,T,,M,44.760,N,82.896,K,A*3D
70: $GPGGA,141904.00,5350.36411,N,02743.40915,E,1,10,0.94,198.2,M,24.9,M,,*5D
70: $GPGSA,A,3,32,01,03,04,11,19,17,14,23,31,,,1.93,0.94,1.69*05
70: $GPGSV,3,1,12,01,71,200,19,03,60,273,39,04,47,159,37,11,46,194,31*7E
70: $GPGSV,3,2,12,12,05,016,24,14,24,051,28,17,29,304,32,19,29,226,32*7E
70: $GPGSV,3,3,12,22,00,091,,23,24,214,28,31,32,103,29,32,78,084,26*74
70: $GPGLL,5350.36411,N,02743.40915,E,141904.00,A,A*69
70: $GPRMC,141905.00,A,5350.35624,N,02743.42541,E,44.803,129.39,241015,,,A*5F
71: $GPVTG,129.39,T,,M,44.803,N,82.975,K,A*37
71: $GPGGA,141905.00,5350.35624,N,02743.42541,E,1,10,0.94,198.1,M,24.9,M,,*57
71: $GPGSA,A,3,32,01,03,04,11,19,17,14,23,31,,,1.93,0.94,1.69*05
71: $GPGSV,3,1,12,01,71,200,20,03,60,273,39,04,47,159,33,11,46,194,31*70
71: $GPGSV,3,2,12,12,05,016,23,14,24,051,28,17,29,304,30,19,29,226,32*7B
71: $GPGSV,3,3,12,22,00,091,,23,24,214,25,31,32,103,29,32,78,084,27*78
71: $GPGLL,5350.35624,N,02743.42541,E,141905.00,A,A*60
71: $GPRMC,141906.00,A,5350.34838,N,02743.44166,E,44.860,129.21,241015,,,A*55
71: $GPVTG,129.21,T,,M,44.860,N,83.081,K,A*38
72: $GPGGA,141906.00,5350.34838,N,02743.44166,E,1,10,0.94,198.0,M,24.9,M,,*50
72: $GPGSA,A,3,32,01,03,04,11,19,17,14,23,31,,,1.93,0.94,1.69*05
72: $GPGSV,3,1,12,01,71,200,20,03,60,273,39,04,47,159,33,11,46,194,29*79
72: $GPGSV,3,2,12,12,05,016,24,14,24,051,28,17,29,304,31,19,29,226,31*7E
72: $GPGSV,3,3,12,22,00,091,,23,24,214,27,31,32,103,28,32,78,084,27*7B
72: $GPGLL,5350.34838,N,02743.44166,E,141906.00,A,A*66
72: $GPRMC,141907.00,A,5350.34049,N,02743.45790,E,44.803,129.49,241015,,,A*5F
72: $GPVTG,129.49,T,,M,44.803,N,82.976,K,A*33
73: $GPGGA,141907.00,5350.34049,N,02743.45790,E,1,10,0.94,198.1,M,24.9,M,,*50
73: $GPGSA,A,3,32,01,03,04,11,19,17,14,23,31,,,1.93,0.94,1.69*05
73: $GPGSV,3,1,12,01,71,200,21,03,60,273,39,04,47,159,36,11,46,194,22*76
73: $GPGSV,3,2,12,12,05,016,23,14,24,051,28,17,29,304,31,19,29,226,31*79
73: $GPGSV,3,3,12,22,00,091,,23,24,214,25,31,32,103,29,32,78,084,27*78
73: $GPGLL,5350.34049,N,02743.45790,E,141907.00,A,A*67
73: $GPRMC,141908.00,A,5350.33257,N,02743.47409,E,44.771,129.66,241015,,,A*5C
73: $GPVTG,129.66,T,,M,44.771,N,82.916,K,A*32
74: $GPGGA,141908.00,5350.33257,N,02743.47409,E,1,10,0.94,197.9,M,24.9,M,,*53
74: $GPGSA,A,3,32,01,03,04,11,19,17,14,23,31,,,1.93,0.94,1.69*05
74: $GPGSV,3,1,12,01,71,200,21,03,60,273,39,04,47,159,36,11,46,194,30*75
74: $GPGSV,3,2,12,12,05,016,22,14,24,051,29,17,29,304,34,19,29,226,32*7F
74: $GPGSV,3,3,12,22,00,091,,23,24,214,24,31,32,103,30,32,78,084,27*71
74: $GPGLL,5350.33257,N,02743.47409,E,141908.00,A,A*63
74: $GPRMC,141909.00,A,5350.32466,N,02743.49028,E,44.816,129.53,241015,,,A*59
74: $GPVTG,129.53,T,,M,44.816,N,83.000,K,A*35
74: $GPGGA,141909.00,5350.32466,N,02743.49028,E,1,10,0.94,197.8,M,24.9,M,,*5F
75: $GPGSA,A,3,32,01,03,04,11,19,17,14,23,31,,,1.93,0.94,1.69*05
75: $GPGSV,3,1,12,01,71,200,19,03,60,273,39,04,47,159,36,11,46,194,31*7F
75: $GPGSV,3,2,12,12,05,016,22,14,24,051,29,17,29,304,35,19,29,226,31*7D
75: $GPGSV,3,3,12,22,00,091,,23,24,214,24,31,32,103,31,32,78,084,27*70
75: $GPGLL,5350.32466,N,02743.49028,E,141909.00,A,A*6E
75: $GPRMC,141910.00,A,5350.31675,N,02743.50649,E,44.846,129.51,241015,,,A*5C
75: $GPVTG,129.51,T,,M,44.846,N,83.055,K,A*32
75: $GPGGA,141910.00,5350.31675,N,02743.50649,E,1,10,0.94,197.7,M,24.9,M,,*52
76: $GPGSA,A,3,32,01,03,04,11,19,17,14,23,31,,,1.93,0.94,1.69*05
76: $GPGSV,3,1,12,01,71,200,17,03,60,273,39,04,47,159,33,11,46,194,31*74
76: $GPGSV,3,2,12,12,05,016,22,14,24,051,32,17,29,304,30,19,29,226,32*71
76: $GPGSV,3,3,12,22,00,091,,23,24,214,26,31,32,103,32,32,78,084,26*70
76: $GPGLL,5350.31675,N,02743.50649,E,141910.00,A,A*6C
76: $GPRMC,141911.00,A,5350.30890,N,02743.52272,E,44.708,129.36,241015,,,A*53
76: $GPVTG,129.36,T,,M,44.708,N,82.798,K,A*31
76: $GPGGA,141911.00,5350.30890,N,02743.52272,E,1,10,0.94,197.9,M,24.9,M,,*57
76: $GPGSA,A,3,32,01,03,04,11,19,17,14,23,31,,,1.93,0.94,1.69*05
77: $GPGSV,3,1,12,01,71,200,19,03,60,273,39,04,47,159,34,11,46,194,31*7D
77: $GPGSV,3,2,12,12,05,016,20,14,24,051,28,17,29,304,30,19,29,226,32*78
77: $GPGSV,3,3,12,22,00,091,,23,24,214,26,31,32,103,31,32,78,084,26*73
77: $GPGLL,5350.30890,N,02743.52272,E,141911.00,A,A*67
77: $GPRMC,141912.00,A,5350.30112,N,02743.53899,E,44.522,128.99,241015,,,A*53
77: $GPVTG,128.99,T,,M,44.522,N,82.454,K,A*3C
77: $GPGGA,141912.00,5350.30112,N,02743.53899,E,1,10,0.94,198.2,M,24.9,M,,*5D
77: $GPGSA,A,3,32,01,03,04,11,19,17,14,23,31,,,1.93,0.94,1.69*05
78: $GPGSV,3,1,12,01,71,200,20,03,60,273,39,04,47,159,36,11,46,194,31*75
78: $GPGSV,3,2,12,12,05,016,19,14,24,051,33,17,29,304,30,19,29,226,32*78
78: $GPGSV,3,3,12,22,00,091,,23,24,214,25,31,32,103,32,32,78,084,26*73
78: $GPGLL,5350.30112,N,02743.53899,E,141912.00,A,A*69
78: $GPRMC,141913.00,A,5350.29335,N,02743.55513,E,44.400,129.49,241015,,,A*59
78: $GPVTG,129.49,T,,M,44.400,N,82.229,K,A*3D
78: $GPGGA,141913.00,5350.29335,N,02743.55513,E,1,10,0.94,198.3,M,24.9,M,,*5B
78: $GPGSA,A,3,32,01,03,04,11,19,17,14,23,31,,,1.94,0.94,1.69*02
78: $GPGSV,3,1,12,01,71,200,20,03,60,273,39,04,47,159,33,11,46,194,32*73
79: $GPGSV,3,2,12,12,05,016,20,14,24,051,32,17,29,304,29,19,29,226,34*7D
79: $GPGSV,3,3,12,22,00,091,,23,24,214,25,31,32,103,28,32,78,084,26*78
79: $GPGLL,5350.29335,N,02743.55513,E,141913.00,A,A*6E
79: $GPRMC,141914.00,A,5350.28572,N,02743.57100,E,43.598,129.07,241015,,,A*53
79: $GPVTG,129.07,T,,M,43.598,N,80.743,K,A*3B
79: $GPGGA,141914.00,5350.28572,N,02743.57100,E,1,10,0.94,197.0,M,24.9,M,,*50
79: $GPGSA,A,3,32,01,03,04,11,19,17,14,23,31,,,1.94,0.94,1.69*02
79: $GPGSV,3,1,12,01,71,200,19,03,60,273,40,04,47,159,36,11,46,194,31*71
80: $GPGSV,3,2,12,12,05,016,21,14,24,051,29,17,29,304,28,19,29,226,33*70
80: $GPGSV,3,3,12,22,00,091,,23,24,214,26,31,32,103,32,32,78,084,25*73
80: $GPGLL,5350.28572,N,02743.57100,E,141914.00,A,A*69
80: $GPRMC,141915.00,A,5350.27798,N,02743.58690,E,43.958,129.64,241015,,,A*5F
80: $GPVTG,129.64,T,,M,43.958,N,81.410,K,A*3A
80: $GPGGA,141915.00,5350.27798,N,02743.58690,E,1,10,0.94,196.8,M,24.9,M,,*50
80: $GPGSA,A,3,32,01,03,04,11,19,17,14,23,31,,,1.94,0.94,1.69*02
80: $GPGSV,3,1,12,01,71,200,19,03,60,273,40,04,47,159,37,11,46,194,31*70
80: $GPGSV,3,2,12,12,05,016,22,14,24,051,31,17,29,304,29,19,29,226,32*7A
81: $GPGSV,3,3,12,22,00,091,,23,24,214,24,31,32,103,32,32,78,084,25*71
81: $GPGLL,5350.27798,N,02743.58690,E,141915.00,A,A*60
81: $GPRMC,141916.00,A,5350.27021,N,02743.60280,E,43.959,129.66,241015,,,A*54
81: $GPVTG,129.66,T,,M,43.959,N,81.412,K,A*3B
81: $GPGGA,141916.00,5350.27021,N,02743.60280,E,1,10,0.94,196.8,M,24.9,M,,*58
81: $GPGSA,A,3,32,01,03,04,11,19,17,14,23,31,,,1.94,0.94,1.69*02
81: $GPGSV,3,1,12,01,71,200,20,03,60,273,39,04,47,159,36,11,46,194,31*75
81: $GPGSV,3,2,12,12,05,016,20,14,24,051,32,17,29,304,31,19,29,226,32*72
82: $GPGSV,3,3,12,22,00,091,,23,24,214,25,31,32,103,31,32,78,084,25*73
82: $GPGLL,5350.27021,N,02743.60280,E,141916.00,A,A*68
82: $GPRMC,141917.00,A,5350.26242,N,02743.61874,E,43.919,129.54,241015,,,A*56
82: $GPVTG,129.54,T,,M,43.919,N,81.339,K,A*30
82: $GPGGA,141917.00,5350.26242,N,02743.61874,E,1,10,0.94,197.0,M,24.9,M,,*56
82: $GPGSA,A,3,32,01,03,04,11,19,17,14,23,31,,,1.94,0.94,1.69*02
82: $GPGSV,3,1,12,01,71,200,20,03,60,273,39,04,47,159,33,11,46,194,32*73
82: $GPGSV,3,2,12,12,05,016,16,14,24,051,32,17,29,304,32,19,29,226,31*77
83: $GPGSV,3,3,12,22,00,091,,23,24,214,26,31,32,103,30,32,78,084,27*73
83: $GPGLL,5350.26242,N,02743.61874,E,141917.00,A,A*6F
83: $GPRMC,141918.00,A,5350.25468,N,02743.63465,E,43.836,129.41,241015,,,A*52
83: $GPVTG,129.41,T,,M,43.836,N,81.184,K,A*3C
83: $GPGGA,141918.00,5350.25468,N,02743.63465,E,1,10,0.94,197.0,M,24.9,M,,*5A
83: $GPGSA,A,3,32,01,03,04,11,19,17,14,23,31,,,1.94,0.94,1.69*02
83: $GPGSV,3,1,12,01,71,200,19,03,60,273,38,04,47,159,34,11,46,194,32*7F
83: $GPGSV,3,2,12,12,05,016,14,14,24,051,33,17,29,304,32,19,29,226,31*74
83: $GPGSV,3,3,12,22,00,091,,23,24,214,23,31,32,103,30,32,78,084,27*76
84: $GPGLL,5350.25468,N,02743.63465,E,141918.00,A,A*63
84: $GPRMC,141919.00,A,5350.24698,N,02743.65057,E,43.889,129.52,241015,,,A*5A
84: $GPVTG,129.52,T,,M,43.889,N,81.283,K,A*3E
84: $GPGGA,141919.00,5350.24698,N,02743.65057,E,1,10,0.94,196.9,M,24.9,M,,*5C
84: $GPGSA,A,3,32,01,03,04,11,19,17,14,23,31,,,1.94,0.94,1.69*02
84: $GPGSV,3,1,12,01,71,200,19,03,60,273,38,04,47,159,34,11,46,194,32*7F
84: $GPGSV,3,2,12,12,05,016,13,14,24,051,33,17,29,304,32,19,29,226,32*70
84: $GPGSV,3,3,12,22,00,091,,23,24,214,24,31,32,103,30,32,78,084,28*7E
85: $GPGLL,5350.24698,N,02743.65057,E,141919.00,A,A*6D
85: $GPRMC,141920.00,A,5350.23923,N,02743.66659,E,44.060,129.45,241015,,,A*5D
85: $GPVTG,129.45,T,,M,44.060,N,81.599,K,A*3C
85: $GPGGA,141920.00,5350.23923,N,02743.66659,E,1,10,0.94,197.1,M,24.9,M,,*5C
85: $GPGSA,A,3,32,01,03,04,11,19,17,14,23,31,,,1.94,0.94,1.69*02
85: $GPGSV,3,1,12,01,71,200,19,03,60,273,38,04,47,159,35,11,46,194,31*7D
85: $GPGSV,3,2,12,12,05,016,11,14,24,051,33,17,29,304,32,19,29,226,33*73
85: $GPGSV,3,3,12,22,00,091,,23,24,214,22,31,32,103,29,32,78,084,28*70
86: $GPGLL,5350.23923,N,02743.66659,E,141920.00,A,A*64
86: $GPRMC,141921.00,A,5350.23152,N,02743.68259,E,44.142,129.41,241015,,,A*5D
86: $GPVTG,129.41,T,,M,44.142,N,81.751,K,A*3F
86: $GPGGA,141921.00,5350.23152,N,02743.68259,E,1,10,0.94,197.1,M,24.9,M,,*59
86: $GPGSA,A,3,32,01,03,04,11,19,17,14,23,31,,,1.94,0.94,1.69*02
86: $GPGSV,3,1,12,01,71,200,18,03,60,273,38,04,47,159,30,11,46,194,32*7A
86: $GPGSV,3,2,12,12,05,016,11,14,24,051,33,17,29,304,33,19,29,226,33*72
86: $GPGSV,3,3,12,22,00,091,,23,24,214,23,31,32,103,29,32,78,084,28*71
87: $GPGLL,5350.23152,N,02743.68259,E,141921.00,A,A*61
87: $GPRMC,141922.00,A,5350.22377,N,02743.69856,E,44.217,129.43,241015,,,A*5F
87: $GPVTG,129.43,T,,M,44.217,N,81.890,K,A*3C
87: $GPGGA,141922.00,5350.22377,N,02743.69856,E,1,10,0.94,197.2,M,24.9,M,,*59
87: $GPGSA,A,3,32,01,03,04,11,19,17,14,23,31,,,1.94,0.94,1.69*02
87: $GPGSV,3,1,12,01,71,200,17,03,60,273,38,04,47,159,31,11,46,194,32*74
87: $GPGSV,3,2,12,12,05,016,09,14,24,051,33,17,29,304,36,19,29,226,33*7E
87: $GPGSV,3,3,12,22,00,091,,23,24,214,22,31,32,103,30,32,78,084,29*79
87: $GPGLL,5350.22377,N,02743.69856,E,141922.00,A,A*62
88: $GPRMC,141923.00,A,5350.21596,N,02743.71456,E,44.258,129.51,241015,,,A*59
88: $GPVTG,129.51,T,,M,44.258,N,81.965,K,A*3F
88: $GPGGA,141923.00,5350.21596,N,02743.71456,E,1,10,0.94,197.5,M,24.9,M,,*50
88: $GPGSA,A,3,32,01,03,04,11,19,17,14,23,31,,,1.94,0.94,1.69*02
88: $GPGSV,3,1,12,01,71,200,15,03,60,273,38,04,47,159,33,11,46,194,32*74
88: $GPGSV,3,2,12,12,05,016,09,14,24,051,33,17,29,304,34,19,29,226,32*7D
88: $GPGSV,3,3,12,22,00,091,,23,24,214,23,31,32,103,29,32,78,084,29*70
88: $GPGLL,5350.21596,N,02743.71456,E,141923.00,A,A*6C
88: $GPRMC,141924.00,A,5350.20818,N,02743.73056,E,44.092,129.24,241015,,,A*54
89: $GPVTG,129.24,T,,M,44.092,N,81.659,K,A*39
89: $GPGGA,141924.00,5350.20818,N,02743.73056,E,1,10,0.94,197.9,M,24.9,M,,*57
89: $GPGSA,A,3,32,01,03,04,11,19,17,14,23,31,,,1.94,0.94,1.69*02
89: $GPGSV,3,1,12,01,71,200,12,03,60,273,37,04,47,159,33,11,46,194,33*7D
89: $GPGSV,3,2,12,12,05,016,08,14,24,051,29,17,29,304,35,19,29,226,31*75
89: $GPGSV,3,3,12,22,00,091,,23,24,214,25,31,32,103,29,32,78,084,29*76
89: $GPGLL,5350.20818,N,02743.73056,E,141924.00,A,A*67
89: $GPRMC,141925.00,A,5350.20044,N,02743.74642,E,43.795,129.32,241015,,,A*50
90: $GPVTG,129.32,T,,M,43.795,N,81.108,K,A*3A
90: $GPGGA,141925.00,5350.20044,N,02743.74642,E,1,09,0.94,198.1,M,24.9,M,,*5C
90: $GPGSA,A,3,32,03,04,11,19,17,14,23,31,,,,1.94,0.94,1.69*03
90: $GPGSV,3,1,12,01,71,200,11,03,60,273,35,04,47,159,33,11,46,194,33*7C
90: $GPGSV,3,2,12,12,05,016,11,14,24,051,29,17,29,304,35,19,29,226,30*7C
90: $GPGSV,3,3,12,22,00,091,,23,24,214,24,31,32,103,29,32,78,084,29*77
90: $GPGLL,5350.20044,N,02743.74642,E,141925.00,A,A*63
90: $GPRMC,141926.00,A,5350.19276,N,02743.76214,E,43.440,129.55,241015,,,A*55
91: $GPVTG,129.55,T,,M,43.440,N,80.451,K,A*38
91: $GPGGA,141926.00,5350.19276,N,02743.76214,E,1,10,0.94,198.5,M,24.9,M,,*5F
91: $GPGSA,A,3,32,01,03,04,11,19,17,14,23,31,,,1.77,0.94,1.50*05
91: $GPGSV,3,1,12,01,71,200,14,03,60,273,37,04,47,159,34,11,46,194,32*7D
91: $GPGSV,3,2,12,12,05,016,11,14,24,051,33,17,29,304,34,19,29,226,31*77
91: $GPGSV,3,3,12,22,00,091,,23,24,214,24,31,32,103,28,32,78,084,29*76
91: $GPGLL,5350.19276,N,02743.76214,E,141926.00,A,A*6C
91: $GPRMC,141927.00,A,5350.18510,N,02743.77772,E,43.197,129.70,241015,,,A*5E
91: $GPVTG,129.70,T,,M,43.197,N,80.001,K,A*31
92: $GPGGA,141927.00,5350.18510,N,02743.77772,E,1,10,0.94,198.8,M,24.9,M,,*51
92: $GPGSA,A,3,32,01,03,04,11,19,17,14,23,31,,,1.77,0.94,1.50*05
92: $GPGSV,3,1,12,01,71,200,13,03,60,273,37,04,47,159,31,11,46,194,32*7F
92: $GPGSV,3,2,12,12,05,016,10,14,24,051,30,17,29,304,33,19,29,226,31*72
92: $GPGSV,3,3,12,22,00,091,,23,24,214,24,31,32,103,28,32,78,084,29*76
92: $GPGLL,5350.18510,N,02743.77772,E,141927.00,A,A*6F
92: $GPRMC,141928.00,A,5350.17751,N,02743.79318,E,42.844,129.55,241015,,,A*5E
92: $GPVTG,129.55,T,,M,42.844,N,79.346,K,A*36
93: $GPGGA,141928.00,5350.17751,N,02743.79318,E,1,10,0.94,199.1,M,24.9,M,,*58
93: $GPGSA,A,3,32,01,03,04,11,19,17,14,23,31,,,1.77,0.94,1.50*05
93: $GPGSV,3,1,12,01,71,200,16,03,60,273,37,04,47,159,33,11,46,194,28*73
93: $GPGSV,3,2,12,12,05,016,10,14,24,051,30,17,29,304,32,19,29,226,31*73
93: $GPGSV,3,3,12,22,00,091,,23,24,214,22,31,32,103,28,32,78,084,29*70
93: $GPGLL,5350.17751,N,02743.79318,E,141928.00,A,A*6E
93: $GPRMC,141929.00,A,5350.17010,N,02743.80833,E,41.784,129.40,241015,,,A*5D
93: $GPVTG,129.40,T,,M,41.784,N,77.383,K,A*35
94: $GPGGA,141929.00,5350.17010,N,02743.80833,E,1,10,0.94,199.2,M,24.9,M,,*5C
94: $GPGSA,A,3,32,01,03,04,11,19,17,14,23,31,,,1.77,0.94,1.50*05
94: $GPGSV,3,1,12,01,71,200,21,03,60,273,38,04,47,159,33,11,46,194,28*78
94: $GPGSV,3,2,12,12,05,016,,14,24,051,26,17,29,304,31,19,29,226,32*75
94: $GPGSV,3,3,12,22,00,091,,23,24,214,24,31,32,103,28,32,78,084,29*76
94: $GPGLL,5350.17010,N,02743.80833,E,141929.00,A,A*69
94: $GPRMC,141930.00,A,5350.16284,N,02743.82307,E,40.733,129.87,241015,,,A*53
94: $GPVTG,129.87,T,,M,40.733,N,75.438,K,A*36
94: $GPGGA,141930.00,5350.16284,N,02743.82307,E,1,10,0.94,199.3,M,24.9,M,,*55
95: $GPGSA,A,3,32,01,03,04,11,19,17,14,23,31,,,1.77,0.94,1.50*05
95: $GPGSV,3,1,12,01,71,200,23,03,60,273,38,04,47,159,33,11,46,194,28*7A
95: $GPGSV,3,2,12,12,05,016,,14,24,051,26,17,29,304,31,19,29,226,32*75
95: $GPGSV,3,3,12,22,00,091,,23,24,214,23,31,32,103,30,32,78,084,29*78
95: $GPGLL,5350.16284,N,02743.82307,E,141930.00,A,A*61
95: $GPRMC,141931.00,A,5350.15580,N,02743.83748,E,39.647,129.50,241015,,,A*5A
95: $GPVTG,129.50,T,,M,39.647,N,73.426,K,A*39
95: $GPGGA,141931.00,5350.15580,N,02743.83748,E,1,10,0.94,199.5,M,24.9,M,,*5C
96: $GPGSA,A,3,32,01,03,04,11,19,17,14,23,31,,,1.77,0.94,1.50*05
96: $GPGSV,3,1,12,01,71,200,22,03,60,273,38,04,47,159,33,11,46,194,30*72
96: $GPGSV,3,2,12,12,05,016,,14,24,051,27,17,29,304,31,19,29,226,32*74
96: $GPGSV,3,3,12,22,00,091,,23,24,214,23,31,32,103,29,32,78,084,29*70
96: $GPGLL,5350.15580,N,02743.83748,E,141931.00,A,A*6E
96: $GPRMC,141932.00,A,5350.14897,N,02743.85138,E,38.256,129.46,241015,,,A*56
96: $GPVTG,129.46,T,,M,38.256,N,70.850,K,A*35
96: $GPGGA,141932.00,5350.14897,N,02743.85138,E,1,10,0.94,199.3,M,24.9,M,,*54
96: $GPGSA,A,3,32,01,03,04,11,19,17,14,23,31,,,1.77,0.94,1.50*05
97: $GPGSV,3,1,12,01,71,200,21,03,60,273,37,04,47,159,32,11,46,194,30*7F
97: $GPGSV,3,2,12,12,05,016,,14,24,051,28,17,29,304,33,19,29,226,33*78
97: $GPGSV,3,3,12,22,00,091,,23,24,214,25,31,32,103,29,32,78,084,29*76
97: $GPGLL,5350.14897,N,02743.85138,E,141932.00,A,A*60
97: $GPRMC,141933.00,A,5350.14239,N,02743.86495,E,37.179,129.45,241015,,,A*5A
97: $GPVTG,129.45,T,,M,37.179,N,68.855,K,A*3B
97: $GPGGA,141933.00,5350.14239,N,02743.86495,E,1,10,0.94,199.5,M,24.9,M,,*5C
97: $GPGSA,A,3,32,01,03,04,11,19,17,14,23,31,,,1.94,0.94,1.69*02
97: $GPGSV,3,1,12,01,71,200,20,03,60,273,37,04,47,159,32,11,46,194,31*7F
98: $GPGSV,3,2,12,12,05,016,,14,24,051,29,17,29,304,35,19,29,226,33*7F
98: $GPGSV,3,3,12,22,00,091,,23,24,214,24,31,32,103,29,32,78,084,29*77
98: $GPGLL,5350.14239,N,02743.86495,E,141933.00,A,A*6E
98: $GPRMC,141934.00,A,5350.13590,N,02743.87819,E,36.506,129.44,241015,,,A*5B
98: $GPVTG,129.44,T,,M,36.506,N,67.610,K,A*37
98: $GPGGA,141934.00,5350.13590,N,02743.87819,E,1,10,0.94,199.6,M,24.9,M,,*52
98: $GPGSA,A,3,32,01,03,04,11,19,17,14,23,31,,,1.94,0.94,1.69*02
98: $GPGSV,3,1,12,01,71,200,21,03,60,273,37,04,47,159,33,11,46,194,32*7C
99: $GPGSV,3,2,12,12,05,016,,14,24,051,29,17,29,304,35,19,29,226,28*75
99: $GPGSV,3,3,12,22,00,091,,23,24,214,26,31,32,103,29,32,78,084,31*7C
99: $GPGLL,5350.13590,N,02743.87819,E,141934.00,A,A*63
99: $GPRMC,141935.00,A,5350.12944,N,02743.89137,E,36.478,129.63,241015,,,A*58
99: $GPVTG,129.63,T,,M,36.478,N,67.557,K,A*3A
99: $GPGGA,141935.00,5350.12944,N,02743.89137,E,1,10,0.94,199.6,M,24.9,M,,*5C
99: $GPGSA,A,3,32,01,03,04,11,19,17,14,23,31,,,1.94,0.94,1.69*02
99: $GPGSV,3,1,12,01,71,200,22,03,60,273,37,04,47,159,34,11,46,194,32*78
100: $GPGSV,3,2,12,12,05,016,,14,24,051,29,17,29,304,34,19,29,226,29*75
100: $GPGSV,3,3,12,22,00,091,,23,24,214,25,31,32,103,29,32,78,084,32*7C
100: $GPGLL,5350.12944,N,02743.89137,E,141935.00,A,A*6D
100: $GPRMC,141936.00,A,5350.12290,N,02743.90452,E,36.656,129.90,241015,,,A*55
100: $GPVTG,129.90,T,,M,36.656,N,67.887,K,A*38
100: $GPGGA,141936.00,5350.12290,N,02743.90452,E,1,10,0.94,199.6,M,24.9,M,,*53
100: $GPGSA,A,3,32,01,03,04,11,19,17,14,23,31,,,1.94,0.94,1.69*02
100: $GPGSV,3,1,12,01,71,200,23,03,60,273,37,04,47,159,35,11,46,194,33*79
100: $GPGSV,3,2,12,12,05,016,,14,24,051,28,17,29,304,34,19,29,226,29*74
101: $GPGSV,3,3,12,22,00,091,,23,24,214,21,31,32,103,30,32,78,084,31*73
101: $GPGLL,5350.12290,N,02743.90452,E,141936.00,A,A*62
101: $GPRMC,141937.00,A,5350.11638,N,02743.91785,E,36.788,129.63,241015,,,A*57
101: $GPVTG,129.63,T,,M,36.788,N,68.132,K,A*3E
101: $GPGGA,141937.00,5350.11638,N,02743.91785,E,1,10,0.94,199.6,M,24.9,M,,*5F
101: $GPGSA,A,3,32,01,03,04,11,19,17,14,23,31,,,1.94,0.94,1.69*02
101: $GPGSV,3,1,12,01,71,200,24,03,60,273,37,04,47,159,34,11,46,194,34*78
101: $GPGSV,3,2,12,12,05,016,,14,24,051,28,17,29,304,34,19,29,226,33*7F
102: $GPGSV,3,3,12,22,00,091,,23,24,214,24,31,32,103,33,32,78,084,31*75
102: $GPGLL,5350.11638,N,02743.91785,E,141937.00,A,A*6E
102: $GPRMC,141938.00,A,5350.10997,N,02743.93093,E,36.054,129.29,241015,,,A*59
102: $GPVTG,129.29,T,,M,36.054,N,66.772,K,A*3A
102: $GPGGA,141938.00,5350.10997,N,02743.93093,E,1,10,0.94,199.6,M,24.9,M,,*59
102: $GPGSA,A,3,32,01,03,04,11,19,17,14,23,31,,,1.94,0.94,1.69*02
102: $GPGSV,3,1,12,01,71,200,25,03,60,273,38,04,47,159,34,11,46,194,33*71
102: $GPGSV,3,2,12,12,05,016,,14,24,051,28,17,29,304,32,19,29,226,29*72
103: $GPGSV,3,3,12,22,00,091,,23,24,214,25,31,32,103,33,32,78,084,30*75
103: $GPGLL,5350.10997,N,02743.93093,E,141938.00,A,A*68
103: $GPRMC,141939.00,A,5350.10363,N,02743.94378,E,35.317,129.47,241015,,,A*57
103: $GPVTG,129.47,T,,M,35.317,N,65.406,K,A*36
103: $GPGGA,141939.00,5350.10363,N,02743.94378,E,1,10,0.94,199.7,M,24.9,M,,*59
103: $GPGSA,A,3,32,01,03,04,11,19,17,14,23,31,,,1.94,0.94,1.69*02
103: $GPGSV,3,1,12,01,71,200,25,03,60,273,38,04,47,159,35,11,46,194,36*75
103: $GPGSV,3,2,12,12,05,016,,14,24,051,30,17,29,304,31,19,29,226,30*70
104: $GPGSV,3,3,12,22,00,091,,23,24,214,26,31,32,103,32,32,78,084,30*77
104: $GPGLL,5350.10363,N,02743.94378,E,141939.00,A,A*69
104: $GPRMC,141940.00,A,5350.09745,N,02743.95640,E,34.714,129.57,241015,,,A*59
104: $GPVTG,129.57,T,,M,34.714,N,64.290,K,A*39
104: $GPGGA,141940.00,5350.09745,N,02743.95640,E,1,10,0.94,199.5,M,24.9,M,,*52
104: $GPGSA,A,3,32,01,03,04,11,19,17,14,23,31,,,1.94,0.94,1.69*02
104: $GPGSV,3,1,12,01,71,200,26,03,60,273,38,04,47,159,36,11,46,194,34*77
104: $GPGSV,3,2,12,12,05,016,,14,24,051,30,17,29,304,32,19,29,226,30*73
104: $GPGSV,3,3,12,22,00,091,,23,24,214,27,31,32,103,32,32,78,084,30*76
105: $GPGLL,5350.09745,N,02743.95640,E,141940.00,A,A*60
