0: $GPRMC,141750.00,A,5350.88353,N,02742.33235,E,36.459,129.78,241015,,,A*52
1: $GPRMC,141751.00,A,5350.87707,N,02742.34546,E,36.574,129.40,241015,,,A*58
2: $GPRMC,141752.00,A,5350.87077,N,02742.35903,E,36.846,129.30,241015,,,A*5C
3: $GPRMC,141753.00,A,5350.86425,N,02742.37224,E,36.820,129.81,241015,,,A*59
4: $GPRMC,141754.00,A,5350.85773,N,02742.38547,E,36.636,129.78,241015,,,A*5F
5: $GPRMC,141755.00,A,5350.85138,N,02742.39882,E,36.534,129.47,241015,,,A*5F
6: $GPRMC,141756.00,A,5350.84514,N,02742.41227,E,36.350,129.31,241015,,,A*58
7: $GPRMC,141757.00,A,5350.83883,N,02742.42548,E,36.121,129.47,241015,,,A*55
7: $GPRMC,141758.00,A,5350.83253,N,02742.43856,E,35.833,129.58,241015,,,A*59
8: $GPRMC,141759.00,A,5350.82624,N,02742.45136,E,35.600,129.63,241015,,,A*52
9: $GPRMC,141800.00,A,5350.82000,N,02742.46408,E,35.358,129.56,241015,,,A*54
10: $GPRMC,141801.00,A,5350.81381,N,02742.47682,E,35.182,129.46,241015,,,A*59
11: $GPRMC,141802.00,A,5350.80766,N,02742.48957,E,35.137,129.82,241015,,,A*58
12: $GPRMC,141803.00,A,5350.80148,N,02742.50225,E,35.157,130.00,241015,,,A*50
13: $GPRMC,141804.00,A,5350.79531,N,02742.51495,E,35.086,129.63,241015,,,A*57
14: $GPRMC,141805.00,A,5350.78912,N,02742.52773,E,35.357,129.62,241015,,,A*5C
15: $GPRMC,141806.00,A,5350.78287,N,02742.54059,E,35.747,129.45,241015,,,A*51
16: $GPRMC,141807.00,A,5350.77659,N,02742.55365,E,36.106,129.29,241015,,,A*5F
17: $GPRMC,141808.00,A,5350.77074,N,02742.56646,E,34.184,126.90,241015,,,A*5B
18: $GPRMC,141809.00,A,5350.76443,N,02742.58071,E,38.274,126.66,241015,,,A*5E
19: $GPRMC,141810.00,A,5350.75794,N,02742.59440,E,37.149,128.60,241015,,,A*51
20: $GPRMC,141811.00,A,5350.75142,N,02742.60782,E,37.221,129.36,241015,,,A*55
21: $GPRMC,141812.00,A,5350.74487,N,02742.62132,E,37.553,129.55,241015,,,A*53
21: $GPRMC,141813.00,A,5350.73830,N,02742.63496,E,37.823,129.49,241015,,,A*58
22: $GPRMC,141814.00,A,5350.73179,N,02742.64876,E,37.884,129.25,241015,,,A*59
23: $GPRMC,141815.00,A,5350.72515,N,02742.66272,E,38.378,129.12,241015,,,A*58
24: $GPRMC,141816.00,A,5350.71830,N,02742.67685,E,39.078,129.21,241015,,,A*5D
25: $GPRMC,141817.00,A,5350.71162,N,02742.69118,E,39.659,128.82,241015,,,A*52
26: $GPRMC,141818.00,A,5350.70474,N,02742.70553,E,40.122,128.97,241015,,,A*5C
27: $GPRMC,141819.00,A,5350.69765,N,02742.72017,E,40.491,128.88,241015,,,A*52
28: $GPRMC,141820.00,A,5350.69060,N,02742.73510,E,40.919,128.47,241015,,,A*57
29: $GPRMC,141821.00,A,5350.68338,N,02742.74999,E,41.248,128.97,241015,,,A*50
30: $GPRMC,141822.00,A,5350.67624,N,02742.76505,E,41.357,128.42,241015,,,A*58
31: $GPRMC,141823.00,A,5350.66904,N,02742.78017,E,41.601,128.90,241015,,,A*54
32: $GPRMC,141824.00,A,5350.66172,N,02742.79538,E,41.944,129.09,241015,,,A*5C
33: $GPRMC,141825.00,A,5350.65439,N,02742.81079,E,42.137,128.95,241015,,,A*58
34: $GPRMC,141826.00,A,5350.64697,N,02742.82612,E,42.629,129.28,241015,,,A*5B
35: $GPRMC,141827.00,A,5350.63946,N,02742.84152,E,42.760,129.26,241015,,,A*59
36: $GPRMC,141828.00,A,5350.63199,N,02742.85703,E,42.829,129.44,241015,,,A*59
37: $GPRMC,141829.00,A,5350.62440,N,02742.87253,E,43.007,129.62,241015,,,A*5B
38: $GPRMC,141830.00,A,5350.61683,N,02742.88814,E,43.199,129.49,241015,,,A*54
39: $GPRMC,141831.00,A,5350.60921,N,02742.90396,E,43.356,129.39,241015,,,A*5D
40: $GPRMC,141832.00,A,5350.60163,N,02742.91967,E,43.147,129.39,241015,,,A*57
40: $GPRMC,141833.00,A,5350.59400,N,02742.93526,E,43.166,129.69,241015,,,A*51
41: $GPRMC,141834.00,A,5350.58645,N,02742.95086,E,42.938,129.66,241015,,,A*50
42: $GPRMC,141835.00,A,5350.57895,N,02742.96640,E,42.412,129.49,241015,,,A*5A
43: $GPRMC,141836.00,A,5350.57158,N,02742.98169,E,41.859,129.38,241015,,,A*55
44: $GPRMC,141837.00,A,5350.56427,N,02742.99682,E,41.631,129.39,241015,,,A*5A
45: $GPRMC,141838.00,A,5350.55697,N,02743.01184,E,41.352,129.48,241015,,,A*58
46: $GPRMC,141839.00,A,5350.54967,N,02743.02677,E,41.227,129.54,241015,,,A*5E
47: $GPRMC,141840.00,A,5350.54242,N,02743.04159,E,40.871,129.36,241015,,,A*5D
48: $GPRMC,141841.00,A,5350.53535,N,02743.05632,E,40.305,129.02,241015,,,A*58
49: $GPRMC,141842.00,A,5350.52827,N,02743.07089,E,40.112,129.52,241015,,,A*51
50: $GPRMC,141843.00,A,5350.52120,N,02743.08534,E,39.784,129.47,241015,,,A*51
51: $GPRMC,141844.00,A,5350.51417,N,02743.09971,E,39.634,129.42,241015,,,A*57
52: $GPRMC,141845.00,A,5350.50719,N,02743.11403,E,39.590,129.62,241015,,,A*54
53: $GPRMC,141846.00,A,5350.50018,N,02743.12846,E,39.966,129.51,241015,,,A*5A
53: $GPRMC,141847.00,A,5350.49308,N,02743.14311,E,40.499,129.30,241015,,,A*5A
54: $GPRMC,141848.00,A,5350.48588,N,02743.15795,E,41.058,129.36,241015,,,A*5D
55: $GPRMC,141849.00,A,5350.47860,N,02743.17292,E,41.436,129.29,241015,,,A*5A
56: $GPRMC,141850.00,A,5350.47126,N,02743.18802,E,41.812,129.21,241015,,,A*57
57: $GPRMC,141851.00,A,5350.46386,N,02743.20323,E,42.215,129.54,241015,,,A*50
58: $GPRMC,141852.00,A,5350.45638,N,02743.21860,E,42.597,129.11,241015,,,A*51
59: $GPRMC,141853.00,A,5350.44888,N,02743.23414,E,42.889,129.14,241015,,,A*5E
60: $GPRMC,141854.00,A,5350.44135,N,02743.24978,E,43.130,129.29,241015,,,A*52
61: $GPRMC,141855.00,A,5350.43376,N,02743.26543,E,43.220,129.60,241015,,,A*58
62: $GPRMC,141856.00,A,5350.42615,N,02743.28111,E,43.379,129.44,241015,,,A*5C
63: $GPRMC,141857.00,A,5350.41850,N,02743.29685,E,43.492,129.39,241015,,,A*52
64: $GPRMC,141858.00,A,5350.41084,N,02743.31264,E,43.641,129.43,241015,,,A*5F
65: $GPRMC,141859.00,A,5350.40317,N,02743.32854,E,43.879,129.41,241015,,,A*5B
66: $GPRMC,141900.00,A,5350.39546,N,02743.34453,E,44.102,129.33,241015,,,A*50
67: $GPRMC,141901.00,A,5350.38765,N,02743.36058,E,44.379,129.45,241015,,,A*51
68: $GPRMC,141902.00,A,5350.37982,N,02743.37675,E,44.611,129.23,241015,,,A*59
69: $GPRMC,141903.00,A,5350.37199,N,02743.39292,E,44.578,129.33,241015,,,A*54
69: $GPRMC,141904.00,A,5350.36411,N,02743.40915,E,44.760,129.42,241015,,,A*50
70: $GPRMC,141905.00,A,5350.35624,N,02743.42541,E,44.803,129.39,241015,,,A*5F
71: $GPRMC,141906.00,A,5350.34838,N,02743.44166,E,44.860,129.21,241015,,,A*55
72: $GPRMC,141907.00,A,5350.34049,N,02743.45790,E,44.803,129.49,241015,,,A*5F
73: $GPRMC,141908.00,A,5350.33257,N,02743.47409,E,44.771,129.66,241015,,,A*5C
74: $GPRMC,141909.00,A,5350.32466,N,02743.49028,E,44.816,129.53,241015,,,A*59
75: $GPRMC,141910.00,A,5350.31675,N,02743.50649,E,44.846,129.51,241015,,,A*5C
76: $GPRMC,141911.00,A,5350.30890,N,02743.52272,E,44.708,129.36,241015,,,A*53
77: $GPRMC,141912.00,A,5350.30112,N,02743.53899,E,44.522,128.99,241015,,,A*53
78: $GPRMC,141913.00,A,5350.29335,N,02743.55513,E,44.400,129.49,241015,,,A*59
79: $GPRMC,141914.00,A,5350.28572,N,02743.57100,E,43.598,129.07,241015,,,A*53
80: $GPRMC,141915.00,A,5350.27798,N,02743.58690,E,43.958,129.64,241015,,,A*5F
81: $GPRMC,141916.00,A,5350.27021,N,02743.60280,E,43.959,129.66,241015,,,A*54
82: $GPRMC,141917.00,A,5350.26242,N,02743.61874,E,43.919,129.54,241015,,,A*56
83: $GPRMC,141918.00,A,5350.25468,N,02743.63465,E,43.836,129.41,241015,,,A*52
84: $GPRMC,141919.00,A,5350.24698,N,02743.65057,E,43.889,129.52,241015,,,A*5A
85: $GPRMC,141920.00,A,5350.23923,N,02743.66659,E,44.060,129.45,241015,,,A*5D
86: $GPRMC,141921.00,A,5350.23152,N,02743.68259,E,44.142,129.41,241015,,,A*5D
87: $GPRMC,141922.00,A,5350.22377,N,02743.69856,E,44.217,129.43,241015,,,A*5F
88: $GPRMC,141923.00,A,5350.21596,N,02743.71456,E,44.258,129.51,241015,,,A*59
88: $GPRMC,141924.00,A,5350.20818,N,02743.73056,E,44.092,129.24,241015,,,A*54
89: $GPRMC,141925.00,A,5350.20044,N,02743.74642,E,43.795,129.32,241015,,,A*50
90: $GPRMC,141926.00,A,5350.19276,N,02743.76214,E,43.440,129.55,241015,,,A*55
91: $GPRMC,141927.00,A,5350.18510,N,02743.77772,E,43.197,129.70,241015,,,A*5E
92: $GPRMC,141928.00,A,5350.17751,N,02743.79318,E,42.844,129.55,241015,,,A*5E
93: $GPRMC,141929.00,A,5350.17010,N,02743.80833,E,41.784,129.40,241015,,,A*5D
94: $GPRMC,141930.00,A,5350.16284,N,02743.82307,E,40.733,129.87,241015,,,A*53
95: $GPRMC,141931.00,A,5350.15580,N,02743.83748,E,39.647,129.50,241015,,,A*5A
96: $GPRMC,141932.00,A,5350.14897,N,02743.85138,E,38.256,129.46,241015,,,A*56
97: $GPRMC,141933.00,A,5350.14239,N,02743.86495,E,37.179,129.45,241015,,,A*5A
98: $GPRMC,141934.00,A,5350.13590,N,02743.87819,E,36.506,129.44,241015,,,A*5B
99: $GPRMC,141935.00,A,5350.12944,N,02743.89137,E,36.478,129.63,241015,,,A*58
100: $GPRMC,141936.00,A,5350.12290,N,02743.90452,E,36.656,129.90,241015,,,A*55
101: $GPRMC,141937.00,A,5350.11638,N,02743.91785,E,36.788,129.63,241015,,,A*57
102: $GPRMC,141938.00,A,5350.10997,N,02743.93093,E,36.054,129.29,241015,,,A*59
103: $GPRMC,141939.00,A,5350.10363,N,02743.94378,E,35.317,129.47,241015,,,A*57
104: $GPRMC,141940.00,A,5350.09745,N,02743.95640,E,34.714,129.57,241015,,,A*59
105: $GPRMC,141941.00,A,5350.09130,N,02743.96894,E,34.603,129.64,241015,,,A*5F
106: $GPRMC,141942.00,A,5350.08515,N,02743.98145,E,34.484,129.76,241015,,,A*5B
107: $GPRMC,141943.00,A,5350.07900,N,02743.99398,E,34.627,129.74,241015,,,A*57
108: $GPRMC,141944.00,A,5350.07286,N,02744.00659,E,34.934,129.53,241015,,,A*52
109: $GPRMC,141945.00,A,5350.06663,N,02744.01927,E,35.211,129.58,241015,,,A*5C
109: $GPRMC,141946.00,A,5350.06041,N,02744.03207,E,35.281,129.30,241015,,,A*55
110: $GPRMC,141947.00,A,5350.05414,N,02744.04489,E,35.393,129.41,241015,,,A*50
111: $GPRMC,141948.00,A,5350.04787,N,02744.05777,E,35.556,129.46,241015,,,A*5C
112: $GPRMC,141949.00,A,5350.04156,N,02744.07072,E,35.801,129.47,241015,,,A*59
113: $GPRMC,141950.00,A,5350.03519,N,02744.08379,E,36.075,129.48,241015,,,A*59
114: $GPRMC,141951.00,A,5350.02879,N,02744.09695,E,36.312,129.35,241015,,,A*5C
115: $GPRMC,141952.00,A,5350.02234,N,02744.11020,E,36.529,129.53,241015,,,A*53
116: $GPRMC,141953.00,A,5350.01580,N,02744.12359,E,36.947,129.63,241015,,,A*50
117: $GPRMC,141954.00,A,5350.00923,N,02744.13727,E,37.628,129.26,241015,,,A*59
118: $GPRMC,141955.00,A,5350.00254,N,02744.15104,E,38.288,129.56,241015,,,A*54
119: $GPRMC,141956.00,A,5349.99569,N,02744.16502,E,38.958,129.52,241015,,,A*55
120: $GPRMC,141957.00,A,5349.98871,N,02744.17932,E,39.735,129.49,241015,,,A*51
121: $GPRMC,141958.00,A,5349.98162,N,02744.19383,E,40.266,129.34,241015,,,A*5C
122: $GPRMC,141959.00,A,5349.97447,N,02744.20849,E,40.586,129.32,241015,,,A*58
123: $GPRMC,142000.00,A,5349.96728,N,02744.22333,E,40.913,129.36,241015,,,A*55
124: $GPRMC,142001.00,A,5349.96001,N,02744.23823,E,41.244,129.56,241015,,,A*5D
125: $GPRMC,142002.00,A,5349.95270,N,02744.25332,E,41.724,129.54,241015,,,A*55
126: $GPRMC,142003.00,A,5349.94526,N,02744.26856,E,42.220,129.56,241015,,,A*5B
127: $GPRMC,142004.00,A,5349.93767,N,02744.28390,E,42.734,129.80,241015,,,A*58
127: $GPRMC,142005.00,A,5349.93004,N,02744.29949,E,43.248,129.62,241015,,,A*57
128: $GPRMC,142006.00,A,5349.92236,N,02744.31523,E,43.657,129.37,241015,,,A*55
129: $GPRMC,142007.00,A,5349.91462,N,02744.33119,E,44.124,129.35,241015,,,A*59
130: $GPRMC,142008.00,A,5349.90681,N,02744.34722,E,44.429,129.51,241015,,,A*5B
131: $GPRMC,142009.00,A,5349.89889,N,02744.36330,E,44.740,129.59,241015,,,A*55
132: $GPRMC,142010.00,A,5349.89098,N,02744.37959,E,45.056,129.50,241015,,,A*59
133: $GPRMC,142011.00,A,5349.88304,N,02744.39597,E,45.273,129.34,241015,,,A*58
134: $GPRMC,142012.00,A,5349.87504,N,02744.41238,E,45.556,129.36,241015,,,A*5D
135: $GPRMC,142013.00,A,5349.86689,N,02744.42880,E,45.931,129.85,241015,,,A*54
136: $GPRMC,142014.00,A,5349.85856,N,02744.44530,E,46.397,130.35,241015,,,A*5A
137: $GPRMC,142015.00,A,5349.85047,N,02744.46186,E,45.811,129.36,241015,,,A*55
138: $GPRMC,142016.00,A,5349.84239,N,02744.47842,E,45.974,129.61,241015,,,A*5C
139: $GPRMC,142017.00,A,5349.83421,N,02744.49494,E,46.168,129.94,241015,,,A*50
139: $GPRMC,142018.00,A,5349.82607,N,02744.51162,E,46.346,129.45,241015,,,A*5F
140: $GPRMC,142019.00,A,5349.81788,N,02744.52841,E,46.632,129.45,241015,,,A*56
141: $GPRMC,142020.00,A,5349.80957,N,02744.54529,E,46.867,129.73,241015,,,A*5F
142: $GPRMC,142021.00,A,5349.80124,N,02744.56221,E,46.963,129.38,241015,,,A*55
143: $GPRMC,142022.00,A,5349.79290,N,02744.57917,E,47.066,129.47,241015,,,A*56
144: $GPRMC,142023.00,A,5349.78460,N,02744.59623,E,47.199,129.27,241015,,,A*5E
145: $GPRMC,142024.00,A,5349.77624,N,02744.61328,E,47.248,129.63,241015,,,A*5E
146: $GPRMC,142025.00,A,5349.76787,N,02744.63043,E,47.469,129.31,241015,,,A*58
147: $GPRMC,142026.00,A,5349.75950,N,02744.64764,E,47.448,129.26,241015,,,A*5C
148: $GPRMC,142027.00,A,5349.75113,N,02744.66480,E,47.454,129.33,241015,,,A*50
149: $GPRMC,142028.00,A,5349.74277,N,02744.68200,E,47.488,129.40,241015,,,A*5A
150: $GPRMC,142029.00,A,5349.73443,N,02744.69916,E,47.434,129.38,241015,,,A*58
151: $GPRMC,142030.00,A,5349.72614,N,02744.71633,E,47.427,129.06,241015,,,A*5F
152: $GPRMC,142031.00,A,5349.71790,N,02744.73344,E,47.207,129.13,241015,,,A*57
152: $GPRMC,142032.00,A,5349.70965,N,02744.75042,E,46.830,129.31,241015,,,A*5D
153: $GPRMC,142033.00,A,5349.70163,N,02744.76737,E,46.265,128.51,241015,,,A*59
154: $GPRMC,142034.00,A,5349.69355,N,02744.78404,E,45.975,129.35,241015,,,A*56
155: $GPRMC,142035.00,A,5349.68545,N,02744.80063,E,45.865,129.30,241015,,,A*56
156: $GPRMC,142036.00,A,5349.67735,N,02744.81718,E,45.752,129.51,241015,,,A*59
157: $GPRMC,142037.00,A,5349.66939,N,02744.83386,E,45.649,128.81,241015,,,A*5D
158: $GPRMC,142038.00,A,5349.66152,N,02744.85056,E,45.468,128.69,241015,,,A*58
159: $GPRMC,142039.00,A,5349.65345,N,02744.86703,E,45.592,129.43,241015,,,A*57
160: $GPRMC,142040.00,A,5349.64540,N,02744.88354,E,45.578,129.22,241015,,,A*50
161: $GPRMC,142041.00,A,5349.63738,N,02744.90017,E,45.675,129.11,241015,,,A*58
162: $GPRMC,142042.00,A,5349.62932,N,02744.91678,E,45.867,129.29,241015,,,A*56
163: $GPRMC,142043.00,A,5349.62118,N,02744.93338,E,45.875,129.41,241015,,,A*59
164: $GPRMC,142044.00,A,5349.61305,N,02744.95012,E,46.018,129.54,241015,,,A*5A
165: $GPRMC,142045.00,A,5349.60494,N,02744.96684,E,46.127,129.23,241015,,,A*52
166: $GPRMC,142046.00,A,5349.59680,N,02744.98363,E,46.377,129.39,241015,,,A*52
167: $GPRMC,142047.00,A,5349.58863,N,02745.00054,E,46.628,129.01,241015,,,A*52
167: $GPRMC,142048.00,A,5349.58035,N,02745.01743,E,46.794,129.73,241015,,,A*55
168: $GPRMC,142049.00,A,5349.57204,N,02745.03435,E,46.887,129.51,241015,,,A*56
169: $GPRMC,142050.00,A,5349.56387,N,02745.05134,E,46.646,129.44,241015,,,A*50
170: $GPRMC,142051.00,A,5349.55573,N,02745.06831,E,46.588,129.26,241015,,,A*55
171: $GPRMC,142052.00,A,5349.54761,N,02745.08523,E,46.467,129.14,241015,,,A*57
172: $GPRMC,142053.00,A,5349.53950,N,02745.10205,E,46.310,129.35,241015,,,A*53
173: $GPRMC,142054.00,A,5349.53139,N,02745.11876,E,46.060,129.43,241015,,,A*59
174: $GPRMC,142055.00,A,5349.52328,N,02745.13553,E,46.069,129.45,241015,,,A*5C
175: $GPRMC,142056.00,A,5349.51517,N,02745.15225,E,46.131,129.34,241015,,,A*5C
176: $GPRMC,142057.00,A,5349.50705,N,02745.16900,E,46.164,129.18,241015,,,A*5C
177: $GPRMC,142058.00,A,5349.49884,N,02745.18560,E,46.150,129.90,241015,,,A*5E
178: $GPRMC,142059.00,A,5349.49074,N,02745.20223,E,45.982,129.57,241015,,,A*5C
179: $GPRMC,142100.00,A,5349.48261,N,02745.21873,E,45.937,129.72,241015,,,A*51
180: $GPRMC,142101.00,A,5349.47437,N,02745.23509,E,45.907,130.46,241015,,,A*54
181: $GPRMC,142102.00,A,5349.46639,N,02745.25182,E,45.736,128.70,241015,,,A*5B
182: $GPRMC,142103.00,A,5349.45846,N,02745.26855,E,45.748,128.80,241015,,,A*59
183: $GPRMC,142104.00,A,5349.45058,N,02745.28532,E,45.610,128.56,241015,,,A*5C
184: $GPRMC,142105.00,A,5349.44248,N,02745.30183,E,45.852,129.48,241015,,,A*5E
185: $GPRMC,142106.00,A,5349.43432,N,02745.31837,E,45.983,129.66,241015,,,A*57
186: $GPRMC,142107.00,A,5349.42631,N,02745.33507,E,45.908,128.77,241015,,,A*58
186: $GPRMC,142108.00,A,5349.41825,N,02745.35166,E,45.955,129.29,241015,,,A*58
187: $GPRMC,142109.00,A,5349.41020,N,02745.36821,E,45.991,129.33,241015,,,A*5E
188: $GPRMC,142110.00,A,5349.40211,N,02745.38482,E,46.098,129.50,241015,,,A*5A
189: $GPRMC,142111.00,A,5349.39399,N,02745.40146,E,46.132,129.29,241015,,,A*59
190: $GPRMC,142112.00,A,5349.38594,N,02745.41815,E,45.977,129.33,241015,,,A*5F
191: $GPRMC,142113.00,A,5349.37775,N,02745.43470,E,46.031,129.45,241015,,,A*58
192: $GPRMC,142114.00,A,5349.36959,N,02745.45128,E,46.093,129.50,241015,,,A*5C
193: $GPRMC,142115.00,A,5349.36139,N,02745.46775,E,46.026,129.64,241015,,,A*57
194: $GPRMC,142116.00,A,5349.35319,N,02745.48422,E,46.097,129.85,241015,,,A*5D
195: $GPRMC,142117.00,A,5349.34519,N,02745.50078,E,45.613,128.90,241015,,,A*55
196: $GPRMC,142118.00,A,5349.33712,N,02745.51732,E,45.687,129.45,241015,,,A*58
197: $GPRMC,142119.00,A,5349.32893,N,02745.53377,E,45.906,129.68,241015,,,A*50
198: $GPRMC,142120.00,A,5349.32084,N,02745.55029,E,45.757,129.53,241015,,,A*58
199: $GPRMC,142121.00,A,5349.31280,N,02745.56662,E,45.684,129.60,241015,,,A*59
199: $GPRMC,142122.00,A,5349.30475,N,02745.58315,E,45.621,129.51,241015,,,A*51
200: $GPRMC,142123.00,A,5349.29673,N,02745.59980,E,45.607,129.46,241015,,,A*59
201: $GPRMC,142124.00,A,5349.28875,N,02745.61637,E,45.495,129.24,241015,,,A*52
202: $GPRMC,142125.00,A,5349.28070,N,02745.63292,E,45.595,129.61,241015,,,A*57
203: $GPRMC,142126.00,A,5349.27260,N,02745.64927,E,45.323,129.70,241015,,,A*51
204: $GPRMC,142127.00,A,5349.26462,N,02745.66550,E,45.057,129.65,241015,,,A*5F
205: $GPRMC,142128.00,A,5349.25667,N,02745.68172,E,45.133,129.58,241015,,,A*53
206: $GPRMC,142129.00,A,5349.24883,N,02745.69790,E,44.858,129.24,241015,,,A*52
207: $GPRMC,142130.00,A,5349.24088,N,02745.71399,E,44.726,129.72,241015,,,A*58
208: $GPRMC,142131.00,A,5349.23300,N,02745.73004,E,44.619,129.56,241015,,,A*53
