0: $GPGSV,4,1,14,01,58,183,31,03,74,281,33,04,32,161,25,06,02,318,20*7E
0: $GPGSV,4,2,14,09,01,228,28,11,32,188,32,12,07,004,17,14,11,051,26*72
0: $GPGSV,4,3,14,17,29,289,34,19,16,219,34,23,37,219,35,25,06,039,17*74
0: $GPGSV,4,4,14,31,39,086,33,32,64,092,33*72
0: $GPGLL,5344.03223,N,02829.19011,E,145107.00,A,A*60
0: $GPRMC,145108.00,A,5344.03536,N,02829.21869,E,61.989,79.61,241015,,,A*62
0: $GPVTG,79.61,T,,M,61.989,N,114.804,K,A*33
0: $GPGGA,145108.00,5344.03536,N,02829.21869,E,1,12,0.83,173.2,M,24.3,M,,*5F
0: $GPGSA,A,3,32,01,03,04,11,19,17,14,23,31,12,25,1.42,0.83,1.15*00
1: $GPGSV,4,1,14,01,58,183,31,03,74,281,33,04,32,161,26,06,02,318,21*7C
1: $GPGSV,4,2,14,09,01,228,28,11,32,188,32,12,07,004,16,14,11,051,25*70
1: $GPGSV,4,3,14,17,29,289,34,19,16,219,34,23,37,219,35,25,06,039,19*7A
1: $GPGSV,4,4,14,31,39,086,32,32,64,092,34*74
1: $GPGLL,5344.03536,N,02829.21869,E,145108.00,A,A*60
1: $GPRMC,145109.00,A,5344.03845,N,02829.24704,E,61.414,79.75,241015,,,A*67
1: $GPVTG,79.75,T,,M,61.414,N,113.738,K,A*38
1: $GPGGA,145109.00,5344.03845,N,02829.24704,E,1,12,0.83,173.1,M,24.3,M,,*55
1: $GPGSA,A,3,32,01,03,04,11,19,17,14,23,31,12,25,1.42,0.83,1.15*00
2: $GPGSV,4,1,14,01,58,183,30,03,74,281,33,04,32,161,26,06,02,318,22*7E
2: $GPGSV,4,2,14,09,01,228,30,11,32,188,31,12,07,004,17,14,11,051,25*7B
2: $GPGSV,4,3,14,17,29,289,35,19,16,219,34,23,37,219,35,25,06,039,19*7B
2: $GPGSV,4,4,14,31,39,086,33,32,64,092,33*72
2: $GPGLL,5344.03845,N,02829.24704,E,145109.00,A,A*69
2: $GPRMC,145110.00,A,5344.04149,N,02829.27509,E,60.716,79.63,241015,,,A*66
2: $GPVTG,79.63,T,,M,60.716,N,112.445,K,A*37
2: $GPGGA,145110.00,5344.04149,N,02829.27509,E,1,12,0.83,173.0,M,24.3,M,,*52
2: $GPGSA,A,3,32,01,03,04,11,19,17,14,23,31,12,25,1.42,0.83,1.15*00
3: $GPGSV,4,1,14,01,58,183,29,03,74,281,33,04,32,161,26,06,02,318,21*75
3: $GPGSV,4,2,14,09,01,228,27,11,32,188,32,12,07,004,17,14,11,051,25*7E
3: $GPGSV,4,3,14,17,29,289,34,19,16,219,34,23,37,219,35,25,06,039,17*74
3: $GPGSV,4,4,14,31,39,086,32,32,64,092,33*73
3: $GPGLL,5344.04149,N,02829.27509,E,145110.00,A,A*6F
3: $GPRMC,145111.00,A,5344.04448,N,02829.30257,E,59.378,79.60,241015,,,A*6C
3: $GPVTG,79.60,T,,M,59.378,N,109.967,K,A*35
3: $GPGGA,145111.00,5344.04448,N,02829.30257,E,1,12,0.83,173.0,M,24.3,M,,*5D
3: $GPGSA,A,3,32,01,03,04,11,19,17,14,23,31,12,25,1.42,0.83,1.15*00
4: $GPGSV,4,1,14,01,58,183,30,03,74,281,33,04,32,161,25,06,02,318,20*7F
4: $GPGSV,4,2,14,09,01,228,25,11,32,188,32,12,07,004,20,14,11,051,24*79
4: $GPGSV,4,3,14,17,29,289,34,19,16,219,34,23,37,219,35,25,06,039,15*76
4: $GPGSV,4,4,14,31,39,086,32,32,64,092,33*73
4: $GPGLL,5344.04448,N,02829.30257,E,145111.00,A,A*60
4: $GPRMC,145112.00,A,5344.04739,N,02829.32941,E,57.933,79.75,241015,,,A*6B
4: $GPVTG,79.75,T,,M,57.933,N,107.292,K,A*35
4: $GPGGA,145112.00,5344.04739,N,02829.32941,E,1,12,0.83,172.9,M,24.3,M,,*5D
4: $GPGSA,A,3,32,01,03,04,11,19,17,14,23,31,12,25,1.42,0.83,1.15*00
5: $GPGSV,4,1,14,01,58,183,30,03,74,281,33,04,32,161,24,06,02,318,19*74
5: $GPGSV,4,2,14,09,01,228,23,11,32,188,33,12,07,004,21,14,11,051,23*78
5: $GPGSV,4,3,14,17,29,289,34,19,16,219,34,23,37,219,35,25,06,039,14*77
5: $GPGSV,4,4,14,31,39,086,32,32,64,092,33*73
5: $GPGLL,5344.04739,N,02829.32941,E,145112.00,A,A*68
5: $GPRMC,145113.00,A,5344.05024,N,02829.35564,E,56.533,79.71,241015,,,A*65
5: $GPVTG,79.71,T,,M,56.533,N,104.699,K,A*30
5: $GPGGA,145113.00,5344.05024,N,02829.35564,E,1,12,0.83,172.8,M,24.3,M,,*5B
6: $GPGSA,A,3,32,01,03,04,11,19,17,14,23,31,12,25,1.42,0.83,1.15*00
6: $GPGSV,4,1,14,01,58,183,31,03,74,281,34,04,32,161,23,06,02,318,19*75
6: $GPGSV,4,2,14,09,01,228,20,11,32,188,33,12,07,004,20,14,11,051,23*7A
6: $GPGSV,4,3,14,17,29,289,35,19,16,219,34,23,37,219,35,25,06,039,13*71
6: $GPGSV,4,4,14,31,39,086,33,32,64,092,34*75
6: $GPGLL,5344.05024,N,02829.35564,E,145113.00,A,A*6F
6: $GPRMC,145114.00,A,5344.05304,N,02829.38125,E,55.259,79.64,241015,,,A*63
6: $GPVTG,79.64,T,,M,55.259,N,102.340,K,A*3B
6: $GPGGA,145114.00,5344.05304,N,02829.38125,E,1,12,0.83,172.7,M,24.3,M,,*5E
6: $GPGSA,A,3,32,01,03,04,11,19,17,14,23,31,12,25,1.42,0.83,1.15*00
7: $GPGSV,4,1,14,01,58,183,31,03,74,281,34,04,32,161,23,06,02,318,17*7B
7: $GPGSV,4,2,14,09,01,228,21,11,32,188,33,12,07,004,20,14,11,051,24*7C
7: $GPGSV,4,3,14,17,29,289,35,19,16,219,34,23,37,219,35,25,06,039,13*71
7: $GPGSV,4,4,14,31,39,086,33,32,64,092,34*75
7: $GPGLL,5344.05304,N,02829.38125,E,145114.00,A,A*65
7: $GPRMC,145115.00,A,5344.05579,N,02829.40625,E,54.012,79.42,241015,,,A*6E
7: $GPVTG,79.42,T,,M,54.012,N,100.030,K,A*35
7: $GPGGA,145115.00,5344.05579,N,02829.40625,E,1,12,0.83,172.6,M,24.3,M,,*5A
7: $GPGSA,A,3,32,01,03,04,11,19,17,14,23,31,12,25,1.42,0.83,1.15*00
8: $GPGSV,4,1,14,01,58,183,30,03,74,281,33,04,32,161,23,06,02,318,17*7D
8: $GPGSV,4,2,14,09,01,228,24,11,32,188,33,12,07,004,21,14,11,051,24*78
8: $GPGSV,4,3,14,17,29,289,34,19,16,219,33,23,37,219,35,25,06,039,12*76
8: $GPGSV,4,4,14,31,39,086,32,32,64,092,34*74
8: $GPGLL,5344.05579,N,02829.40625,E,145115.00,A,A*60
8: $GPRMC,145116.00,A,5344.05848,N,02829.43066,E,52.757,79.48,241015,,,A*6A
8: $GPVTG,79.48,T,,M,52.757,N,97.707,K,A*03
8: $GPGGA,145116.00,5344.05848,N,02829.43066,E,1,11,0.85,172.6,M,24.3,M,,*51
8: $GPGSA,A,3,32,01,03,04,11,19,17,14,23,31,12,,1.48,0.85,1.21*0C
9: $GPGSV,4,1,14,01,58,183,30,03,74,281,33,04,32,161,23,06,02,318,18*72
9: $GPGSV,4,2,14,09,01,228,30,11,32,188,33,12,07,004,21,14,11,051,25*7C
9: $GPGSV,4,3,14,17,29,289,34,19,16,219,34,23,37,219,35,25,06,039,11*72
9: $GPGSV,4,4,14,31,39,086,31,32,64,092,34*77
9: $GPGLL,5344.05848,N,02829.43066,E,145116.00,A,A*6E
9: $GPRMC,145117.00,A,5344.06110,N,02829.45466,E,51.938,79.67,241015,,,A*67
9: $GPVTG,79.67,T,,M,51.938,N,96.189,K,A*0B
9: $GPGGA,145117.00,5344.06110,N,02829.45466,E,1,11,0.85,172.7,M,24.3,M,,*54
9: $GPGSA,A,3,32,01,03,04,11,19,17,14,23,31,12,,1.48,0.85,1.21*0C
10: $GPGSV,4,1,14,01,58,183,30,03,74,281,33,04,32,161,23,06,02,318,19*73
