$GPGGA,153705.00,5351.53233,N,02729.07892,E,1,05,6.30,337.7,M,25.1,M,,*53
$GPGGA,153706.00,5351.53248,N,02729.07858,E,1,04,6.30,338.7,M,25.1,M,,*54
$GPGGA,153707.00,5351.53323,N,02729.07811,E,1,04,6.30,341.1,M,25.1,M,,*5C
$GPGGA,153708.00,5351.53266,N,02729.07761,E,1,04,6.30,340.4,M,25.1,M,,*5F
$GPGGA,153709.00,5351.53275,N,02729.07756,E,1,04,6.30,340.8,M,25.1,M,,*54
$GPGGA,153710.00,5351.53282,N,02729.07743,E,1,03,4.47,341.3,M,25.1,M,,*5F
$GPGGA,153711.00,5351.53265,N,02729.07719,E,1,03,4.47,341.0,M,25.1,M,,*5B
$GPGGA,153712.00,5351.53260,N,02729.07748,E,1,03,4.47,340.8,M,25.1,M,,*50
$GPGGA,153713.00,5351.53124,N,02729.07581,E,1,03,4.47,340.5,M,25.1,M,,*58
$GPGGA,153714.00,5351.53127,N,02729.07584,E,1,03,4.47,340.3,M,25.1,M,,*5F
$GPGGA,153715.00,5351.52184,N,02729.05511,E,1,04,8.84,341.4,M,25.1,M,,*5A
$GPGGA,153716.00,5351.51312,N,02729.04058,E,1,04,8.84,341.7,M,25.1,M,,*5D
$GPGGA,153717.00,5351.51241,N,02729.04129,E,1,03,4.47,340.2,M,25.1,M,,*5C
$GPGGA,153718.00,5351.51131,N,02729.04362,E,1,03,4.47,338.4,M,25.1,M,,*53
$GPGGA,153719.00,5351.51099,N,02729.04570,E,1,03,4.47,336.5,M,25.1,M,,*5B
$GPGGA,153720.00,5351.51140,N,02729.04714,E,1,04,4.47,334.7,M,25.1,M,,*53
$GPGGA,153721.00,5351.51205,N,02729.04931,E,1,03,4.47,332.6,M,25.1,M,,*59
$GPGGA,153722.00,5351.51244,N,02729.05123,E,1,04,4.47,331.0,M,25.1,M,,*57
$GPGGA,153723.00,5351.51200,N,02729.05182,E,1,04,4.47,329.6,M,25.1,M,,*52
$GPGGA,153724.00,5351.51215,N,02729.05283,E,1,04,4.47,328.2,M,25.1,M,,*56
$GPGGA,153725.00,5351.51275,N,02729.05458,E,1,03,4.47,326.9,M,25.1,M,,*53
$GPGGA,153726.00,5351.51320,N,02729.05596,E,1,03,4.47,325.6,M,25.1,M,,*5E
$GPGGA,153727.00,5351.51320,N,02729.05675,E,1,03,4.48,324.4,M,25.1,M,,*5D
$GPGGA,153728.00,5351.51357,N,02729.05800,E,1,04,4.48,323.3,M,25.1,M,,*59
$GPGGA,153729.00,5351.51393,N,02729.05918,E,1,03,4.48,322.3,M,25.1,M,,*5E
$GPGGA,153730.00,5351.51388,N,02729.05987,E,1,04,4.48,321.4,M,25.1,M,,*59
$GPGGA,153731.00,5351.51401,N,02729.06052,E,1,04,4.48,320.5,M,25.1,M,,*5C
$GPGGA,153732.00,5351.51402,N,02729.06102,E,1,04,4.48,319.7,M,25.1,M,,*50
$GPGGA,153733.00,5351.51419,N,02729.06173,E,1,04,4.48,319.0,M,25.1,M,,*5A
$GPGGA,153734.00,5351.51435,N,02729.06252,E,1,04,4.48,318.4,M,25.1,M,,*56
$GPGGA,153735.00,5351.51445,N,02729.06316,E,1,03,4.48,317.8,M,25.1,M,,*55
$GPGGA,153736.00,5351.51445,N,02729.06360,E,1,04,4.48,317.2,M,25.1,M,,*5A
$GPGGA,153737.00,5351.51443,N,02729.06398,E,1,04,4.48,316.7,M,25.1,M,,*5E
$GPGGA,153738.00,5351.51459,N,02729.06462,E,1,03,4.48,316.2,M,25.1,M,,*5A
$GPGGA,153739.00,5351.51476,N,02729.06538,E,1,04,4.48,315.6,M,25.1,M,,*58
$GPGGA,153740.00,5351.51464,N,02729.06567,E,1,03,4.48,315.1,M,25.1,M,,*5F
$GPGGA,153741.00,5351.51448,N,02729.06583,E,1,03,4.48,314.6,M,25.1,M,,*5C
$GPGGA,153742.00,5351.51470,N,02729.06648,E,1,03,4.48,314.1,M,25.1,M,,*57
$GPGGA,153743.00,5351.51492,N,02729.06717,E,1,03,4.48,313.5,M,25.1,M,,*52
$GPGGA,153744.00,5351.51494,N,02729.06756,E,1,03,4.48,313.0,M,25.1,M,,*53
$GPGGA,153745.00,5351.51503,N,02729.06806,E,1,03,4.48,312.5,M,25.1,M,,*53
$GPGGA,153746.00,5351.51517,N,02729.06862,E,1,03,4.48,312.0,M,25.1,M,,*52
$GPGGA,153747.00,5351.51573,N,02729.06972,E,1,03,4.48,311.5,M,25.1,M,,*57
$GPGGA,153748.00,5351.51544,N,02729.06965,E,1,03,4.48,311.0,M,25.1,M,,*5F
$GPGGA,153749.00,5351.51535,N,02729.06981,E,1,03,4.48,310.6,M,25.1,M,,*55
$GPGGA,153750.00,5351.51552,N,02729.07033,E,1,03,4.48,310.1,M,25.1,M,,*5A
$GPGGA,153751.00,5351.51764,N,02729.07352,E,1,03,4.48,309.6,M,25.1,M,,*57
$GPGGA,153752.00,5351.51790,N,02729.07415,E,1,03,4.48,309.1,M,25.1,M,,*5C
$GPGGA,153753.00,5351.51828,N,02729.07489,E,1,04,4.48,308.7,M,25.1,M,,*54
$GPGGA,153754.00,5351.51890,N,02729.07598,E,1,04,4.48,308.2,M,25.1,M,,*54
$GPGGA,153755.00,5351.51899,N,02729.07627,E,1,03,4.48,307.8,M,25.1,M,,*59
$GPGGA,153756.00,5351.52988,N,02729.09580,E,1,04,8.95,304.5,M,25.1,M,,*5D
$GPGGA,153757.00,5351.53093,N,02729.09634,E,1,04,4.48,304.0,M,25.1,M,,*5B
$GPGGA,153758.00,5351.53199,N,02729.09729,E,1,04,4.48,303.5,M,25.1,M,,*50
$GPGGA,153759.00,5351.53274,N,02729.09834,E,1,04,4.48,303.0,M,25.1,M,,*57
$GPGGA,153800.00,5351.53278,N,02729.09846,E,1,03,4.49,302.4,M,25.1,M,,*5E
$GPGGA,153801.00,5351.53280,N,02729.09861,E,1,03,4.49,301.8,M,25.1,M,,*52
$GPGGA,153802.00,5351.53348,N,02729.09971,E,1,03,4.49,301.1,M,25.1,M,,*5D
$GPGGA,153803.00,5351.53320,N,02729.09952,E,1,03,4.49,300.4,M,25.1,M,,*57
$GPGGA,153804.00,5351.53318,N,02729.09971,E,1,03,4.49,299.8,M,25.1,M,,*57
$GPGGA,153805.00,5351.53280,N,02729.09946,E,1,03,4.49,299.3,M,25.1,M,,*59
$GPGGA,153806.00,5351.53400,N,02729.10124,E,1,03,4.49,299.0,M,25.1,M,,*53
$GPGGA,153807.00,5351.53352,N,02729.10078,E,1,03,4.49,298.6,M,25.1,M,,*5D
$GPGGA,153808.00,5351.53370,N,02729.10120,E,1,03,4.49,298.3,M,25.1,M,,*5B
$GPGGA,153809.00,5351.53240,N,02729.09966,E,1,03,4.49,297.9,M,25.1,M,,*5F
$GPGGA,153810.00,5351.53215,N,02729.09953,E,1,03,4.49,297.7,M,25.1,M,,*5F
$GPGGA,153811.00,5351.53240,N,02729.09984,E,1,03,4.49,297.8,M,25.1,M,,*5B
$GPGGA,153812.00,5351.53252,N,02729.10004,E,1,03,4.49,297.8,M,25.1,M,,*52
$GPGGA,153813.00,5351.53153,N,02729.09880,E,1,03,4.49,297.6,M,25.1,M,,*53
$GPGGA,153814.00,5351.53152,N,02729.09893,E,1,03,4.49,297.4,M,25.1,M,,*55
$GPGGA,153815.00,5351.53132,N,02729.09883,E,1,03,4.49,297.4,M,25.1,M,,*53
$GPGGA,153816.00,5351.53122,N,02729.09881,E,1,04,4.49,297.2,M,25.1,M,,*52
$GPGGA,153817.00,5351.53124,N,02729.09897,E,1,03,4.49,297.1,M,25.1,M,,*56
$GPGGA,153818.00,5351.53155,N,02729.09950,E,1,04,4.49,297.0,M,25.1,M,,*53
$GPGGA,153819.00,5351.53042,N,02729.09820,E,1,04,4.49,296.7,M,25.1,M,,*55
$GPGGA,153820.00,5351.52996,N,02729.09778,E,1,04,4.49,296.5,M,25.1,M,,*5E
$GPGGA,153821.00,5351.52897,N,02729.09662,E,1,04,4.49,296.3,M,25.1,M,,*53
$GPGGA,153822.00,5351.52802,N,02729.09546,E,1,03,4.49,296.1,M,25.1,M,,*5C
$GPGGA,153823.00,5351.52730,N,02729.09461,E,1,03,4.49,295.9,M,25.1,M,,*5C
$GPGGA,153824.00,5351.52678,N,02729.09413,E,1,03,4.49,295.7,M,25.1,M,,*5D
$GPGGA,153825.00,5351.52620,N,02729.09354,E,1,03,4.49,295.4,M,25.1,M,,*56
$GPGGA,153826.00,5351.52600,N,02729.09345,E,1,03,4.49,295.1,M,25.1,M,,*52
$GPGGA,153827.00,5351.52580,N,02729.09319,E,1,03,4.49,294.9,M,25.1,M,,*58
$GPGGA,153828.00,5351.52529,N,02729.09270,E,1,03,4.49,294.6,M,25.1,M,,*55
$GPGGA,153829.00,5351.52496,N,02729.09253,E,1,03,4.49,294.3,M,25.1,M,,*55
$GPGGA,153830.00,5351.52448,N,02729.09212,E,1,03,4.49,294.1,M,25.1,M,,*59
$GPGGA,153831.00,5351.52414,N,02729.09171,E,1,04,4.49,293.8,M,25.1,M,,*5E
$GPGGA,153832.00,5351.52391,N,02729.09140,E,1,04,4.50,293.5,M,25.1,M,,*50
$GPGGA,153833.00,5351.52358,N,02729.09114,E,1,04,4.50,293.2,M,25.1,M,,*52
$GPGGA,153834.00,5351.52335,N,02729.09112,E,1,03,4.50,292.8,M,25.1,M,,*54
$GPGGA,153835.00,5351.52303,N,02729.09091,E,1,03,4.50,292.5,M,25.1,M,,*57
$GPGGA,153836.00,5351.52288,N,02729.09090,E,1,03,4.50,292.2,M,25.1,M,,*50
$GPGGA,153837.00,5351.52259,N,02729.09065,E,1,03,4.50,291.9,M,25.1,M,,*5F
$GPGGA,153838.00,5351.52206,N,02729.09024,E,1,03,4.50,291.7,M,25.1,M,,*51
$GPGGA,153839.00,5351.52150,N,02729.08978,E,1,03,4.50,291.4,M,25.1,M,,*52
$GPGGA,153840.00,5351.52121,N,02729.08963,E,1,03,4.50,291.1,M,25.1,M,,*55
$GPGGA,153841.00,5351.52101,N,02729.08967,E,1,04,4.50,290.8,M,25.1,M,,*5D
$GPGGA,153842.00,5351.52059,N,02729.08934,E,1,03,4.50,290.5,M,25.1,M,,*5E
$GPGGA,153843.00,5351.52029,N,02729.08912,E,1,03,4.50,290.2,M,25.1,M,,*5B
$GPGGA,153844.00,5351.52000,N,02729.08893,E,1,04,4.50,289.9,M,25.1,M,,*5B
$GPGGA,153845.00,5351.51979,N,02729.08885,E,1,03,4.50,289.6,M,25.1,M,,*51
$GPGGA,153846.00,5351.51970,N,02729.08895,E,1,04,4.50,289.3,M,25.1,M,,*58
$GPGGA,153847.00,5351.51954,N,02729.08892,E,1,03,4.50,289.0,M,25.1,M,,*5C
$GPGGA,153848.00,5351.51925,N,02729.08867,E,1,04,4.50,288.7,M,25.1,M,,*5E
$GPGGA,153849.00,5351.51919,N,02729.08867,E,1,04,4.50,288.4,M,25.1,M,,*53
$GPGGA,153850.00,5351.51923,N,02729.08891,E,1,03,4.50,288.0,M,25.1,M,,*58
$GPGGA,153851.00,5351.51916,N,02729.08911,E,1,03,4.50,287.7,M,25.1,M,,*5E
$GPGGA,153852.00,5351.51890,N,02729.08908,E,1,03,4.50,287.4,M,25.1,M,,*59
$GPGGA,153853.00,5351.51857,N,02729.09050,E,1,04,9.11,287.7,M,25.1,M,,*5A
$GPGGA,153854.00,5351.51774,N,02729.08939,E,1,04,4.50,287.2,M,25.1,M,,*59
$GPGGA,153855.00,5351.51722,N,02729.08913,E,1,04,4.50,286.9,M,25.1,M,,*59
$GPGGA,153856.00,5351.51689,N,02729.08892,E,1,03,4.50,286.5,M,25.1,M,,*59
$GPGGA,153857.00,5351.51659,N,02729.08828,E,1,03,4.50,286.4,M,25.1,M,,*55
$GPGGA,153858.00,5351.51639,N,02729.08791,E,1,03,4.50,286.0,M,25.1,M,,*55
$GPGGA,153859.00,5351.51628,N,02729.08751,E,1,04,4.50,285.7,M,25.1,M,,*5B
$GPGGA,153900.00,5351.51611,N,02729.08708,E,1,04,4.50,285.3,M,25.1,M,,*54
$GPGGA,153901.00,5351.51593,N,02729.08701,E,1,03,4.50,284.8,M,25.1,M,,*58
$GPGGA,153902.00,5351.51595,N,02729.08721,E,1,03,4.50,284.3,M,25.1,M,,*54
$GPGGA,153903.00,5351.51591,N,02729.08711,E,1,04,4.51,284.0,M,25.1,M,,*57
$GPGGA,153904.00,5351.51570,N,02729.08694,E,1,04,4.51,283.7,M,25.1,M,,*53
$GPGGA,153905.00,5351.51538,N,02729.08679,E,1,03,4.51,283.3,M,25.1,M,,*5E
$GPGGA,153906.00,5351.51523,N,02729.08665,E,1,04,4.51,283.0,M,25.1,M,,*5E
$GPGGA,153907.00,5351.51506,N,02729.08650,E,1,03,4.51,282.7,M,25.1,M,,*5F
$GPGGA,153908.00,,,,,0,00,99.99,,,,,,*60
$GPGGA,153909.00,,,,,0,00,99.99,,,,,,*61
$GPGGA,153910.00,,,,,0,00,99.99,,,,,,*69
$GPGGA,153911.00,,,,,0,00,99.99,,,,,,*68
$GPGGA,153912.00,,,,,0,00,99.99,,,,,,*6B
$GPGGA,153913.00,,,,,0,00,99.99,,,,,,*6A
$GPGGA,153914.00,5351.51418,N,02729.08552,E,1,04,4.51,282.5,M,25.1,M,,*57
$GPGGA,153915.00,5351.51395,N,02729.08554,E,1,03,4.51,282.2,M,25.1,M,,*52
$GPGGA,153916.00,5351.51382,N,02729.08559,E,1,03,4.51,281.8,M,25.1,M,,*53
$GPGGA,153917.00,5351.51366,N,02729.08567,E,1,03,4.51,281.5,M,25.1,M,,*58
$GPGGA,153918.00,5351.51358,N,02729.08581,E,1,03,4.51,281.1,M,25.1,M,,*56
$GPGGA,153919.00,5351.51348,N,02729.08575,E,1,03,4.51,280.7,M,25.1,M,,*5A
$GPGGA,153920.00,5351.51343,N,02729.08581,E,1,03,4.51,280.4,M,25.1,M,,*53
$GPGGA,153921.00,5351.51350,N,02729.08603,E,1,03,4.51,280.0,M,25.1,M,,*5D
$GPGGA,153922.00,5351.51322,N,02729.08595,E,1,03,4.51,279.7,M,25.1,M,,*56
$GPGGA,153923.00,5351.51309,N,02729.08616,E,1,03,4.51,279.3,M,25.1,M,,*52
$GPGGA,153924.00,5351.51312,N,02729.08650,E,1,03,4.51,278.9,M,25.1,M,,*56
$GPGGA,153925.00,5351.51310,N,02729.08664,E,1,03,4.51,278.6,M,25.1,M,,*5D
$GPGGA,153926.00,5351.51307,N,02729.08685,E,1,03,4.51,278.2,M,25.1,M,,*53
$GPGGA,153927.00,5351.51292,N,02729.08678,E,1,03,4.51,277.9,M,25.1,M,,*59
$GPGGA,153928.00,5351.51292,N,02729.08702,E,1,03,4.51,277.5,M,25.1,M,,*56
$GPGGA,153929.00,5351.51292,N,02729.08715,E,1,03,4.51,277.2,M,25.1,M,,*56
$GPGGA,153930.00,5351.51304,N,02729.08740,E,1,03,4.51,276.8,M,25.1,M,,*5B
$GPGGA,153931.00,5351.51288,N,02729.08735,E,1,03,4.51,276.5,M,25.1,M,,*50
$GPGGA,153932.00,5351.51280,N,02729.08767,E,1,03,4.51,276.2,M,25.1,M,,*5B
$GPGGA,153933.00,5351.51293,N,02729.08815,E,1,03,4.51,275.8,M,25.1,M,,*5B
$GPGGA,153934.00,5351.51307,N,02729.08863,E,1,03,4.51,275.5,M,25.1,M,,*5C
$GPGGA,153935.00,5351.51313,N,02729.08917,E,1,03,4.52,275.1,M,25.1,M,,*5D
$GPGGA,153936.00,5351.51314,N,02729.08957,E,1,03,4.52,274.7,M,25.1,M,,*5A
$GPGGA,153937.00,5351.51333,N,02729.09014,E,1,04,4.52,274.4,M,25.1,M,,*55
$GPGGA,153938.00,5351.51353,N,02729.09049,E,1,04,4.52,274.1,M,25.1,M,,*51
$GPGGA,153939.00,5351.51370,N,02729.09080,E,1,03,4.52,273.8,M,25.1,M,,*5D
$GPGGA,153940.00,5351.51371,N,02729.09090,E,1,03,4.52,273.5,M,25.1,M,,*5E
$GPGGA,153941.00,5351.50190,N,02729.06320,E,1,04,9.25,275.8,M,25.1,M,,*55
$GPGGA,153942.00,5351.50074,N,02729.06464,E,1,04,4.52,274.7,M,25.1,M,,*59
$GPGGA,153943.00,5351.50055,N,02729.06633,E,1,04,4.52,273.2,M,25.1,M,,*59
$GPGGA,153944.00,5351.50037,N,02729.06794,E,1,04,4.52,271.5,M,25.1,M,,*53
$GPGGA,153945.00,5351.50046,N,02729.06936,E,1,04,4.52,270.0,M,25.1,M,,*56
$GPGGA,153946.00,5351.50050,N,02729.07110,E,1,04,4.52,268.7,M,25.1,M,,*51
$GPGGA,153947.00,5351.50069,N,02729.07283,E,1,03,4.52,267.3,M,25.1,M,,*5F
$GPGGA,153948.00,5351.50101,N,02729.07444,E,1,04,4.52,265.9,M,25.1,M,,*5D
$GPGGA,153949.00,5351.50135,N,02729.07604,E,1,03,4.52,264.5,M,25.1,M,,*57
$GPGGA,153950.00,5351.50162,N,02729.07711,E,1,03,4.52,263.3,M,25.1,M,,*59
$GPGGA,153951.00,5351.50198,N,02729.07797,E,1,03,4.52,262.4,M,25.1,M,,*55
$GPGGA,153952.00,5351.50231,N,02729.07894,E,1,03,4.52,261.5,M,25.1,M,,*58
$GPGGA,153953.00,5351.50231,N,02729.07975,E,1,03,4.52,260.8,M,25.1,M,,*5B
$GPGGA,153954.00,5351.50233,N,02729.08049,E,1,03,4.52,260.1,M,25.1,M,,*5E
$GPGGA,153955.00,5351.50245,N,02729.08131,E,1,03,4.52,259.5,M,25.1,M,,*5E
$GPGGA,153956.00,5351.50268,N,02729.08230,E,1,03,4.52,258.8,M,25.1,M,,*5C
$GPGGA,153957.00,5351.50287,N,02729.08316,E,1,04,4.52,258.1,M,25.1,M,,*57
$GPGGA,153958.00,5351.50312,N,02729.08420,E,1,03,4.52,257.3,M,25.1,M,,*5D
$GPGGA,153959.00,5351.50333,N,02729.08505,E,1,03,4.52,256.7,M,25.1,M,,*5C
$GPGGA,154000.00,5351.50361,N,02729.08577,E,1,03,4.52,256.1,M,25.1,M,,*5A
$GPGGA,154001.00,5351.50392,N,02729.08656,E,1,03,4.52,255.6,M,25.1,M,,*53
$GPGGA,154002.00,5351.50415,N,02729.08731,E,1,03,4.52,255.0,M,25.1,M,,*5E
$GPGGA,154003.00,5351.50409,N,02729.08768,E,1,03,4.52,254.7,M,25.1,M,,*58
$GPGGA,154004.00,5351.50418,N,02729.08807,E,1,03,4.52,254.4,M,25.1,M,,*5A
$GPGGA,154005.00,5351.50428,N,02729.08862,E,1,03,4.52,254.0,M,25.1,M,,*5F
$GPGGA,154006.00,5351.50434,N,02729.08898,E,1,03,4.53,253.7,M,25.1,M,,*55
$GPGGA,154007.00,5351.50429,N,02729.08930,E,1,03,4.53,253.4,M,25.1,M,,*58
$GPGGA,154008.00,5351.50432,N,02729.08958,E,1,03,4.53,253.2,M,25.1,M,,*55
$GPGGA,154009.00,5351.50429,N,02729.08982,E,1,03,4.53,253.0,M,25.1,M,,*5B
$GPGGA,154010.00,5351.50433,N,02729.09012,E,1,03,4.53,252.7,M,25.1,M,,*5F
$GPGGA,154011.00,5351.50432,N,02729.09045,E,1,03,4.53,252.5,M,25.1,M,,*5F
$GPGGA,154012.00,5351.50416,N,02729.09051,E,1,03,4.53,252.3,M,25.1,M,,*59
$GPGGA,154013.00,5351.50418,N,02729.09066,E,1,03,4.53,252.1,M,25.1,M,,*50
$GPGGA,154014.00,5351.50413,N,02729.09068,E,1,03,4.53,251.9,M,25.1,M,,*59
$GPGGA,154015.00,5351.50408,N,02729.09090,E,1,03,4.53,251.7,M,25.1,M,,*5B
$GPGGA,154016.00,5351.50408,N,02729.09114,E,1,03,4.53,251.4,M,25.1,M,,*56
$GPGGA,154017.00,5351.50432,N,02729.09163,E,1,03,4.53,251.1,M,25.1,M,,*5B
$GPGGA,154018.00,5351.50462,N,02729.09222,E,1,03,4.53,250.8,M,25.1,M,,*5F
$GPGGA,154019.00,5351.50488,N,02729.09257,E,1,03,4.53,250.6,M,25.1,M,,*56
$GPGGA,154020.00,5351.50492,N,02729.09273,E,1,03,4.53,250.3,M,25.1,M,,*54
$GPGGA,154021.00,5351.50500,N,02729.09285,E,1,03,4.53,250.1,M,25.1,M,,*54
$GPGGA,154022.00,5351.50510,N,02729.09299,E,1,03,4.53,249.9,M,25.1,M,,*5B
$GPGGA,154023.00,5351.50536,N,02729.09326,E,1,03,4.53,249.7,M,25.1,M,,*55
$GPGGA,154024.00,5351.50532,N,02729.09326,E,1,03,4.53,249.5,M,25.1,M,,*54
$GPGGA,154025.00,5351.50552,N,02729.09372,E,1,03,4.53,249.2,M,25.1,M,,*55
$GPGGA,154026.00,5351.50571,N,02729.09401,E,1,03,4.53,249.0,M,25.1,M,,*56
$GPGGA,154027.00,5351.50588,N,02729.09435,E,1,03,4.53,248.8,M,25.1,M,,*5F
$GPGGA,154028.00,5351.50592,N,02729.09453,E,1,03,4.53,248.7,M,25.1,M,,*54
$GPGGA,154029.00,5351.50584,N,02729.09458,E,1,03,4.53,248.5,M,25.1,M,,*5B
$GPGGA,154030.00,5351.50583,N,02729.09470,E,1,03,4.53,248.4,M,25.1,M,,*5F
$GPGGA,154031.00,5351.50587,N,02729.09486,E,1,03,4.53,248.2,M,25.1,M,,*55
$GPGGA,154032.00,5351.50605,N,02729.09516,E,1,03,4.53,248.0,M,25.1,M,,*55
$GPGGA,154033.00,5351.50591,N,02729.09500,E,1,03,4.53,247.8,M,25.1,M,,*5A
$GPGGA,154034.00,5351.50585,N,02729.09506,E,1,03,4.53,247.6,M,25.1,M,,*50
$GPGGA,154035.00,5351.50572,N,02729.09496,E,1,03,4.53,247.5,M,25.1,M,,*52
$GPGGA,154036.00,5351.50575,N,02729.09513,E,1,03,4.54,247.3,M,25.1,M,,*5B
$GPGGA,154037.00,5351.50574,N,02729.09513,E,1,03,4.54,247.0,M,25.1,M,,*58
$GPGGA,154038.00,5351.50589,N,02729.09536,E,1,03,4.54,246.8,M,25.1,M,,*5B
$GPGGA,154039.00,5351.50594,N,02729.09543,E,1,03,4.54,246.6,M,25.1,M,,*5A
$GPGGA,154040.00,5351.50605,N,02729.09550,E,1,03,4.54,246.4,M,25.1,M,,*5F
$GPGGA,154041.00,5351.50619,N,02729.09562,E,1,03,4.54,246.2,M,25.1,M,,*54
$GPGGA,154042.00,5351.50613,N,02729.09552,E,1,03,4.54,246.0,M,25.1,M,,*5C
$GPGGA,154043.00,5351.50596,N,02729.09523,E,1,03,4.54,245.9,M,25.1,M,,*5F
$GPGGA,154044.00,5351.50590,N,02729.09502,E,1,03,4.54,245.7,M,25.1,M,,*53
$GPGGA,154045.00,5351.50590,N,02729.09491,E,1,03,4.54,245.6,M,25.1,M,,*58
$GPGGA,154046.00,5351.50581,N,02729.09486,E,1,03,4.54,245.4,M,25.1,M,,*5F
$GPGGA,154047.00,5351.50564,N,02729.09467,E,1,03,4.54,245.3,M,25.1,M,,*5D
$GPGGA,154048.00,5351.50566,N,02729.09469,E,1,03,4.54,245.1,M,25.1,M,,*5C
$GPGGA,154049.00,5351.50568,N,02729.09462,E,1,03,4.54,244.9,M,25.1,M,,*51
$GPGGA,154050.00,5351.50573,N,02729.09470,E,1,03,4.54,244.8,M,25.1,M,,*51
$GPGGA,154051.00,5351.50581,N,02729.09487,E,1,03,4.54,244.6,M,25.1,M,,*5B
$GPGGA,154052.00,5351.50595,N,02729.09514,E,1,03,4.54,244.5,M,25.1,M,,*55
$GPGGA,154053.00,5351.50601,N,02729.09522,E,1,03,4.54,244.4,M,25.1,M,,*5E
$GPGGA,154054.00,5351.50600,N,02729.09506,E,1,03,4.54,244.2,M,25.1,M,,*58
$GPGGA,154055.00,5351.50614,N,02729.09535,E,1,03,4.54,244.1,M,25.1,M,,*5F
$GPGGA,154056.00,5351.50581,N,02729.09504,E,1,03,4.54,244.0,M,25.1,M,,*50
$GPGGA,154057.00,5351.50579,N,02729.09502,E,1,03,4.54,243.9,M,25.1,M,,*5E
$GPGGA,154058.00,5351.50590,N,02729.09532,E,1,03,4.54,243.8,M,25.1,M,,*54
$GPGGA,154059.00,5351.50583,N,02729.09539,E,1,03,4.54,243.7,M,25.1,M,,*53
$GPGGA,154100.00,5351.50575,N,02729.09538,E,1,03,4.54,243.5,M,25.1,M,,*54
$GPGGA,154101.00,5351.50570,N,02729.09524,E,1,03,4.54,243.4,M,25.1,M,,*5C
$GPGGA,154102.00,5351.50563,N,02729.09503,E,1,03,4.54,243.3,M,25.1,M,,*5F
$GPGGA,154103.00,5351.50559,N,02729.09499,E,1,03,4.54,243.2,M,25.1,M,,*54
$GPGGA,154104.00,5351.50542,N,02729.09492,E,1,03,4.54,243.1,M,25.1,M,,*51
$GPGGA,154105.00,5351.50536,N,02729.09496,E,1,03,4.54,243.0,M,25.1,M,,*56
$GPGGA,154106.00,5351.50517,N,02729.09476,E,1,03,4.54,242.9,M,25.1,M,,*50
$GPGGA,154107.00,5351.50518,N,02729.09496,E,1,03,4.55,242.8,M,25.1,M,,*50
$GPGGA,154108.00,5351.50523,N,02729.09531,E,1,03,4.55,242.7,M,25.1,M,,*54
$GPGGA,154109.00,5351.50522,N,02729.09551,E,1,03,4.55,242.6,M,25.1,M,,*53
$GPGGA,154110.00,5351.50515,N,02729.09565,E,1,03,4.55,242.5,M,25.1,M,,*5B
$GPGGA,154111.00,5351.50511,N,02729.09580,E,1,03,4.55,242.4,M,25.1,M,,*54
$GPGGA,154112.00,5351.50507,N,02729.09596,E,1,03,4.55,242.3,M,25.1,M,,*50
$GPGGA,154113.00,5351.50507,N,02729.09613,E,1,03,4.55,242.2,M,25.1,M,,*5E
$GPGGA,154114.00,5351.50500,N,02729.09624,E,1,03,4.55,242.2,M,25.1,M,,*5A
$GPGGA,154115.00,5351.50493,N,02729.09626,E,1,03,4.55,242.1,M,25.1,M,,*51
$GPGGA,154116.00,5351.50488,N,02729.09632,E,1,03,4.55,242.0,M,25.1,M,,*5C
$GPGGA,154117.00,5351.50489,N,02729.09653,E,1,03,4.55,241.9,M,25.1,M,,*51
$GPGGA,154118.00,5351.50483,N,02729.09654,E,1,03,4.55,241.8,M,25.1,M,,*52
$GPGGA,154119.00,5351.50473,N,02729.09643,E,1,03,4.55,241.7,M,25.1,M,,*55
$GPGGA,154120.00,5351.50485,N,02729.09674,E,1,03,4.55,241.6,M,25.1,M,,*53
$GPGGA,154121.00,5351.50496,N,02729.09704,E,1,03,4.55,241.5,M,25.1,M,,*55
$GPGGA,154122.00,5351.50497,N,02729.09722,E,1,03,4.55,241.4,M,25.1,M,,*52
$GPGGA,154123.00,5351.50492,N,02729.09723,E,1,03,4.55,241.3,M,25.1,M,,*50
$GPGGA,154124.00,5351.50489,N,02729.09743,E,1,03,4.55,241.2,M,25.1,M,,*5A
$GPGGA,154125.00,5351.50481,N,02729.09751,E,1,03,4.55,241.1,M,25.1,M,,*53
$GPGGA,154126.00,5351.50484,N,02729.09787,E,1,03,4.55,241.1,M,25.1,M,,*5E
$GPGGA,154127.00,5351.50487,N,02729.09818,E,1,03,4.55,241.0,M,25.1,M,,*54
$GPGGA,154128.00,5351.50487,N,02729.09852,E,1,03,4.55,240.9,M,25.1,M,,*5D
$GPGGA,154129.00,5351.50493,N,02729.09893,E,1,03,4.55,240.8,M,25.1,M,,*55
$GPGGA,154130.00,5351.50492,N,02729.09917,E,1,03,4.55,240.7,M,25.1,M,,*5E
$GPGGA,154131.00,5351.50485,N,02729.09917,E,1,03,4.55,240.6,M,25.1,M,,*58
$GPGGA,154132.00,5351.50473,N,02729.09902,E,1,03,4.55,240.5,M,25.1,M,,*55
$GPGGA,154133.00,5351.50474,N,02729.09917,E,1,03,4.55,240.4,M,25.1,M,,*56
$GPGGA,154134.00,5351.50470,N,02729.09921,E,1,03,4.55,240.3,M,25.1,M,,*57
$GPGGA,154135.00,5351.50453,N,02729.09903,E,1,03,4.55,240.3,M,25.1,M,,*57
$GPGGA,154136.00,5351.50439,N,02729.09880,E,1,03,4.55,240.2,M,25.1,M,,*53
$GPGGA,154137.00,5351.50449,N,02729.09920,E,1,03,4.56,240.1,M,25.1,M,,*5E
$GPGGA,154138.00,5351.50460,N,02729.09954,E,1,03,4.56,240.0,M,25.1,M,,*58
$GPGGA,154139.00,5351.50454,N,02729.09948,E,1,03,4.56,239.9,M,25.1,M,,*54
$GPGGA,154140.00,5351.50444,N,02729.09936,E,1,03,4.56,239.8,M,25.1,M,,*53
$GPGGA,154141.00,5351.50437,N,02729.09938,E,1,03,4.56,239.8,M,25.1,M,,*58
$GPGGA,154142.00,5351.50439,N,02729.09951,E,1,03,4.56,239.7,M,25.1,M,,*55
$GPGGA,154143.00,5351.50433,N,02729.09950,E,1,03,4.56,239.6,M,25.1,M,,*5E
$GPGGA,154144.00,5351.50426,N,02729.09947,E,1,03,4.56,239.5,M,25.1,M,,*58
$GPGGA,154145.00,5351.50425,N,02729.09953,E,1,03,4.56,239.4,M,25.1,M,,*5E
$GPGGA,154146.00,5351.50426,N,02729.09958,E,1,03,4.56,239.4,M,25.1,M,,*55
$GPGGA,154147.00,5351.50433,N,02729.09973,E,1,03,4.56,239.3,M,25.1,M,,*5E
$GPGGA,154148.00,5351.50457,N,02729.10022,E,1,03,4.56,239.2,M,25.1,M,,*57
$GPGGA,154149.00,5351.50457,N,02729.10038,E,1,03,4.56,239.1,M,25.1,M,,*5E
$GPGGA,154150.00,5351.50448,N,02729.10029,E,1,03,4.56,239.0,M,25.1,M,,*59
$GPGGA,154151.00,5351.50443,N,02729.10027,E,1,03,4.56,239.0,M,25.1,M,,*5D
$GPGGA,154152.00,5351.50436,N,02729.10033,E,1,03,4.56,238.9,M,25.1,M,,*51
$GPGGA,154153.00,5351.50425,N,02729.10029,E,1,04,4.56,238.8,M,25.1,M,,*5F
$GPGGA,154154.00,5351.50417,N,02729.10035,E,1,04,4.56,238.8,M,25.1,M,,*54
$GPGGA,154155.00,5351.50409,N,02729.10030,E,1,04,4.56,238.7,M,25.1,M,,*50
$GPGGA,154156.00,5351.50410,N,02729.10037,E,1,03,4.56,238.6,M,25.1,M,,*5A
$GPGGA,154157.00,5351.50423,N,02729.10085,E,1,04,4.56,238.6,M,25.1,M,,*55
$GPGGA,154158.00,5351.50424,N,02729.10102,E,1,04,4.56,238.5,M,25.1,M,,*50
$GPGGA,154159.00,5351.50413,N,02729.10083,E,1,04,4.56,238.4,M,25.1,M,,*5C
$GPGGA,154200.00,5351.50416,N,02729.10093,E,1,04,4.56,238.4,M,25.1,M,,*57
$GPGGA,154201.00,5351.50413,N,02729.10102,E,1,04,4.56,238.3,M,25.1,M,,*5D
$GPGGA,154202.00,5351.50405,N,02729.10100,E,1,04,4.56,238.2,M,25.1,M,,*5A
$GPGGA,154203.00,5351.50400,N,02729.10098,E,1,04,4.56,238.2,M,25.1,M,,*5E
$GPGGA,154204.00,5351.50396,N,02729.10098,E,1,04,4.56,238.1,M,25.1,M,,*52
$GPGGA,154205.00,5351.50400,N,02729.10127,E,1,04,4.56,238.0,M,25.1,M,,*5F
$GPGGA,154206.00,5351.50390,N,02729.10130,E,1,04,4.56,238.0,M,25.1,M,,*54
$GPGGA,154207.00,5351.50375,N,02729.10105,E,1,04,4.57,237.9,M,25.1,M,,*5F
$GPGGA,154208.00,5351.50365,N,02729.10088,E,1,04,4.57,237.8,M,25.1,M,,*54
$GPGGA,154209.00,5351.50366,N,02729.10104,E,1,03,4.57,237.8,M,25.1,M,,*54
$GPGGA,154210.00,5351.50360,N,02729.10110,E,1,03,4.57,237.7,M,25.1,M,,*50
$GPGGA,154211.00,5351.50356,N,02729.10120,E,1,03,4.57,237.7,M,25.1,M,,*57
$GPGGA,154212.00,5351.50339,N,02729.10099,E,1,03,4.57,237.6,M,25.1,M,,*5F
$GPGGA,154213.00,5351.50341,N,02729.10105,E,1,03,4.57,237.5,M,25.1,M,,*56
$GPGGA,154214.00,5351.50346,N,02729.10113,E,1,03,4.57,237.5,M,25.1,M,,*51
$GPGGA,154215.00,5351.50338,N,02729.10107,E,1,03,4.57,237.4,M,25.1,M,,*5D
$GPGGA,154216.00,5351.50329,N,02729.10101,E,1,03,4.57,237.3,M,25.1,M,,*5F
$GPGGA,154217.00,5351.50331,N,02729.10112,E,1,03,4.57,237.3,M,25.1,M,,*55
$GPGGA,154218.00,5351.50333,N,02729.10128,E,1,03,4.57,237.2,M,25.1,M,,*50
$GPGGA,154219.00,5351.50329,N,02729.10127,E,1,03,4.57,237.1,M,25.1,M,,*56
$GPGGA,154220.00,5351.50313,N,02729.10105,E,1,03,4.57,237.0,M,25.1,M,,*54
$GPGGA,154221.00,5351.50308,N,02729.10095,E,1,04,4.57,237.0,M,25.1,M,,*50
$GPGGA,154222.00,5351.50296,N,02729.10084,E,1,04,4.57,236.9,M,25.1,M,,*5D
$GPGGA,154223.00,5351.50291,N,02729.10081,E,1,04,4.57,236.8,M,25.1,M,,*5F
$GPGGA,154224.00,5351.50293,N,02729.10085,E,1,03,4.57,236.7,M,25.1,M,,*56
$GPGGA,154225.00,5351.50286,N,02729.10073,E,1,03,4.57,236.6,M,25.1,M,,*5B
$GPGGA,154226.00,5351.50287,N,02729.10075,E,1,03,4.57,236.5,M,25.1,M,,*5C
$GPGGA,154227.00,5351.50289,N,02729.10078,E,1,03,4.57,236.4,M,25.1,M,,*5F
$GPGGA,154228.00,5351.50288,N,02729.10075,E,1,03,4.57,236.3,M,25.1,M,,*5B
$GPGGA,154229.00,5351.50283,N,02729.10065,E,1,03,4.57,236.3,M,25.1,M,,*50
$GPGGA,154230.00,5351.50271,N,02729.10046,E,1,03,4.57,236.2,M,25.1,M,,*55
$GPGGA,154231.00,5351.50265,N,02729.10039,E,1,03,4.57,236.1,M,25.1,M,,*5A
$GPGGA,154232.00,5351.50264,N,02729.10037,E,1,03,4.57,236.0,M,25.1,M,,*57
$GPGGA,154233.00,5351.50255,N,02729.10028,E,1,04,4.57,235.9,M,25.1,M,,*57
$GPGGA,154234.00,5351.50254,N,02729.10025,E,1,04,4.57,235.9,M,25.1,M,,*5C
$GPGGA,154235.00,5351.50108,N,02729.09670,E,1,04,9.81,235.6,M,25.1,M,,*50
$GPGGA,154236.00,5351.49966,N,02729.09238,E,1,04,9.81,235.5,M,25.1,M,,*50
$GPGGA,154237.00,5351.49723,N,02729.08799,E,1,04,9.81,234.4,M,25.1,M,,*51
$GPGGA,154238.00,5351.49452,N,02729.08442,E,1,04,9.82,231.3,M,25.1,M,,*5F
$GPGGA,154239.00,5351.49090,N,02729.08043,E,1,04,9.82,227.3,M,25.1,M,,*56
$GPGGA,154240.00,5351.48616,N,02729.07586,E,1,04,9.82,221.9,M,25.1,M,,*5E
$GPGGA,154241.00,5351.48056,N,02729.07114,E,1,04,9.83,213.4,M,25.1,M,,*5F
$GPGGA,154242.00,5351.47413,N,02729.06602,E,1,04,9.83,204.0,M,25.1,M,,*55
$GPGGA,154243.00,5351.46744,N,02729.06118,E,1,04,9.83,193.9,M,25.1,M,,*5C
$GPGGA,154244.00,5351.46094,N,02729.05740,E,1,04,9.84,182.9,M,25.1,M,,*5E
$GPGGA,154245.00,5351.45423,N,02729.05283,E,1,04,9.84,171.9,M,25.1,M,,*52
$GPGGA,154246.00,5351.44705,N,02729.04913,E,1,04,9.85,158.3,M,25.1,M,,*54
$GPGGA,154247.00,5351.46794,N,02729.03910,E,1,04,4.58,215.0,M,25.1,M,,*5F
$GPGGA,154248.00,5351.46979,N,02729.03747,E,1,04,4.58,220.4,M,25.1,M,,*53
$GPGGA,154249.00,5351.46932,N,02729.03671,E,1,04,4.58,220.0,M,25.1,M,,*5D
$GPGGA,154250.00,5351.46948,N,02729.03812,E,1,04,4.58,219.2,M,25.1,M,,*5B
$GPGGA,154251.00,5351.47007,N,02729.04067,E,1,04,4.58,218.3,M,25.1,M,,*54
$GPGGA,154252.00,5351.47038,N,02729.04266,E,1,04,4.58,217.4,M,25.1,M,,*50
$GPGGA,154253.00,5351.47047,N,02729.04393,E,1,03,4.58,216.5,M,25.1,M,,*55
$GPGGA,154254.00,5351.47056,N,02729.04496,E,1,03,4.58,215.6,M,25.1,M,,*50
$GPGGA,154255.00,5351.47060,N,02729.04600,E,1,03,4.58,214.7,M,25.1,M,,*59
$GPGGA,154256.00,5351.47081,N,02729.04735,E,1,03,4.58,214.0,M,25.1,M,,*55
$GPGGA,154257.00,5351.47094,N,02729.04832,E,1,03,4.58,213.2,M,25.1,M,,*5D
$GPGGA,154258.00,5351.47094,N,02729.04856,E,1,03,4.58,212.5,M,25.1,M,,*56
$GPGGA,154259.00,5351.47138,N,02729.05024,E,1,03,4.58,211.9,M,25.1,M,,*53
$GPGGA,154300.00,5351.47176,N,02729.05155,E,1,03,4.58,211.5,M,25.1,M,,*5F
$GPGGA,154301.00,5351.47208,N,02729.05296,E,1,03,4.58,211.0,M,25.1,M,,*5D
$GPGGA,154302.00,5351.47235,N,02729.05423,E,1,03,4.58,210.5,M,25.1,M,,*5C
$GPGGA,154303.00,5351.47307,N,02729.05685,E,1,03,4.58,210.2,M,25.1,M,,*54
$GPGGA,154304.00,5351.47368,N,02729.05904,E,1,03,4.58,209.9,M,25.1,M,,*5F
$GPGGA,154305.00,5351.47425,N,02729.06126,E,1,04,4.59,209.6,M,25.1,M,,*52
$GPGGA,154306.00,5351.47428,N,02729.06180,E,1,04,4.59,209.4,M,25.1,M,,*52
$GPGGA,154307.00,5351.47468,N,02729.06324,E,1,03,4.59,209.1,M,25.1,M,,*59
$GPGGA,154308.00,5351.47511,N,02729.06479,E,1,03,4.59,208.9,M,25.1,M,,*5F
$GPGGA,154309.00,5351.47553,N,02729.06624,E,1,03,4.59,208.7,M,25.1,M,,*5C
$GPGGA,154310.00,5351.47599,N,02729.06779,E,1,03,4.59,208.5,M,25.1,M,,*59
$GPGGA,154311.00,5351.47635,N,02729.06886,E,1,03,4.59,208.3,M,25.1,M,,*54
$GPGGA,154312.00,5351.47658,N,02729.06948,E,1,03,4.59,208.1,M,25.1,M,,*5D
$GPGGA,154313.00,5351.47660,N,02729.06941,E,1,03,4.59,207.9,M,25.1,M,,*59
$GPGGA,154314.00,5351.47667,N,02729.06951,E,1,03,4.59,207.7,M,25.1,M,,*56
$GPGGA,154315.00,5351.47694,N,02729.07023,E,1,03,4.59,207.6,M,25.1,M,,*57
$GPGGA,154316.00,5351.47689,N,02729.06999,E,1,03,4.59,207.5,M,25.1,M,,*52
$GPGGA,154317.00,5351.47726,N,02729.07093,E,1,03,4.59,207.3,M,25.1,M,,*53
$GPGGA,154318.00,5351.47747,N,02729.07147,E,1,03,4.59,207.2,M,25.1,M,,*52
$GPGGA,154319.00,5351.47804,N,02729.07338,E,1,03,4.59,207.1,M,25.1,M,,*52
$GPGGA,154320.00,5351.47832,N,02729.07425,E,1,03,4.59,207.1,M,25.1,M,,*56
$GPGGA,154321.00,5351.47847,N,02729.07451,E,1,03,4.59,207.0,M,25.1,M,,*57
$GPGGA,154322.00,5351.47852,N,02729.07448,E,1,03,4.59,206.9,M,25.1,M,,*50
$GPGGA,154323.00,5351.47925,N,02729.07692,E,1,03,4.59,206.9,M,25.1,M,,*55
$GPGGA,154324.00,5351.47938,N,02729.07730,E,1,03,4.59,206.9,M,25.1,M,,*57
$GPGGA,154325.00,5351.47935,N,02729.07683,E,1,03,4.59,206.8,M,25.1,M,,*53
$GPGGA,154326.00,5351.47965,N,02729.07769,E,1,03,4.59,206.7,M,25.1,M,,*5F
$GPGGA,154327.00,5351.48012,N,02729.07924,E,1,03,4.59,206.7,M,25.1,M,,*5F
$GPGGA,154328.00,5351.48039,N,02729.07989,E,1,03,4.59,206.6,M,25.1,M,,*5F
$GPGGA,154329.00,5351.48034,N,02729.07967,E,1,03,4.59,206.5,M,25.1,M,,*50
$GPGGA,154330.00,5351.48056,N,02729.08000,E,1,03,4.59,206.5,M,25.1,M,,*5B
$GPGGA,154331.00,5351.48079,N,02729.08021,E,1,03,4.59,206.4,M,25.1,M,,*55
$GPGGA,154332.00,5351.48118,N,02729.08115,E,1,03,4.59,206.4,M,25.1,M,,*56
$GPGGA,154333.00,5351.48162,N,02729.08216,E,1,03,4.59,206.3,M,25.1,M,,*5D
$GPGGA,154334.00,5351.48221,N,02729.08361,E,1,03,4.60,206.3,M,25.1,M,,*55
$GPGGA,154335.00,5351.48265,N,02729.08455,E,1,03,4.60,206.2,M,25.1,M,,*55
$GPGGA,154336.00,5351.48235,N,02729.08352,E,1,03,4.60,206.2,M,25.1,M,,*53
$GPGGA,154337.00,5351.48310,N,02729.08553,E,1,03,4.60,206.2,M,25.1,M,,*53
$GPGGA,154338.00,5351.48292,N,02729.08481,E,1,03,4.60,206.2,M,25.1,M,,*59
$GPGGA,154339.00,5351.48290,N,02729.08464,E,1,03,4.60,206.2,M,25.1,M,,*51
$GPGGA,154340.00,5351.48317,N,02729.08535,E,1,03,4.60,206.2,M,25.1,M,,*54
$GPGGA,154341.00,5351.48342,N,02729.08602,E,1,03,4.60,206.2,M,25.1,M,,*52
$GPGGA,154342.00,5351.48331,N,02729.08531,E,1,03,4.60,206.2,M,25.1,M,,*56
$GPGGA,154343.00,5351.48341,N,02729.08549,E,1,03,4.60,206.3,M,25.1,M,,*5E
$GPGGA,154344.00,5351.48353,N,02729.08575,E,1,04,4.60,206.3,M,25.1,M,,*52
$GPGGA,154345.00,5351.48369,N,02729.08605,E,1,04,4.60,206.3,M,25.1,M,,*5E
$GPGGA,154346.00,5351.48359,N,02729.08574,E,1,04,4.60,206.3,M,25.1,M,,*5B
$GPGGA,154347.00,5351.48368,N,02729.08593,E,1,04,4.60,206.3,M,25.1,M,,*51
$GPGGA,154348.00,,,,,0,00,99.99,,,,,,*69
$GPGGA,154349.00,,,,,0,00,99.99,,,,,,*68
$GPGGA,154350.00,,,,,0,00,99.99,,,,,,*60
$GPGGA,154351.00,,,,,0,00,99.99,,,,,,*61
$GPGGA,154352.00,,,,,0,00,99.99,,,,,,*62
$GPGGA,154353.00,,,,,0,00,99.99,,,,,,*63
$GPGGA,154354.00,5351.48422,N,02729.08845,E,1,03,4.60,206.2,M,25.1,M,,*5A
$GPGGA,154355.00,5351.48550,N,02729.09227,E,1,03,4.60,206.2,M,25.1,M,,*50
$GPGGA,154356.00,5351.48568,N,02729.09257,E,1,03,4.60,206.3,M,25.1,M,,*5E
$GPGGA,154357.00,5351.48556,N,02729.09160,E,1,03,4.60,206.3,M,25.1,M,,*55
$GPGGA,154358.00,5351.48611,N,02729.09271,E,1,03,4.60,206.3,M,25.1,M,,*59
$GPGGA,154359.00,5351.48591,N,02729.09180,E,1,03,4.60,206.3,M,25.1,M,,*5E
$GPGGA,154400.00,5351.48584,N,02729.09109,E,1,03,4.60,206.3,M,25.1,M,,*50
$GPGGA,154401.00,5351.48482,N,02729.08781,E,1,03,4.60,206.3,M,25.1,M,,*51
$GPGGA,154402.00,5351.48491,N,02729.08728,E,1,03,4.60,206.3,M,25.1,M,,*53
$GPGGA,154403.00,5351.48509,N,02729.08770,E,1,03,4.61,206.3,M,25.1,M,,*5E
$GPGGA,154404.00,5351.48498,N,02729.08721,E,1,03,4.61,206.4,M,25.1,M,,*53
$GPGGA,154405.00,5351.48526,N,02729.08762,E,1,03,4.61,206.4,M,25.1,M,,*51
$GPGGA,154406.00,5351.48505,N,02729.08676,E,1,03,4.61,206.4,M,25.1,M,,*57
$GPGGA,154407.00,5351.48549,N,02729.08782,E,1,03,4.61,206.4,M,25.1,M,,*54
$GPGGA,154408.00,5351.48558,N,02729.08789,E,1,03,4.61,206.4,M,25.1,M,,*50
$GPGGA,154409.00,5351.48565,N,02729.08778,E,1,03,4.61,206.4,M,25.1,M,,*51
$GPGGA,154410.00,5351.48551,N,02729.08713,E,1,03,4.61,206.4,M,25.1,M,,*53
$GPGGA,154411.00,5351.48515,N,02729.08580,E,1,03,4.61,206.4,M,25.1,M,,*5A
$GPGGA,154412.00,5351.48596,N,02729.08834,E,1,03,4.61,206.5,M,25.1,M,,*51
$GPGGA,154413.00,5351.48581,N,02729.08768,E,1,03,4.61,206.5,M,25.1,M,,*50
$GPGGA,154414.00,5351.48646,N,02729.08924,E,1,03,4.61,206.5,M,25.1,M,,*59
$GPGGA,154415.00,5351.48630,N,02729.08869,E,1,03,4.61,206.5,M,25.1,M,,*51
$GPGGA,154416.00,5351.48664,N,02729.09003,E,1,03,4.61,206.5,M,25.1,M,,*56
$GPGGA,154417.00,5351.48668,N,02729.09027,E,1,03,4.61,206.6,M,25.1,M,,*5E
$GPGGA,154418.00,5351.48606,N,02729.08820,E,1,03,4.61,206.6,M,25.1,M,,*57
$GPGGA,154419.00,5351.48580,N,02729.08736,E,1,03,4.61,206.6,M,25.1,M,,*53
$GPGGA,154420.00,5351.48562,N,02729.08666,E,1,04,4.61,206.6,M,25.1,M,,*56
$GPGGA,154421.00,5351.48576,N,02729.08695,E,1,04,4.61,206.6,M,25.1,M,,*5E
$GPGGA,154422.00,5351.48552,N,02729.08613,E,1,04,4.61,206.7,M,25.1,M,,*54
$GPGGA,154423.00,5351.48581,N,02729.08708,E,1,03,4.61,206.7,M,25.1,M,,*57
$GPGGA,154424.00,5351.48579,N,02729.08715,E,1,03,4.61,206.7,M,25.1,M,,*5B
$GPGGA,154425.00,5351.48609,N,02729.08808,E,1,03,4.61,206.7,M,25.1,M,,*5D
$GPGGA,154426.00,5351.48617,N,02729.08834,E,1,03,4.61,206.8,M,25.1,M,,*51
$GPGGA,154427.00,5351.48703,N,02729.09085,E,1,03,4.61,206.8,M,25.1,M,,*57
$GPGGA,154428.00,5351.48736,N,02729.09193,E,1,03,4.61,206.8,M,25.1,M,,*58
$GPGGA,154429.00,5351.48682,N,02729.09021,E,1,03,4.61,206.9,M,25.1,M,,*5E
$GPGGA,154430.00,5351.48614,N,02729.08819,E,1,03,4.61,206.9,M,25.1,M,,*5B
$GPGGA,154431.00,5351.48520,N,02729.08503,E,1,03,4.61,206.9,M,25.1,M,,*58
$GPGGA,154432.00,5351.48516,N,02729.08501,E,1,03,4.62,206.9,M,25.1,M,,*5F
$GPGGA,154433.00,5351.48502,N,02729.08490,E,1,04,4.62,207.0,M,25.1,M,,*5D
$GPGGA,154434.00,5351.48524,N,02729.08593,E,1,04,4.62,207.0,M,25.1,M,,*5C
$GPGGA,154435.00,5351.48863,N,02729.09802,E,1,04,10.25,205.0,M,25.1,M,,*63
$GPGGA,154436.00,5351.49106,N,02729.10396,E,1,04,10.26,204.0,M,25.1,M,,*67
$GPGGA,154437.00,5351.49287,N,02729.10800,E,1,04,10.26,203.9,M,25.1,M,,*66
$GPGGA,154438.00,5351.49423,N,02729.11008,E,1,04,10.26,204.8,M,25.1,M,,*66
$GPGGA,154439.00,5351.49522,N,02729.11039,E,1,04,10.27,206.0,M,25.1,M,,*6E
$GPGGA,154440.00,5351.49570,N,02729.10966,E,1,04,10.27,207.2,M,25.1,M,,*66
$GPGGA,154441.00,5351.49395,N,02729.10853,E,1,03,4.62,204.2,M,25.1,M,,*5D
$GPGGA,154442.00,5351.49357,N,02729.10713,E,1,03,4.62,204.9,M,25.1,M,,*50
$GPGGA,154443.00,5351.49342,N,02729.10660,E,1,03,4.62,205.6,M,25.1,M,,*5E
$GPGGA,154444.00,5351.49311,N,02729.10566,E,1,03,4.62,206.2,M,25.1,M,,*5D
$GPGGA,154445.00,5351.49271,N,02729.10441,E,1,03,4.62,206.7,M,25.1,M,,*5A
$GPGGA,154446.00,5351.49254,N,02729.10395,E,1,03,4.62,207.1,M,25.1,M,,*57
$GPGGA,154447.00,5351.49222,N,02729.10298,E,1,03,4.62,207.5,M,25.1,M,,*5F
$GPGGA,154448.00,5351.49178,N,02729.10177,E,1,03,4.62,207.7,M,25.1,M,,*5C
$GPGGA,154449.00,5351.49212,N,02729.10259,E,1,03,4.62,208.1,M,25.1,M,,*54
$GPGGA,154450.00,5351.49223,N,02729.10287,E,1,03,4.62,208.4,M,25.1,M,,*58
$GPGGA,154451.00,5351.49162,N,02729.10119,E,1,03,4.62,208.6,M,25.1,M,,*59
$GPGGA,154452.00,5351.49163,N,02729.10118,E,1,03,4.62,208.9,M,25.1,M,,*55
$GPGGA,154453.00,5351.49149,N,02729.10078,E,1,03,4.62,209.1,M,25.1,M,,*52
$GPGGA,154454.00,5351.49128,N,02729.10016,E,1,03,4.62,209.4,M,25.1,M,,*5F
$GPGGA,154455.00,,,,,0,00,99.99,,,,,,*62
$GPGGA,154456.00,,,,,0,00,99.99,,,,,,*61
$GPGGA,154457.00,,,,,0,00,99.99,,,,,,*60
$GPGGA,154458.00,,,,,0,00,99.99,,,,,,*6F
$GPGGA,154459.00,,,,,0,00,99.99,,,,,,*6E
$GPGGA,154500.00,5351.49088,N,02729.09962,E,1,03,4.63,209.7,M,25.1,M,,*54
$GPGGA,154501.00,5351.49157,N,02729.10207,E,1,03,4.63,209.9,M,25.1,M,,*58
$GPGGA,154502.00,,,,,0,00,99.99,,,,,,*61
$GPGGA,154503.00,,,,,0,00,99.99,,,,,,*60
$GPGGA,154504.00,,,,,0,00,99.99,,,,,,*67
$GPGGA,154505.00,,,,,0,00,99.99,,,,,,*66
$GPGGA,154506.00,,,,,0,00,99.99,,,,,,*65
$GPGGA,154507.00,5351.49221,N,02729.10511,E,1,03,4.63,210.0,M,25.1,M,,*5D
$GPGGA,154508.00,5351.49333,N,02729.10915,E,1,03,4.63,210.2,M,25.1,M,,*5A
$GPGGA,154509.00,5351.49456,N,02729.11382,E,1,03,4.63,210.3,M,25.1,M,,*5B
$GPGGA,154510.00,5351.49417,N,02729.11332,E,1,03,4.63,210.3,M,25.1,M,,*5D
$GPGGA,154511.00,5351.49351,N,02729.11175,E,1,03,4.63,210.4,M,25.1,M,,*5F
$GPGGA,154512.00,5351.49318,N,02729.11101,E,1,03,4.63,210.4,M,25.1,M,,*52
$GPGGA,154513.00,,,,,0,00,99.99,,,,,,*61
$GPGGA,154514.00,,,,,0,00,99.99,,,,,,*66
$GPGGA,154515.00,,,,,0,00,99.99,,,,,,*67
$GPGGA,154516.00,,,,,0,00,99.99,,,,,,*64
$GPGGA,154517.00,,,,,0,00,99.99,,,,,,*65
$GPGGA,154518.00,,,,,0,00,99.99,,,,,,*6A
$GPGGA,154519.00,,,,,0,00,99.99,,,,,,*6B
$GPGGA,154520.00,,,,,0,00,99.99,,,,,,*61
$GPGGA,154521.00,,,,,0,00,99.99,,,,,,*60
$GPGGA,154522.00,,,,,0,00,99.99,,,,,,*63
$GPGGA,154523.00,5351.49738,N,02729.12044,E,1,03,4.63,210.6,M,25.1,M,,*57
$GPGGA,154524.00,5351.49613,N,02729.11680,E,1,03,4.63,210.8,M,25.1,M,,*5B
$GPGGA,154525.00,5351.49616,N,02729.11694,E,1,03,4.63,210.9,M,25.1,M,,*5B
$GPGGA,154526.00,5351.49510,N,02729.11401,E,1,03,4.63,211.0,M,25.1,M,,*5B
$GPGGA,154527.00,,,,,0,00,99.99,,,,,,*66
$GPGGA,154528.00,,,,,0,00,99.99,,,,,,*69
$GPGGA,154529.00,,,,,0,00,99.99,,,,,,*68
$GPGGA,154530.00,,,,,0,00,99.99,,,,,,*60
$GPGGA,154531.00,,,,,0,00,99.99,,,,,,*61
$GPGGA,154532.00,5351.49438,N,02729.11163,E,1,03,4.64,211.1,M,25.1,M,,*52
$GPGGA,154533.00,5351.49357,N,02729.10985,E,1,03,4.64,211.1,M,25.1,M,,*5C
$GPGGA,154534.00,5351.49291,N,02729.10738,E,1,03,4.64,211.2,M,25.1,M,,*5B
$GPGGA,154535.00,5351.49257,N,02729.10596,E,1,03,4.64,211.3,M,25.1,M,,*57
$GPGGA,154536.00,5351.49184,N,02729.10393,E,1,03,4.64,211.5,M,25.1,M,,*5C
$GPGGA,154537.00,5351.49111,N,02729.10250,E,1,03,4.64,211.5,M,25.1,M,,*5F
$GPGGA,154538.00,5351.49159,N,02729.10395,E,1,03,4.64,211.5,M,25.1,M,,*54
$GPGGA,154539.00,5351.49133,N,02729.10319,E,1,03,4.64,211.6,M,25.1,M,,*5E
