$GPGLL,5351.53179,N,02729.07930,E,153704.00,A,A*65
$GPGLL,5351.53233,N,02729.07892,E,153705.00,A,A*60
$GPGLL,5351.53248,N,02729.07858,E,153706.00,A,A*69
$GPGLL,5351.53323,N,02729.07811,E,153707.00,A,A*69
$GPGLL,5351.53266,N,02729.07761,E,153708.00,A,A*6E
$GPGLL,5351.53275,N,02729.07756,E,153709.00,A,A*69
$GPGLL,5351.53282,N,02729.07743,E,153710.00,A,A*6D
$GPGLL,5351.53265,N,02729.07719,E,153711.00,A,A*6A
$GPGLL,5351.53260,N,02729.07748,E,153712.00,A,A*68
$GPGLL,5351.53124,N,02729.07581,E,153713.00,A,A*6D
$GPGLL,5351.53127,N,02729.07584,E,153714.00,A,A*6C
$GPGLL,5351.52184,N,02729.05511,E,153715.00,A,A*6B
$GPGLL,5351.51312,N,02729.04058,E,153716.00,A,A*6F
$GPGLL,5351.51241,N,02729.04129,E,153717.00,A,A*6E
$GPGLL,5351.51131,N,02729.04362,E,153718.00,A,A*68
$GPGLL,5351.51099,N,02729.04570,E,153719.00,A,A*6F
$GPGLL,5351.51140,N,02729.04714,E,153720.00,A,A*60
$GPGLL,5351.51205,N,02729.04931,E,153721.00,A,A*6A
$GPGLL,5351.51244,N,02729.05123,E,153722.00,A,A*66
$GPGLL,5351.51200,N,02729.05182,E,153723.00,A,A*6C
$GPGLL,5351.51215,N,02729.05283,E,153724.00,A,A*6D
$GPGLL,5351.51275,N,02729.05458,E,153725.00,A,A*6A
$GPGLL,5351.51320,N,02729.05596,E,153726.00,A,A*6B
$GPGLL,5351.51320,N,02729.05675,E,153727.00,A,A*64
$GPGLL,5351.51357,N,02729.05800,E,153728.00,A,A*67
$GPGLL,5351.51393,N,02729.05918,E,153729.00,A,A*66
$GPGLL,5351.51388,N,02729.05987,E,153730.00,A,A*62
$GPGLL,5351.51401,N,02729.06052,E,153731.00,A,A*67
$GPGLL,5351.51402,N,02729.06102,E,153732.00,A,A*63
$GPGLL,5351.51419,N,02729.06173,E,153733.00,A,A*6E
$GPGLL,5351.51435,N,02729.06252,E,153734.00,A,A*67
$GPGLL,5351.51445,N,02729.06316,E,153735.00,A,A*60
$GPGLL,5351.51445,N,02729.06360,E,153736.00,A,A*62
$GPGLL,5351.51443,N,02729.06398,E,153737.00,A,A*62
$GPGLL,5351.51459,N,02729.06462,E,153738.00,A,A*64
$GPGLL,5351.51476,N,02729.06538,E,153739.00,A,A*66
$GPGLL,5351.51464,N,02729.06567,E,153740.00,A,A*61
$GPGLL,5351.51448,N,02729.06583,E,153741.00,A,A*64
$GPGLL,5351.51470,N,02729.06648,E,153742.00,A,A*68
$GPGLL,5351.51492,N,02729.06717,E,153743.00,A,A*6E
$GPGLL,5351.51494,N,02729.06756,E,153744.00,A,A*6A
$GPGLL,5351.51503,N,02729.06806,E,153745.00,A,A*6E
$GPGLL,5351.51517,N,02729.06862,E,153746.00,A,A*6A
$GPGLL,5351.51573,N,02729.06972,E,153747.00,A,A*69
$GPGLL,5351.51544,N,02729.06965,E,153748.00,A,A*64
$GPGLL,5351.51535,N,02729.06981,E,153749.00,A,A*69
$GPGLL,5351.51552,N,02729.07033,E,153750.00,A,A*61
$GPGLL,5351.51764,N,02729.07352,E,153751.00,A,A*63
$GPGLL,5351.51790,N,02729.07415,E,153752.00,A,A*6F
$GPGLL,5351.51828,N,02729.07489,E,153753.00,A,A*67
$GPGLL,5351.51890,N,02729.07598,E,153754.00,A,A*62
$GPGLL,5351.51899,N,02729.07627,E,153755.00,A,A*6D
$GPGLL,5351.52988,N,02729.09580,E,153756.00,A,A*6C
$GPGLL,5351.53093,N,02729.09634,E,153757.00,A,A*63
$GPGLL,5351.53199,N,02729.09729,E,153758.00,A,A*6A
$GPGLL,5351.53274,N,02729.09834,E,153759.00,A,A*68
$GPGLL,5351.53278,N,02729.09846,E,153800.00,A,A*62
$GPGLL,5351.53280,N,02729.09861,E,153801.00,A,A*61
$GPGLL,5351.53348,N,02729.09971,E,153802.00,A,A*67
$GPGLL,5351.53320,N,02729.09952,E,153803.00,A,A*69
$GPGLL,5351.53318,N,02729.09971,E,153804.00,A,A*64
$GPGLL,5351.53280,N,02729.09946,E,153805.00,A,A*61
$GPGLL,5351.53400,N,02729.10124,E,153806.00,A,A*68
$GPGLL,5351.53352,N,02729.10078,E,153807.00,A,A*61
$GPGLL,5351.53370,N,02729.10120,E,153808.00,A,A*62
$GPGLL,5351.53240,N,02729.09966,E,153809.00,A,A*63
$GPGLL,5351.53215,N,02729.09953,E,153810.00,A,A*6D
$GPGLL,5351.53240,N,02729.09984,E,153811.00,A,A*66
$GPGLL,5351.53252,N,02729.10004,E,153812.00,A,A*6F
$GPGLL,5351.53153,N,02729.09880,E,153813.00,A,A*60
$GPGLL,5351.53152,N,02729.09893,E,153814.00,A,A*64
$GPGLL,5351.53132,N,02729.09883,E,153815.00,A,A*62
$GPGLL,5351.53122,N,02729.09881,E,153816.00,A,A*62
$GPGLL,5351.53124,N,02729.09897,E,153817.00,A,A*62
$GPGLL,5351.53155,N,02729.09950,E,153818.00,A,A*61
$GPGLL,5351.53042,N,02729.09820,E,153819.00,A,A*61
$GPGLL,5351.52996,N,02729.09778,E,153820.00,A,A*68
$GPGLL,5351.52897,N,02729.09662,E,153821.00,A,A*63
$GPGLL,5351.52802,N,02729.09546,E,153822.00,A,A*69
$GPGLL,5351.52730,N,02729.09461,E,153823.00,A,A*62
$GPGLL,5351.52678,N,02729.09413,E,153824.00,A,A*6D
$GPGLL,5351.52620,N,02729.09354,E,153825.00,A,A*65
$GPGLL,5351.52600,N,02729.09345,E,153826.00,A,A*64
$GPGLL,5351.52580,N,02729.09319,E,153827.00,A,A*67
$GPGLL,5351.52529,N,02729.09270,E,153828.00,A,A*65
$GPGLL,5351.52496,N,02729.09253,E,153829.00,A,A*60
$GPGLL,5351.52448,N,02729.09212,E,153830.00,A,A*6E
$GPGLL,5351.52414,N,02729.09171,E,153831.00,A,A*60
$GPGLL,5351.52391,N,02729.09140,E,153832.00,A,A*6B
$GPGLL,5351.52358,N,02729.09114,E,153833.00,A,A*6E
$GPGLL,5351.52335,N,02729.09112,E,153834.00,A,A*64
$GPGLL,5351.52303,N,02729.09091,E,153835.00,A,A*6A
$GPGLL,5351.52288,N,02729.09090,E,153836.00,A,A*6A
$GPGLL,5351.52259,N,02729.09065,E,153837.00,A,A*6D
$GPGLL,5351.52206,N,02729.09024,E,153838.00,A,A*6D
$GPGLL,5351.52150,N,02729.08978,E,153839.00,A,A*6D
$GPGLL,5351.52121,N,02729.08963,E,153840.00,A,A*6F
$GPGLL,5351.52101,N,02729.08967,E,153841.00,A,A*68
$GPGLL,5351.52059,N,02729.08934,E,153842.00,A,A*61
$GPGLL,5351.52029,N,02729.08912,E,153843.00,A,A*63
$GPGLL,5351.52000,N,02729.08893,E,153844.00,A,A*67
$GPGLL,5351.51979,N,02729.08885,E,153845.00,A,A*65
$GPGLL,5351.51970,N,02729.08895,E,153846.00,A,A*6E
$GPGLL,5351.51954,N,02729.08892,E,153847.00,A,A*6E
$GPGLL,5351.51925,N,02729.08867,E,153848.00,A,A*6D
$GPGLL,5351.51919,N,02729.08867,E,153849.00,A,A*63
$GPGLL,5351.51923,N,02729.08891,E,153850.00,A,A*6B
$GPGLL,5351.51916,N,02729.08911,E,153851.00,A,A*65
$GPGLL,5351.51890,N,02729.08908,E,153852.00,A,A*61
$GPGLL,5351.51857,N,02729.09050,E,153853.00,A,A*6E
$GPGLL,5351.51774,N,02729.08939,E,153854.00,A,A*60
$GPGLL,5351.51722,N,02729.08913,E,153855.00,A,A*6A
$GPGLL,5351.51689,N,02729.08892,E,153856.00,A,A*61
$GPGLL,5351.51659,N,02729.08828,E,153857.00,A,A*6C
$GPGLL,5351.51639,N,02729.08791,E,153858.00,A,A*68
$GPGLL,5351.51628,N,02729.08751,E,153859.00,A,A*65
$GPGLL,5351.51611,N,02729.08708,E,153900.00,A,A*6E
$GPGLL,5351.51593,N,02729.08701,E,153901.00,A,A*6F
$GPGLL,5351.51595,N,02729.08721,E,153902.00,A,A*68
$GPGLL,5351.51591,N,02729.08711,E,153903.00,A,A*6E
$GPGLL,5351.51570,N,02729.08694,E,153904.00,A,A*6A
$GPGLL,5351.51538,N,02729.08679,E,153905.00,A,A*64
$GPGLL,5351.51523,N,02729.08665,E,153906.00,A,A*60
$GPGLL,5351.51506,N,02729.08650,E,153907.00,A,A*60
$GPGLL,,,,,153908.00,V,N*4C
$GPGLL,,,,,153909.00,V,N*4D
$GPGLL,,,,,153910.00,V,N*45
$GPGLL,,,,,153911.00,V,N*44
$GPGLL,,,,,153912.00,V,N*47
$GPGLL,,,,,153913.00,V,N*46
$GPGLL,5351.51418,N,02729.08552,E,153914.00,A,A*6D
$GPGLL,5351.51395,N,02729.08554,E,153915.00,A,A*68
$GPGLL,5351.51382,N,02729.08559,E,153916.00,A,A*60
$GPGLL,5351.51366,N,02729.08567,E,153917.00,A,A*66
$GPGLL,5351.51358,N,02729.08581,E,153918.00,A,A*6C
$GPGLL,5351.51348,N,02729.08575,E,153919.00,A,A*67
$GPGLL,5351.51343,N,02729.08581,E,153920.00,A,A*6D
$GPGLL,5351.51350,N,02729.08603,E,153921.00,A,A*67
$GPGLL,5351.51322,N,02729.08595,E,153922.00,A,A*6D
$GPGLL,5351.51309,N,02729.08616,E,153923.00,A,A*6D
$GPGLL,5351.51312,N,02729.08650,E,153924.00,A,A*62
$GPGLL,5351.51310,N,02729.08664,E,153925.00,A,A*66
$GPGLL,5351.51307,N,02729.08685,E,153926.00,A,A*6C
$GPGLL,5351.51292,N,02729.08678,E,153927.00,A,A*62
$GPGLL,5351.51292,N,02729.08702,E,153928.00,A,A*61
$GPGLL,5351.51292,N,02729.08715,E,153929.00,A,A*66
$GPGLL,5351.51304,N,02729.08740,E,153930.00,A,A*60
$GPGLL,5351.51288,N,02729.08735,E,153931.00,A,A*66
$GPGLL,5351.51280,N,02729.08767,E,153932.00,A,A*6A
$GPGLL,5351.51293,N,02729.08815,E,153933.00,A,A*63
$GPGLL,5351.51307,N,02729.08863,E,153934.00,A,A*69
$GPGLL,5351.51313,N,02729.08917,E,153935.00,A,A*6F
$GPGLL,5351.51314,N,02729.08957,E,153936.00,A,A*6F
$GPGLL,5351.51333,N,02729.09014,E,153937.00,A,A*64
$GPGLL,5351.51353,N,02729.09049,E,153938.00,A,A*65
$GPGLL,5351.51370,N,02729.09080,E,153939.00,A,A*60
$GPGLL,5351.51371,N,02729.09090,E,153940.00,A,A*6E
$GPGLL,5351.50190,N,02729.06320,E,153941.00,A,A*64
$GPGLL,5351.50074,N,02729.06464,E,153942.00,A,A*6B
$GPGLL,5351.50055,N,02729.06633,E,153943.00,A,A*69
$GPGLL,5351.50037,N,02729.06794,E,153944.00,A,A*66
$GPGLL,5351.50046,N,02729.06936,E,153945.00,A,A*67
$GPGLL,5351.50050,N,02729.07110,E,153946.00,A,A*6E
$GPGLL,5351.50069,N,02729.07283,E,153947.00,A,A*6C
$GPGLL,5351.50101,N,02729.07444,E,153948.00,A,A*61
$GPGLL,5351.50135,N,02729.07604,E,153949.00,A,A*61
$GPGLL,5351.50162,N,02729.07711,E,153950.00,A,A*6E
$GPGLL,5351.50198,N,02729.07797,E,153951.00,A,A*64
$GPGLL,5351.50231,N,02729.07894,E,153952.00,A,A*6B
$GPGLL,5351.50231,N,02729.07975,E,153953.00,A,A*64
$GPGLL,5351.50233,N,02729.08049,E,153954.00,A,A*68
$GPGLL,5351.50245,N,02729.08131,E,153955.00,A,A*66
$GPGLL,5351.50268,N,02729.08230,E,153956.00,A,A*68
$GPGLL,5351.50287,N,02729.08316,E,153957.00,A,A*6D
$GPGLL,5351.50312,N,02729.08420,E,153958.00,A,A*6D
$GPGLL,5351.50333,N,02729.08505,E,153959.00,A,A*69
$GPGLL,5351.50361,N,02729.08577,E,154000.00,A,A*69
$GPGLL,5351.50392,N,02729.08656,E,154001.00,A,A*64
$GPGLL,5351.50415,N,02729.08731,E,154002.00,A,A*6F
$GPGLL,5351.50409,N,02729.08768,E,154003.00,A,A*6F
$GPGLL,5351.50418,N,02729.08807,E,154004.00,A,A*6E
$GPGLL,5351.50428,N,02729.08862,E,154005.00,A,A*6F
$GPGLL,5351.50434,N,02729.08898,E,154006.00,A,A*64
$GPGLL,5351.50429,N,02729.08930,E,154007.00,A,A*6A
$GPGLL,5351.50432,N,02729.08958,E,154008.00,A,A*61
$GPGLL,5351.50429,N,02729.08982,E,154009.00,A,A*6D
$GPGLL,5351.50433,N,02729.09012,E,154010.00,A,A*6F
$GPGLL,5351.50432,N,02729.09045,E,154011.00,A,A*6D
$GPGLL,5351.50416,N,02729.09051,E,154012.00,A,A*6D
$GPGLL,5351.50418,N,02729.09066,E,154013.00,A,A*66
$GPGLL,5351.50413,N,02729.09068,E,154014.00,A,A*64
$GPGLL,5351.50408,N,02729.09090,E,154015.00,A,A*68
$GPGLL,5351.50408,N,02729.09114,E,154016.00,A,A*66
$GPGLL,5351.50432,N,02729.09163,E,154017.00,A,A*6E
$GPGLL,5351.50462,N,02729.09222,E,154018.00,A,A*62
$GPGLL,5351.50488,N,02729.09257,E,154019.00,A,A*65
$GPGLL,5351.50492,N,02729.09273,E,154020.00,A,A*62
$GPGLL,5351.50500,N,02729.09285,E,154021.00,A,A*60
$GPGLL,5351.50510,N,02729.09299,E,154022.00,A,A*6F
$GPGLL,5351.50536,N,02729.09326,E,154023.00,A,A*6F
$GPGLL,5351.50532,N,02729.09326,E,154024.00,A,A*6C
$GPGLL,5351.50552,N,02729.09372,E,154025.00,A,A*6A
$GPGLL,5351.50571,N,02729.09401,E,154026.00,A,A*6B
$GPGLL,5351.50588,N,02729.09435,E,154027.00,A,A*6B
$GPGLL,5351.50592,N,02729.09453,E,154028.00,A,A*6F
$GPGLL,5351.50584,N,02729.09458,E,154029.00,A,A*62
$GPGLL,5351.50583,N,02729.09470,E,154030.00,A,A*67
$GPGLL,5351.50587,N,02729.09486,E,154031.00,A,A*6B
$GPGLL,5351.50605,N,02729.09516,E,154032.00,A,A*69
$GPGLL,5351.50591,N,02729.09500,E,154033.00,A,A*61
$GPGLL,5351.50585,N,02729.09506,E,154034.00,A,A*65
$GPGLL,5351.50572,N,02729.09496,E,154035.00,A,A*64
$GPGLL,5351.50575,N,02729.09513,E,154036.00,A,A*6C
$GPGLL,5351.50574,N,02729.09513,E,154037.00,A,A*6C
$GPGLL,5351.50589,N,02729.09536,E,154038.00,A,A*66
$GPGLL,5351.50594,N,02729.09543,E,154039.00,A,A*69
$GPGLL,5351.50605,N,02729.09550,E,154040.00,A,A*6E
$GPGLL,5351.50619,N,02729.09562,E,154041.00,A,A*63
$GPGLL,5351.50613,N,02729.09552,E,154042.00,A,A*69
$GPGLL,5351.50596,N,02729.09523,E,154043.00,A,A*60
$GPGLL,5351.50590,N,02729.09502,E,154044.00,A,A*62
$GPGLL,5351.50590,N,02729.09491,E,154045.00,A,A*68
$GPGLL,5351.50581,N,02729.09486,E,154046.00,A,A*6D
$GPGLL,5351.50564,N,02729.09467,E,154047.00,A,A*68
$GPGLL,5351.50566,N,02729.09469,E,154048.00,A,A*6B
$GPGLL,5351.50568,N,02729.09462,E,154049.00,A,A*6F
$GPGLL,5351.50573,N,02729.09470,E,154050.00,A,A*6E
$GPGLL,5351.50581,N,02729.09487,E,154051.00,A,A*6A
$GPGLL,5351.50595,N,02729.09514,E,154052.00,A,A*67
$GPGLL,5351.50601,N,02729.09522,E,154053.00,A,A*6D
$GPGLL,5351.50600,N,02729.09506,E,154054.00,A,A*6D
$GPGLL,5351.50614,N,02729.09535,E,154055.00,A,A*69
$GPGLL,5351.50581,N,02729.09504,E,154056.00,A,A*67
$GPGLL,5351.50579,N,02729.09502,E,154057.00,A,A*67
$GPGLL,5351.50590,N,02729.09532,E,154058.00,A,A*6C
$GPGLL,5351.50583,N,02729.09539,E,154059.00,A,A*64
$GPGLL,5351.50575,N,02729.09538,E,154100.00,A,A*61
$GPGLL,5351.50570,N,02729.09524,E,154101.00,A,A*68
$GPGLL,5351.50563,N,02729.09503,E,154102.00,A,A*6C
$GPGLL,5351.50559,N,02729.09499,E,154103.00,A,A*66
$GPGLL,5351.50542,N,02729.09492,E,154104.00,A,A*60
$GPGLL,5351.50536,N,02729.09496,E,154105.00,A,A*66
$GPGLL,5351.50517,N,02729.09476,E,154106.00,A,A*68
$GPGLL,5351.50518,N,02729.09496,E,154107.00,A,A*68
$GPGLL,5351.50523,N,02729.09531,E,154108.00,A,A*63
$GPGLL,5351.50522,N,02729.09551,E,154109.00,A,A*65
$GPGLL,5351.50515,N,02729.09565,E,154110.00,A,A*6E
$GPGLL,5351.50511,N,02729.09580,E,154111.00,A,A*60
$GPGLL,5351.50507,N,02729.09596,E,154112.00,A,A*63
$GPGLL,5351.50507,N,02729.09613,E,154113.00,A,A*6C
$GPGLL,5351.50500,N,02729.09624,E,154114.00,A,A*68
$GPGLL,5351.50493,N,02729.09626,E,154115.00,A,A*60
$GPGLL,5351.50488,N,02729.09632,E,154116.00,A,A*6C
$GPGLL,5351.50489,N,02729.09653,E,154117.00,A,A*6B
$GPGLL,5351.50483,N,02729.09654,E,154118.00,A,A*69
$GPGLL,5351.50473,N,02729.09643,E,154119.00,A,A*61
$GPGLL,5351.50485,N,02729.09674,E,154120.00,A,A*66
$GPGLL,5351.50496,N,02729.09704,E,154121.00,A,A*63
$GPGLL,5351.50497,N,02729.09722,E,154122.00,A,A*65
$GPGLL,5351.50492,N,02729.09723,E,154123.00,A,A*60
$GPGLL,5351.50489,N,02729.09743,E,154124.00,A,A*6B
$GPGLL,5351.50481,N,02729.09751,E,154125.00,A,A*61
$GPGLL,5351.50484,N,02729.09787,E,154126.00,A,A*6C
$GPGLL,5351.50487,N,02729.09818,E,154127.00,A,A*67
$GPGLL,5351.50487,N,02729.09852,E,154128.00,A,A*66
$GPGLL,5351.50493,N,02729.09893,E,154129.00,A,A*6F
$GPGLL,5351.50492,N,02729.09917,E,154130.00,A,A*6B
$GPGLL,5351.50485,N,02729.09917,E,154131.00,A,A*6C
$GPGLL,5351.50473,N,02729.09902,E,154132.00,A,A*62
$GPGLL,5351.50474,N,02729.09917,E,154133.00,A,A*60
$GPGLL,5351.50470,N,02729.09921,E,154134.00,A,A*66
$GPGLL,5351.50453,N,02729.09903,E,154135.00,A,A*66
$GPGLL,5351.50439,N,02729.09880,E,154136.00,A,A*63
$GPGLL,5351.50449,N,02729.09920,E,154137.00,A,A*6E
$GPGLL,5351.50460,N,02729.09954,E,154138.00,A,A*69
$GPGLL,5351.50454,N,02729.09948,E,154139.00,A,A*62
$GPGLL,5351.50444,N,02729.09936,E,154140.00,A,A*64
$GPGLL,5351.50437,N,02729.09938,E,154141.00,A,A*6F
$GPGLL,5351.50439,N,02729.09951,E,154142.00,A,A*6D
$GPGLL,5351.50433,N,02729.09950,E,154143.00,A,A*67
$GPGLL,5351.50426,N,02729.09947,E,154144.00,A,A*62
$GPGLL,5351.50425,N,02729.09953,E,154145.00,A,A*65
$GPGLL,5351.50426,N,02729.09958,E,154146.00,A,A*6E
$GPGLL,5351.50433,N,02729.09973,E,154147.00,A,A*62
$GPGLL,5351.50457,N,02729.10022,E,154148.00,A,A*6A
$GPGLL,5351.50457,N,02729.10038,E,154149.00,A,A*60
$GPGLL,5351.50448,N,02729.10029,E,154150.00,A,A*66
$GPGLL,5351.50443,N,02729.10027,E,154151.00,A,A*62
$GPGLL,5351.50436,N,02729.10033,E,154152.00,A,A*66
$GPGLL,5351.50425,N,02729.10029,E,154153.00,A,A*6E
$GPGLL,5351.50417,N,02729.10035,E,154154.00,A,A*65
$GPGLL,5351.50409,N,02729.10030,E,154155.00,A,A*6E
$GPGLL,5351.50410,N,02729.10037,E,154156.00,A,A*62
$GPGLL,5351.50423,N,02729.10085,E,154157.00,A,A*6A
$GPGLL,5351.50424,N,02729.10102,E,154158.00,A,A*6C
$GPGLL,5351.50413,N,02729.10083,E,154159.00,A,A*61
$GPGLL,5351.50416,N,02729.10093,E,154200.00,A,A*6A
$GPGLL,5351.50413,N,02729.10102,E,154201.00,A,A*67
$GPGLL,5351.50405,N,02729.10100,E,154202.00,A,A*61
$GPGLL,5351.50400,N,02729.10098,E,154203.00,A,A*65
$GPGLL,5351.50396,N,02729.10098,E,154204.00,A,A*6A
$GPGLL,5351.50400,N,02729.10127,E,154205.00,A,A*66
$GPGLL,5351.50390,N,02729.10130,E,154206.00,A,A*6D
$GPGLL,5351.50375,N,02729.10105,E,154207.00,A,A*61
$GPGLL,5351.50365,N,02729.10088,E,154208.00,A,A*6B
$GPGLL,5351.50366,N,02729.10104,E,154209.00,A,A*6C
$GPGLL,5351.50360,N,02729.10110,E,154210.00,A,A*67
$GPGLL,5351.50356,N,02729.10120,E,154211.00,A,A*60
$GPGLL,5351.50339,N,02729.10099,E,154212.00,A,A*69
$GPGLL,5351.50341,N,02729.10105,E,154213.00,A,A*63
$GPGLL,5351.50346,N,02729.10113,E,154214.00,A,A*64
$GPGLL,5351.50338,N,02729.10107,E,154215.00,A,A*69
$GPGLL,5351.50329,N,02729.10101,E,154216.00,A,A*6C
$GPGLL,5351.50331,N,02729.10112,E,154217.00,A,A*66
$GPGLL,5351.50333,N,02729.10128,E,154218.00,A,A*62
$GPGLL,5351.50329,N,02729.10127,E,154219.00,A,A*67
$GPGLL,5351.50313,N,02729.10105,E,154220.00,A,A*64
$GPGLL,5351.50308,N,02729.10095,E,154221.00,A,A*67
$GPGLL,5351.50296,N,02729.10084,E,154222.00,A,A*62
$GPGLL,5351.50291,N,02729.10081,E,154223.00,A,A*61
$GPGLL,5351.50293,N,02729.10085,E,154224.00,A,A*60
$GPGLL,5351.50286,N,02729.10073,E,154225.00,A,A*6C
$GPGLL,5351.50287,N,02729.10075,E,154226.00,A,A*68
$GPGLL,5351.50289,N,02729.10078,E,154227.00,A,A*6A
$GPGLL,5351.50288,N,02729.10075,E,154228.00,A,A*69
$GPGLL,5351.50283,N,02729.10065,E,154229.00,A,A*62
$GPGLL,5351.50271,N,02729.10046,E,154230.00,A,A*66
$GPGLL,5351.50265,N,02729.10039,E,154231.00,A,A*6A
$GPGLL,5351.50264,N,02729.10037,E,154232.00,A,A*66
$GPGLL,5351.50255,N,02729.10028,E,154233.00,A,A*6B
$GPGLL,5351.50254,N,02729.10025,E,154234.00,A,A*60
$GPGLL,5351.50108,N,02729.09670,E,154235.00,A,A*65
$GPGLL,5351.49966,N,02729.09238,E,154236.00,A,A*66
$GPGLL,5351.49723,N,02729.08799,E,154237.00,A,A*67
$GPGLL,5351.49452,N,02729.08442,E,154238.00,A,A*68
$GPGLL,5351.49090,N,02729.08043,E,154239.00,A,A*66
$GPGLL,5351.48616,N,02729.07586,E,154240.00,A,A*62
$GPGLL,5351.48056,N,02729.07114,E,154241.00,A,A*6E
$GPGLL,5351.47413,N,02729.06602,E,154242.00,A,A*66
$GPGLL,5351.46744,N,02729.06118,E,154243.00,A,A*6B
$GPGLL,5351.46094,N,02729.05740,E,154244.00,A,A*6E
$GPGLL,5351.45423,N,02729.05283,E,154245.00,A,A*6E
$GPGLL,5351.44705,N,02729.04913,E,154246.00,A,A*68
$GPGLL,5351.46794,N,02729.03910,E,154247.00,A,A*67
$GPGLL,5351.46979,N,02729.03747,E,154248.00,A,A*69
$GPGLL,5351.46932,N,02729.03671,E,154249.00,A,A*63
$GPGLL,5351.46948,N,02729.03812,E,154250.00,A,A*6D
$GPGLL,5351.47007,N,02729.04067,E,154251.00,A,A*62
$GPGLL,5351.47038,N,02729.04266,E,154252.00,A,A*6E
$GPGLL,5351.47047,N,02729.04393,E,154253.00,A,A*6C
$GPGLL,5351.47056,N,02729.04496,E,154254.00,A,A*69
$GPGLL,5351.47060,N,02729.04600,E,154255.00,A,A*60
$GPGLL,5351.47081,N,02729.04735,E,154256.00,A,A*6B
$GPGLL,5351.47094,N,02729.04832,E,154257.00,A,A*66
$GPGLL,5351.47094,N,02729.04856,E,154258.00,A,A*6B
$GPGLL,5351.47138,N,02729.05024,E,154259.00,A,A*61
$GPGLL,5351.47176,N,02729.05155,E,154300.00,A,A*61
$GPGLL,5351.47208,N,02729.05296,E,154301.00,A,A*66
$GPGLL,5351.47235,N,02729.05423,E,154302.00,A,A*63
$GPGLL,5351.47307,N,02729.05685,E,154303.00,A,A*6C
$GPGLL,5351.47368,N,02729.05904,E,154304.00,A,A*64
$GPGLL,5351.47425,N,02729.06126,E,154305.00,A,A*60
$GPGLL,5351.47428,N,02729.06180,E,154306.00,A,A*62
$GPGLL,5351.47468,N,02729.06324,E,154307.00,A,A*6B
$GPGLL,5351.47511,N,02729.06479,E,154308.00,A,A*64
$GPGLL,5351.47553,N,02729.06624,E,154309.00,A,A*69
$GPGLL,5351.47599,N,02729.06779,E,154310.00,A,A*6E
$GPGLL,5351.47635,N,02729.06886,E,154311.00,A,A*65
$GPGLL,5351.47658,N,02729.06948,E,154312.00,A,A*6E
$GPGLL,5351.47660,N,02729.06941,E,154313.00,A,A*6D
$GPGLL,5351.47667,N,02729.06951,E,154314.00,A,A*6C
$GPGLL,5351.47694,N,02729.07023,E,154315.00,A,A*6C
$GPGLL,5351.47689,N,02729.06999,E,154316.00,A,A*6A
$GPGLL,5351.47726,N,02729.07093,E,154317.00,A,A*6D
$GPGLL,5351.47747,N,02729.07147,E,154318.00,A,A*6D
$GPGLL,5351.47804,N,02729.07338,E,154319.00,A,A*6E
$GPGLL,5351.47832,N,02729.07425,E,154320.00,A,A*6A
$GPGLL,5351.47847,N,02729.07451,E,154321.00,A,A*6A
$GPGLL,5351.47852,N,02729.07448,E,154322.00,A,A*65
$GPGLL,5351.47925,N,02729.07692,E,154323.00,A,A*60
$GPGLL,5351.47938,N,02729.07730,E,154324.00,A,A*62
$GPGLL,5351.47935,N,02729.07683,E,154325.00,A,A*67
$GPGLL,5351.47965,N,02729.07769,E,154326.00,A,A*64
$GPGLL,5351.48012,N,02729.07924,E,154327.00,A,A*64
$GPGLL,5351.48039,N,02729.07989,E,154328.00,A,A*65
$GPGLL,5351.48034,N,02729.07967,E,154329.00,A,A*69
$GPGLL,5351.48056,N,02729.08000,E,154330.00,A,A*62
$GPGLL,5351.48079,N,02729.08021,E,154331.00,A,A*6D
$GPGLL,5351.48118,N,02729.08115,E,154332.00,A,A*6E
$GPGLL,5351.48162,N,02729.08216,E,154333.00,A,A*62
$GPGLL,5351.48221,N,02729.08361,E,154334.00,A,A*60
$GPGLL,5351.48265,N,02729.08455,E,154335.00,A,A*61
$GPGLL,5351.48235,N,02729.08352,E,154336.00,A,A*67
$GPGLL,5351.48310,N,02729.08553,E,154337.00,A,A*67
$GPGLL,5351.48292,N,02729.08481,E,154338.00,A,A*6D
$GPGLL,5351.48290,N,02729.08464,E,154339.00,A,A*65
$GPGLL,5351.48317,N,02729.08535,E,154340.00,A,A*60
$GPGLL,5351.48342,N,02729.08602,E,154341.00,A,A*66
$GPGLL,5351.48331,N,02729.08531,E,154342.00,A,A*62
$GPGLL,5351.48341,N,02729.08549,E,154343.00,A,A*6B
$GPGLL,5351.48353,N,02729.08575,E,154344.00,A,A*60
$GPGLL,5351.48369,N,02729.08605,E,154345.00,A,A*6C
$GPGLL,5351.48359,N,02729.08574,E,154346.00,A,A*69
$GPGLL,5351.48368,N,02729.08593,E,154347.00,A,A*63
$GPGLL,,,,,154348.00,V,N*45
$GPGLL,,,,,154349.00,V,N*44
$GPGLL,,,,,154350.00,V,N*4C
$GPGLL,,,,,154351.00,V,N*4D
$GPGLL,,,,,154352.00,V,N*4E
$GPGLL,,,,,154353.00,V,N*4F
$GPGLL,5351.48422,N,02729.08845,E,154354.00,A,A*6E
$GPGLL,5351.48550,N,02729.09227,E,154355.00,A,A*64
$GPGLL,5351.48568,N,02729.09257,E,154356.00,A,A*6B
$GPGLL,5351.48556,N,02729.09160,E,154357.00,A,A*60
$GPGLL,5351.48611,N,02729.09271,E,154358.00,A,A*6C
$GPGLL,5351.48591,N,02729.09180,E,154359.00,A,A*6B
$GPGLL,5351.48584,N,02729.09109,E,154400.00,A,A*65
$GPGLL,5351.48482,N,02729.08781,E,154401.00,A,A*64
$GPGLL,5351.48491,N,02729.08728,E,154402.00,A,A*66
$GPGLL,5351.48509,N,02729.08770,E,154403.00,A,A*6A
$GPGLL,5351.48498,N,02729.08721,E,154404.00,A,A*60
$GPGLL,5351.48526,N,02729.08762,E,154405.00,A,A*62
$GPGLL,5351.48505,N,02729.08676,E,154406.00,A,A*64
$GPGLL,5351.48549,N,02729.08782,E,154407.00,A,A*67
$GPGLL,5351.48558,N,02729.08789,E,154408.00,A,A*63
$GPGLL,5351.48565,N,02729.08778,E,154409.00,A,A*62
$GPGLL,5351.48551,N,02729.08713,E,154410.00,A,A*60
$GPGLL,5351.48515,N,02729.08580,E,154411.00,A,A*69
$GPGLL,5351.48596,N,02729.08834,E,154412.00,A,A*63
$GPGLL,5351.48581,N,02729.08768,E,154413.00,A,A*62
$GPGLL,5351.48646,N,02729.08924,E,154414.00,A,A*6B
$GPGLL,5351.48630,N,02729.08869,E,154415.00,A,A*63
$GPGLL,5351.48664,N,02729.09003,E,154416.00,A,A*64
$GPGLL,5351.48668,N,02729.09027,E,154417.00,A,A*6F
$GPGLL,5351.48606,N,02729.08820,E,154418.00,A,A*66
$GPGLL,5351.48580,N,02729.08736,E,154419.00,A,A*62
$GPGLL,5351.48562,N,02729.08666,E,154420.00,A,A*60
$GPGLL,5351.48576,N,02729.08695,E,154421.00,A,A*68
$GPGLL,5351.48552,N,02729.08613,E,154422.00,A,A*63
$GPGLL,5351.48581,N,02729.08708,E,154423.00,A,A*67
$GPGLL,5351.48579,N,02729.08715,E,154424.00,A,A*6B
$GPGLL,5351.48609,N,02729.08808,E,154425.00,A,A*6D
$GPGLL,5351.48617,N,02729.08834,E,154426.00,A,A*6E
$GPGLL,5351.48703,N,02729.09085,E,154427.00,A,A*68
$GPGLL,5351.48736,N,02729.09193,E,154428.00,A,A*67
$GPGLL,5351.48682,N,02729.09021,E,154429.00,A,A*60
$GPGLL,5351.48614,N,02729.08819,E,154430.00,A,A*65
$GPGLL,5351.48520,N,02729.08503,E,154431.00,A,A*66
$GPGLL,5351.48516,N,02729.08501,E,154432.00,A,A*62
$GPGLL,5351.48502,N,02729.08490,E,154433.00,A,A*6F
$GPGLL,5351.48524,N,02729.08593,E,154434.00,A,A*6E
$GPGLL,5351.48863,N,02729.09802,E,154435.00,A,A*65
$GPGLL,5351.49106,N,02729.10396,E,154436.00,A,A*63
$GPGLL,5351.49287,N,02729.10800,E,154437.00,A,A*6C
$GPGLL,5351.49423,N,02729.11008,E,154438.00,A,A*6A
$GPGLL,5351.49522,N,02729.11039,E,154439.00,A,A*69
$GPGLL,5351.49570,N,02729.10966,E,154440.00,A,A*62
$GPGLL,5351.49395,N,02729.10853,E,154441.00,A,A*69
$GPGLL,5351.49357,N,02729.10713,E,154442.00,A,A*6F
$GPGLL,5351.49342,N,02729.10660,E,154443.00,A,A*6F
$GPGLL,5351.49311,N,02729.10566,E,154444.00,A,A*6B
$GPGLL,5351.49271,N,02729.10441,E,154445.00,A,A*69
$GPGLL,5351.49254,N,02729.10395,E,154446.00,A,A*63
$GPGLL,5351.49222,N,02729.10298,E,154447.00,A,A*6F
$GPGLL,5351.49178,N,02729.10177,E,154448.00,A,A*6E
$GPGLL,5351.49212,N,02729.10259,E,154449.00,A,A*6F
$GPGLL,5351.49223,N,02729.10287,E,154450.00,A,A*66
$GPGLL,5351.49162,N,02729.10119,E,154451.00,A,A*65
$GPGLL,5351.49163,N,02729.10118,E,154452.00,A,A*66
$GPGLL,5351.49149,N,02729.10078,E,154453.00,A,A*68
$GPGLL,5351.49128,N,02729.10016,E,154454.00,A,A*60
$GPGLL,,,,,154455.00,V,N*4E
$GPGLL,,,,,154456.00,V,N*4D
$GPGLL,,,,,154457.00,V,N*4C
$GPGLL,,,,,154458.00,V,N*43
$GPGLL,,,,,154459.00,V,N*42
$GPGLL,5351.49088,N,02729.09962,E,154500.00,A,A*69
$GPGLL,5351.49157,N,02729.10207,E,154501.00,A,A*6B
$GPGLL,,,,,154502.00,V,N*4D
$GPGLL,,,,,154503.00,V,N*4C
$GPGLL,,,,,154504.00,V,N*4B
$GPGLL,,,,,154505.00,V,N*4A
$GPGLL,,,,,154506.00,V,N*49
$GPGLL,5351.49221,N,02729.10511,E,154507.00,A,A*6F
$GPGLL,5351.49333,N,02729.10915,E,154508.00,A,A*6A
$GPGLL,5351.49456,N,02729.11382,E,154509.00,A,A*6A
$GPGLL,5351.49417,N,02729.11332,E,154510.00,A,A*6C
$GPGLL,5351.49351,N,02729.11175,E,154511.00,A,A*69
$GPGLL,5351.49318,N,02729.11101,E,154512.00,A,A*64
$GPGLL,,,,,154513.00,V,N*4D
$GPGLL,,,,,154514.00,V,N*4A
$GPGLL,,,,,154515.00,V,N*4B
$GPGLL,,,,,154516.00,V,N*48
$GPGLL,,,,,154517.00,V,N*49
$GPGLL,,,,,154518.00,V,N*46
$GPGLL,,,,,154519.00,V,N*47
$GPGLL,,,,,154520.00,V,N*4D
$GPGLL,,,,,154521.00,V,N*4C
$GPGLL,,,,,154522.00,V,N*4F
$GPGLL,5351.49738,N,02729.12044,E,154523.00,A,A*63
$GPGLL,5351.49613,N,02729.11680,E,154524.00,A,A*61
$GPGLL,5351.49616,N,02729.11694,E,154525.00,A,A*60
$GPGLL,5351.49510,N,02729.11401,E,154526.00,A,A*68
$GPGLL,,,,,154527.00,V,N*4A
$GPGLL,,,,,154528.00,V,N*45
$GPGLL,,,,,154529.00,V,N*44
$GPGLL,,,,,154530.00,V,N*4C
$GPGLL,,,,,154531.00,V,N*4D
$GPGLL,5351.49438,N,02729.11163,E,154532.00,A,A*67
$GPGLL,5351.49357,N,02729.10985,E,154533.00,A,A*69
$GPGLL,5351.49291,N,02729.10738,E,154534.00,A,A*6D
$GPGLL,5351.49257,N,02729.10596,E,154535.00,A,A*60
$GPGLL,5351.49184,N,02729.10393,E,154536.00,A,A*6D
$GPGLL,5351.49111,N,02729.10250,E,154537.00,A,A*6E
$GPGLL,5351.49159,N,02729.10395,E,154538.00,A,A*65
