$GPRMC,153705.00,A,5351.53233,N,02729.07892,E,0.577,,201015,,,A*7B
$GPRMC,153706.00,A,5351.53248,N,02729.07858,E,0.203,,201015,,,A*76
$GPRMC,153707.00,A,5351.53323,N,02729.07811,E,0.454,,201015,,,A*72
$GPRMC,153708.00,A,5351.53266,N,02729.07761,E,0.874,,201015,,,A*7B
$GPRMC,153709.00,A,5351.53275,N,02729.07756,E,1.739,,201015,,,A*7B
$GPRMC,153710.00,A,5351.53282,N,02729.07743,E,1.537,219.73,201015,,,A*63
$GPRMC,153711.00,A,5351.53265,N,02729.07719,E,1.256,,201015,,,A*74
$GPRMC,153712.00,A,5351.53260,N,02729.07748,E,2.098,218.47,201015,,,A*63
$GPRMC,153713.00,A,5351.53124,N,02729.07581,E,5.089,218.44,201015,,,A*62
$GPRMC,153714.00,A,5351.53127,N,02729.07584,E,2.782,,201015,,,A*7D
$GPRMC,153715.00,A,5351.52184,N,02729.05511,E,4.702,,201015,,,A*74
$GPRMC,153716.00,A,5351.51312,N,02729.04058,E,6.237,220.69,201015,,,A*60
$GPRMC,153717.00,A,5351.51241,N,02729.04129,E,5.152,223.03,201015,,,A*6D
$GPRMC,153718.00,A,5351.51131,N,02729.04362,E,3.387,220.66,201015,,,A*67
$GPRMC,153719.00,A,5351.51099,N,02729.04570,E,1.702,,201015,,,A*75
$GPRMC,153720.00,A,5351.51140,N,02729.04714,E,0.689,,201015,,,A*79
$GPRMC,153721.00,A,5351.51205,N,02729.04931,E,0.563,,201015,,,A*74
$GPRMC,153722.00,A,5351.51244,N,02729.05123,E,1.245,,201015,,,A*7A
$GPRMC,153723.00,A,5351.51200,N,02729.05182,E,2.576,220.21,201015,,,A*69
$GPRMC,153724.00,A,5351.51215,N,02729.05283,E,2.121,218.82,201015,,,A*6C
$GPRMC,153725.00,A,5351.51275,N,02729.05458,E,2.003,219.00,201015,,,A*61
$GPRMC,153726.00,A,5351.51320,N,02729.05596,E,2.673,220.77,201015,,,A*6B
$GPRMC,153727.00,A,5351.51320,N,02729.05675,E,2.953,221.30,201015,,,A*6B
$GPRMC,153728.00,A,5351.51357,N,02729.05800,E,1.613,,201015,,,A*7C
$GPRMC,153729.00,A,5351.51393,N,02729.05918,E,1.220,,201015,,,A*79
$GPRMC,153730.00,A,5351.51388,N,02729.05987,E,2.028,,201015,,,A*74
$GPRMC,153731.00,A,5351.51401,N,02729.06052,E,2.096,,201015,,,A*74
$GPRMC,153732.00,A,5351.51402,N,02729.06102,E,1.107,,201015,,,A*7A
$GPRMC,153733.00,A,5351.51419,N,02729.06173,E,0.125,,201015,,,A*76
$GPRMC,153734.00,A,5351.51435,N,02729.06252,E,0.542,,201015,,,A*7A
$GPRMC,153735.00,A,5351.51445,N,02729.06316,E,1.052,,201015,,,A*78
$GPRMC,153736.00,A,5351.51445,N,02729.06360,E,0.504,,201015,,,A*7D
$GPRMC,153737.00,A,5351.51443,N,02729.06398,E,0.164,,201015,,,A*7F
$GPRMC,153738.00,A,5351.51459,N,02729.06462,E,0.147,,201015,,,A*78
$GPRMC,153739.00,A,5351.51476,N,02729.06538,E,0.875,,201015,,,A*72
$GPRMC,153740.00,A,5351.51464,N,02729.06567,E,1.139,,201015,,,A*75
$GPRMC,153741.00,A,5351.51448,N,02729.06583,E,0.087,,201015,,,A*75
$GPRMC,153742.00,A,5351.51470,N,02729.06648,E,0.826,,201015,,,A*7A
$GPRMC,153743.00,A,5351.51492,N,02729.06717,E,0.056,,201015,,,A*73
$GPRMC,153744.00,A,5351.51494,N,02729.06756,E,0.669,,201015,,,A*7D
$GPRMC,153745.00,A,5351.51503,N,02729.06806,E,0.054,,201015,,,A*71
$GPRMC,153746.00,A,5351.51517,N,02729.06862,E,0.860,,201015,,,A*7A
$GPRMC,153747.00,A,5351.51573,N,02729.06972,E,1.277,,201015,,,A*74
$GPRMC,153748.00,A,5351.51544,N,02729.06965,E,0.310,,201015,,,A*78
$GPRMC,153749.00,A,5351.51535,N,02729.06981,E,0.329,,201015,,,A*7F
$GPRMC,153750.00,A,5351.51552,N,02729.07033,E,0.684,,201015,,,A*75
$GPRMC,153751.00,A,5351.51764,N,02729.07352,E,3.320,12.68,201015,,,A*5C
$GPRMC,153752.00,A,5351.51790,N,02729.07415,E,2.164,21.44,201015,,,A*5D
$GPRMC,153753.00,A,5351.51828,N,02729.07489,E,1.657,,201015,,,A*7C
$GPRMC,153754.00,A,5351.51890,N,02729.07598,E,2.503,,201015,,,A*78
$GPRMC,153755.00,A,5351.51899,N,02729.07627,E,2.413,31.62,201015,,,A*5F
$GPRMC,153756.00,A,5351.52988,N,02729.09580,E,4.671,,201015,,,A*76
$GPRMC,153757.00,A,5351.53093,N,02729.09634,E,3.794,33.88,201015,,,A*5A
$GPRMC,153758.00,A,5351.53199,N,02729.09729,E,4.129,36.28,201015,,,A*5B
$GPRMC,153759.00,A,5351.53274,N,02729.09834,E,4.335,38.61,201015,,,A*55
$GPRMC,153800.00,A,5351.53278,N,02729.09846,E,2.768,38.99,201015,,,A*52
$GPRMC,153801.00,A,5351.53280,N,02729.09861,E,1.287,,201015,,,A*73
$GPRMC,153802.00,A,5351.53348,N,02729.09971,E,1.546,,201015,,,A*7F
$GPRMC,153803.00,A,5351.53320,N,02729.09952,E,1.467,39.02,201015,,,A*55
$GPRMC,153804.00,A,5351.53318,N,02729.09971,E,1.816,40.64,201015,,,A*5C
$GPRMC,153805.00,A,5351.53280,N,02729.09946,E,0.521,,201015,,,A*79
$GPRMC,153806.00,A,5351.53400,N,02729.10124,E,1.287,,201015,,,A*7A
$GPRMC,153807.00,A,5351.53352,N,02729.10078,E,0.789,,201015,,,A*79
$GPRMC,153808.00,A,5351.53370,N,02729.10120,E,1.909,40.77,201015,,,A*57
$GPRMC,153809.00,A,5351.53240,N,02729.09966,E,0.458,,201015,,,A*74
$GPRMC,153810.00,A,5351.53215,N,02729.09953,E,0.010,,201015,,,A*72
$GPRMC,153811.00,A,5351.53240,N,02729.09984,E,0.728,,201015,,,A*75
$GPRMC,153812.00,A,5351.53252,N,02729.10004,E,1.881,,201015,,,A*71
$GPRMC,153813.00,A,5351.53153,N,02729.09880,E,1.367,,201015,,,A*7D
$GPRMC,153814.00,A,5351.53152,N,02729.09893,E,1.436,,201015,,,A*7A
$GPRMC,153815.00,A,5351.53132,N,02729.09883,E,1.134,,201015,,,A*7B
$GPRMC,153816.00,A,5351.53122,N,02729.09881,E,1.901,39.54,201015,,,A*50
$GPRMC,153817.00,A,5351.53124,N,02729.09897,E,3.042,40.21,201015,,,A*50
$GPRMC,153818.00,A,5351.53155,N,02729.09950,E,3.142,39.03,201015,,,A*5C
$GPRMC,153819.00,A,5351.53042,N,02729.09820,E,0.786,,201015,,,A*76
$GPRMC,153820.00,A,5351.52996,N,02729.09778,E,0.561,,201015,,,A*74
$GPRMC,153821.00,A,5351.52897,N,02729.09662,E,0.499,,201015,,,A*79
$GPRMC,153822.00,A,5351.52802,N,02729.09546,E,0.501,,201015,,,A*73
$GPRMC,153823.00,A,5351.52730,N,02729.09461,E,0.135,,201015,,,A*7B
$GPRMC,153824.00,A,5351.52678,N,02729.09413,E,0.523,,201015,,,A*77
$GPRMC,153825.00,A,5351.52620,N,02729.09354,E,0.045,,201015,,,A*7A
$GPRMC,153826.00,A,5351.52600,N,02729.09345,E,0.655,,201015,,,A*7C
$GPRMC,153827.00,A,5351.52580,N,02729.09319,E,0.317,,201015,,,A*7C
$GPRMC,153828.00,A,5351.52529,N,02729.09270,E,1.231,,201015,,,A*7A
$GPRMC,153829.00,A,5351.52496,N,02729.09253,E,1.377,,201015,,,A*7C
$GPRMC,153830.00,A,5351.52448,N,02729.09212,E,0.860,,201015,,,A*7E
$GPRMC,153831.00,A,5351.52414,N,02729.09171,E,0.796,,201015,,,A*76
$GPRMC,153832.00,A,5351.52391,N,02729.09140,E,1.400,,201015,,,A*70
$GPRMC,153833.00,A,5351.52358,N,02729.09114,E,1.876,,201015,,,A*78
$GPRMC,153834.00,A,5351.52335,N,02729.09112,E,1.297,,201015,,,A*77
$GPRMC,153835.00,A,5351.52303,N,02729.09091,E,0.639,,201015,,,A*78
$GPRMC,153836.00,A,5351.52288,N,02729.09090,E,0.772,,201015,,,A*76
$GPRMC,153837.00,A,5351.52259,N,02729.09065,E,1.402,,201015,,,A*74
$GPRMC,153838.00,A,5351.52206,N,02729.09024,E,0.992,,201015,,,A*71
$GPRMC,153839.00,A,5351.52150,N,02729.08978,E,0.306,,201015,,,A*76
$GPRMC,153840.00,A,5351.52121,N,02729.08963,E,0.308,,201015,,,A*7A
$GPRMC,153841.00,A,5351.52101,N,02729.08967,E,0.846,,201015,,,A*7C
$GPRMC,153842.00,A,5351.52059,N,02729.08934,E,1.253,,201015,,,A*7A
$GPRMC,153843.00,A,5351.52029,N,02729.08912,E,0.599,,201015,,,A*78
$GPRMC,153844.00,A,5351.52000,N,02729.08893,E,0.136,,201015,,,A*7D
$GPRMC,153845.00,A,5351.51979,N,02729.08885,E,0.394,,201015,,,A*75
$GPRMC,153846.00,A,5351.51970,N,02729.08895,E,0.950,,201015,,,A*7C
$GPRMC,153847.00,A,5351.51954,N,02729.08892,E,0.435,,201015,,,A*72
$GPRMC,153848.00,A,5351.51925,N,02729.08867,E,0.189,,201015,,,A*73
$GPRMC,153849.00,A,5351.51919,N,02729.08867,E,0.170,,201015,,,A*7B
$GPRMC,153850.00,A,5351.51923,N,02729.08891,E,0.795,,201015,,,A*7E
$GPRMC,153851.00,A,5351.51916,N,02729.08911,E,1.067,,201015,,,A*7B
$GPRMC,153852.00,A,5351.51890,N,02729.08908,E,0.310,,201015,,,A*7D
$GPRMC,153853.00,A,5351.51857,N,02729.09050,E,1.987,,201015,,,A*77
$GPRMC,153854.00,A,5351.51774,N,02729.08939,E,1.912,,201015,,,A*75
$GPRMC,153855.00,A,5351.51722,N,02729.08913,E,2.351,,201015,,,A*71
$GPRMC,153856.00,A,5351.51689,N,02729.08892,E,1.504,,201015,,,A*7F
$GPRMC,153857.00,A,5351.51659,N,02729.08828,E,0.419,,201015,,,A*7E
$GPRMC,153858.00,A,5351.51639,N,02729.08791,E,0.553,,201015,,,A*75
$GPRMC,153859.00,A,5351.51628,N,02729.08751,E,1.016,,201015,,,A*7D
$GPRMC,153900.00,A,5351.51611,N,02729.08708,E,0.761,,201015,,,A*70
$GPRMC,153901.00,A,5351.51593,N,02729.08701,E,0.260,,201015,,,A*75
$GPRMC,153902.00,A,5351.51595,N,02729.08721,E,0.758,,201015,,,A*7C
$GPRMC,153903.00,A,5351.51591,N,02729.08711,E,0.087,,201015,,,A*7F
$GPRMC,153904.00,A,5351.51570,N,02729.08694,E,0.624,,201015,,,A*74
$GPRMC,153905.00,A,5351.51538,N,02729.08679,E,0.111,,201015,,,A*7B
$GPRMC,153906.00,A,5351.51523,N,02729.08665,E,0.773,,201015,,,A*7D
$GPRMC,153907.00,A,5351.51506,N,02729.08650,E,0.121,,201015,,,A*7C
$GPRMC,153908.00,V,,,,,,,201015,,,N*7C
$GPRMC,153909.00,V,,,,,,,201015,,,N*7D
$GPRMC,153910.00,V,,,,,,,201015,,,N*75
$GPRMC,153911.00,V,,,,,,,201015,,,N*74
$GPRMC,153912.00,V,,,,,,,201015,,,N*77
$GPRMC,153913.00,V,,,,,,,201015,,,N*76
$GPRMC,153914.00,A,5351.51418,N,02729.08552,E,0.323,,201015,,,A*71
$GPRMC,153915.00,A,5351.51395,N,02729.08554,E,0.075,,201015,,,A*74
$GPRMC,153916.00,A,5351.51382,N,02729.08559,E,0.483,,201015,,,A*71
$GPRMC,153917.00,A,5351.51366,N,02729.08567,E,0.868,,201015,,,A*7E
$GPRMC,153918.00,A,5351.51358,N,02729.08581,E,0.294,,201015,,,A*7D
$GPRMC,153919.00,A,5351.51348,N,02729.08575,E,0.549,,201015,,,A*71
$GPRMC,153920.00,A,5351.51343,N,02729.08581,E,0.335,,201015,,,A*76
$GPRMC,153921.00,A,5351.51350,N,02729.08603,E,0.353,,201015,,,A*7C
$GPRMC,153922.00,A,5351.51322,N,02729.08595,E,0.540,,201015,,,A*72
$GPRMC,153923.00,A,5351.51309,N,02729.08616,E,0.230,,201015,,,A*72
$GPRMC,153924.00,A,5351.51312,N,02729.08650,E,0.341,,201015,,,A*7A
$GPRMC,153925.00,A,5351.51310,N,02729.08664,E,0.443,,201015,,,A*7B
$GPRMC,153926.00,A,5351.51307,N,02729.08685,E,1.211,,201015,,,A*71
$GPRMC,153927.00,A,5351.51292,N,02729.08678,E,0.586,,201015,,,A*77
$GPRMC,153928.00,A,5351.51292,N,02729.08702,E,0.326,,201015,,,A*78
$GPRMC,153929.00,A,5351.51292,N,02729.08715,E,0.103,,201015,,,A*7A
$GPRMC,153930.00,A,5351.51304,N,02729.08740,E,0.548,,201015,,,A*77
$GPRMC,153931.00,A,5351.51288,N,02729.08735,E,0.501,,201015,,,A*7C
$GPRMC,153932.00,A,5351.51280,N,02729.08767,E,0.211,,201015,,,A*76
$GPRMC,153933.00,A,5351.51293,N,02729.08815,E,0.396,,201015,,,A*71
$GPRMC,153934.00,A,5351.51307,N,02729.08863,E,0.271,,201015,,,A*73
$GPRMC,153935.00,A,5351.51313,N,02729.08917,E,0.837,,201015,,,A*7D
$GPRMC,153936.00,A,5351.51314,N,02729.08957,E,0.266,,201015,,,A*73
$GPRMC,153937.00,A,5351.51333,N,02729.09014,E,0.608,,201015,,,A*74
$GPRMC,153938.00,A,5351.51353,N,02729.09049,E,0.147,,201015,,,A*79
$GPRMC,153939.00,A,5351.51370,N,02729.09080,E,0.580,,201015,,,A*73
$GPRMC,153940.00,A,5351.51371,N,02729.09090,E,0.111,,201015,,,A*71
$GPRMC,153941.00,A,5351.50190,N,02729.06320,E,3.875,,201015,,,A*73
$GPRMC,153942.00,A,5351.50074,N,02729.06464,E,2.832,,201015,,,A*7E
$GPRMC,153943.00,A,5351.50055,N,02729.06633,E,2.644,278.12,201015,,,A*63
$GPRMC,153944.00,A,5351.50037,N,02729.06794,E,2.286,,201015,,,A*76
$GPRMC,153945.00,A,5351.50046,N,02729.06936,E,0.957,,201015,,,A*72
$GPRMC,153946.00,A,5351.50050,N,02729.07110,E,0.248,,201015,,,A*7E
$GPRMC,153947.00,A,5351.50069,N,02729.07283,E,0.155,,201015,,,A*73
$GPRMC,153948.00,A,5351.50101,N,02729.07444,E,0.690,,201015,,,A*70
$GPRMC,153949.00,A,5351.50135,N,02729.07604,E,0.132,,201015,,,A*7F
$GPRMC,153950.00,A,5351.50162,N,02729.07711,E,0.889,,201015,,,A*79
$GPRMC,153951.00,A,5351.50198,N,02729.07797,E,0.842,,201015,,,A*74
$GPRMC,153952.00,A,5351.50231,N,02729.07894,E,0.229,,201015,,,A*7C
$GPRMC,153953.00,A,5351.50231,N,02729.07975,E,0.205,,201015,,,A*7D
$GPRMC,153954.00,A,5351.50233,N,02729.08049,E,0.827,,201015,,,A*7B
$GPRMC,153955.00,A,5351.50245,N,02729.08131,E,1.303,,201015,,,A*79
$GPRMC,153956.00,A,5351.50268,N,02729.08230,E,0.636,,201015,,,A*75
$GPRMC,153957.00,A,5351.50287,N,02729.08316,E,0.259,,201015,,,A*7D
$GPRMC,153958.00,A,5351.50312,N,02729.08420,E,0.281,,201015,,,A*78
$GPRMC,153959.00,A,5351.50333,N,02729.08505,E,1.151,,201015,,,A*73
$GPRMC,154000.00,A,5351.50361,N,02729.08577,E,1.077,,201015,,,A*76
$GPRMC,154001.00,A,5351.50392,N,02729.08656,E,0.461,,201015,,,A*79
$GPRMC,154002.00,A,5351.50415,N,02729.08731,E,0.268,,201015,,,A*7D
$GPRMC,154003.00,A,5351.50409,N,02729.08768,E,0.560,,201015,,,A*72
$GPRMC,154004.00,A,5351.50418,N,02729.08807,E,0.481,,201015,,,A*7D
$GPRMC,154005.00,A,5351.50428,N,02729.08862,E,0.142,,201015,,,A*76
$GPRMC,154006.00,A,5351.50434,N,02729.08898,E,0.696,,201015,,,A*73
$GPRMC,154007.00,A,5351.50429,N,02729.08930,E,0.178,,201015,,,A*7A
$GPRMC,154008.00,A,5351.50432,N,02729.08958,E,0.630,,201015,,,A*7A
$GPRMC,154009.00,A,5351.50429,N,02729.08982,E,0.102,,201015,,,A*70
$GPRMC,154010.00,A,5351.50433,N,02729.09012,E,0.702,,201015,,,A*74
$GPRMC,154011.00,A,5351.50432,N,02729.09045,E,0.681,,201015,,,A*7C
$GPRMC,154012.00,A,5351.50416,N,02729.09051,E,0.168,,201015,,,A*7C
$GPRMC,154013.00,A,5351.50418,N,02729.09066,E,0.195,,201015,,,A*75
$GPRMC,154014.00,A,5351.50413,N,02729.09068,E,0.672,,201015,,,A*79
$GPRMC,154015.00,A,5351.50408,N,02729.09090,E,1.308,,201015,,,A*7C
$GPRMC,154016.00,A,5351.50408,N,02729.09114,E,0.648,,201015,,,A*72
$GPRMC,154017.00,A,5351.50432,N,02729.09163,E,0.237,,201015,,,A*76
$GPRMC,154018.00,A,5351.50462,N,02729.09222,E,0.209,,201015,,,A*77
$GPRMC,154019.00,A,5351.50488,N,02729.09257,E,0.984,,201015,,,A*7E
$GPRMC,154020.00,A,5351.50492,N,02729.09273,E,0.744,,201015,,,A*7B
$GPRMC,154021.00,A,5351.50500,N,02729.09285,E,0.225,,201015,,,A*7B
$GPRMC,154022.00,A,5351.50510,N,02729.09299,E,0.084,,201015,,,A*7D
$GPRMC,154023.00,A,5351.50536,N,02729.09326,E,0.749,,201015,,,A*7B
$GPRMC,154024.00,A,5351.50532,N,02729.09326,E,1.029,,201015,,,A*78
$GPRMC,154025.00,A,5351.50552,N,02729.09372,E,0.264,,201015,,,A*74
$GPRMC,154026.00,A,5351.50571,N,02729.09401,E,0.324,,201015,,,A*70
$GPRMC,154027.00,A,5351.50588,N,02729.09435,E,0.323,,201015,,,A*77
$GPRMC,154028.00,A,5351.50592,N,02729.09453,E,0.599,,201015,,,A*74
$GPRMC,154029.00,A,5351.50584,N,02729.09458,E,0.217,,201015,,,A*78
$GPRMC,154030.00,A,5351.50583,N,02729.09470,E,1.015,,201015,,,A*7C
$GPRMC,154031.00,A,5351.50587,N,02729.09486,E,0.576,,201015,,,A*71
$GPRMC,154032.00,A,5351.50605,N,02729.09516,E,0.197,,201015,,,A*78
$GPRMC,154033.00,A,5351.50591,N,02729.09500,E,0.430,,201015,,,A*78
$GPRMC,154034.00,A,5351.50585,N,02729.09506,E,0.248,,201015,,,A*75
$GPRMC,154035.00,A,5351.50572,N,02729.09496,E,0.305,,201015,,,A*7C
$GPRMC,154036.00,A,5351.50575,N,02729.09513,E,0.671,,201015,,,A*72
$GPRMC,154037.00,A,5351.50574,N,02729.09513,E,1.415,,201015,,,A*73
$GPRMC,154038.00,A,5351.50589,N,02729.09536,E,0.695,,201015,,,A*72
$GPRMC,154039.00,A,5351.50594,N,02729.09543,E,0.369,,201015,,,A*7B
$GPRMC,154040.00,A,5351.50605,N,02729.09550,E,0.382,,201015,,,A*79
$GPRMC,154041.00,A,5351.50619,N,02729.09562,E,0.149,,201015,,,A*71
$GPRMC,154042.00,A,5351.50613,N,02729.09552,E,0.340,,201015,,,A*70
$GPRMC,154043.00,A,5351.50596,N,02729.09523,E,1.034,,201015,,,A*78
$GPRMC,154044.00,A,5351.50590,N,02729.09502,E,0.898,,201015,,,A*75
$GPRMC,154045.00,A,5351.50590,N,02729.09491,E,0.172,,201015,,,A*72
$GPRMC,154046.00,A,5351.50581,N,02729.09486,E,0.744,,201015,,,A*74
$GPRMC,154047.00,A,5351.50564,N,02729.09467,E,0.335,,201015,,,A*73
$GPRMC,154048.00,A,5351.50566,N,02729.09469,E,0.432,,201015,,,A*70
$GPRMC,154049.00,A,5351.50568,N,02729.09462,E,0.080,,201015,,,A*79
$GPRMC,154050.00,A,5351.50573,N,02729.09470,E,0.600,,201015,,,A*76
$GPRMC,154051.00,A,5351.50581,N,02729.09487,E,0.238,,201015,,,A*7D
$GPRMC,154052.00,A,5351.50595,N,02729.09514,E,0.552,,201015,,,A*7B
$GPRMC,154053.00,A,5351.50601,N,02729.09522,E,0.308,,201015,,,A*78
$GPRMC,154054.00,A,5351.50600,N,02729.09506,E,0.738,,201015,,,A*7F
$GPRMC,154055.00,A,5351.50614,N,02729.09535,E,0.699,,201015,,,A*71
$GPRMC,154056.00,A,5351.50581,N,02729.09504,E,0.238,,201015,,,A*70
$GPRMC,154057.00,A,5351.50579,N,02729.09502,E,0.292,,201015,,,A*70
$GPRMC,154058.00,A,5351.50590,N,02729.09532,E,0.484,,201015,,,A*7A
$GPRMC,154059.00,A,5351.50583,N,02729.09539,E,0.907,,201015,,,A*74
$GPRMC,154100.00,A,5351.50575,N,02729.09538,E,0.070,,201015,,,A*78
$GPRMC,154101.00,A,5351.50570,N,02729.09524,E,0.737,,201015,,,A*75
$GPRMC,154102.00,A,5351.50563,N,02729.09503,E,0.048,,201015,,,A*7E
$GPRMC,154103.00,A,5351.50559,N,02729.09499,E,0.702,,201015,,,A*7D
$GPRMC,154104.00,A,5351.50542,N,02729.09492,E,0.697,,201015,,,A*76
$GPRMC,154105.00,A,5351.50536,N,02729.09496,E,0.307,,201015,,,A*7C
$GPRMC,154106.00,A,5351.50517,N,02729.09476,E,0.162,,201015,,,A*73
$GPRMC,154107.00,A,5351.50518,N,02729.09496,E,0.435,,201015,,,A*74
$GPRMC,154108.00,A,5351.50523,N,02729.09531,E,0.595,,201015,,,A*74
$GPRMC,154109.00,A,5351.50522,N,02729.09551,E,0.141,,201015,,,A*7F
$GPRMC,154110.00,A,5351.50515,N,02729.09565,E,0.509,,201015,,,A*7C
$GPRMC,154111.00,A,5351.50511,N,02729.09580,E,0.042,,201015,,,A*78
$GPRMC,154112.00,A,5351.50507,N,02729.09596,E,0.422,,201015,,,A*79
$GPRMC,154113.00,A,5351.50507,N,02729.09613,E,0.382,,201015,,,A*7B
$GPRMC,154114.00,A,5351.50500,N,02729.09624,E,0.994,,201015,,,A*72
$GPRMC,154115.00,A,5351.50493,N,02729.09626,E,0.390,,201015,,,A*74
$GPRMC,154116.00,A,5351.50488,N,02729.09632,E,0.342,,201015,,,A*77
$GPRMC,154117.00,A,5351.50489,N,02729.09653,E,0.172,,201015,,,A*71
$GPRMC,154118.00,A,5351.50483,N,02729.09654,E,0.704,,201015,,,A*74
$GPRMC,154119.00,A,5351.50473,N,02729.09643,E,0.882,,201015,,,A*7D
$GPRMC,154120.00,A,5351.50485,N,02729.09674,E,0.275,,201015,,,A*78
$GPRMC,154121.00,A,5351.50496,N,02729.09704,E,0.545,,201015,,,A*79
$GPRMC,154122.00,A,5351.50497,N,02729.09722,E,0.265,,201015,,,A*7A
$GPRMC,154123.00,A,5351.50492,N,02729.09723,E,0.345,,201015,,,A*7C
$GPRMC,154124.00,A,5351.50489,N,02729.09743,E,0.037,,201015,,,A*71
$GPRMC,154125.00,A,5351.50481,N,02729.09751,E,0.294,,201015,,,A*70
$GPRMC,154126.00,A,5351.50484,N,02729.09787,E,0.039,,201015,,,A*78
$GPRMC,154127.00,A,5351.50487,N,02729.09818,E,0.321,,201015,,,A*79
$GPRMC,154128.00,A,5351.50487,N,02729.09852,E,0.062,,201015,,,A*7C
$GPRMC,154129.00,A,5351.50493,N,02729.09893,E,0.650,,201015,,,A*72
$GPRMC,154130.00,A,5351.50492,N,02729.09917,E,1.243,,201015,,,A*71
$GPRMC,154131.00,A,5351.50485,N,02729.09917,E,0.450,,201015,,,A*73
$GPRMC,154132.00,A,5351.50473,N,02729.09902,E,0.160,,201015,,,A*7B
$GPRMC,154133.00,A,5351.50474,N,02729.09917,E,0.285,,201015,,,A*71
$GPRMC,154134.00,A,5351.50470,N,02729.09921,E,0.898,,201015,,,A*71
$GPRMC,154135.00,A,5351.50453,N,02729.09903,E,0.884,,201015,,,A*7C
$GPRMC,154136.00,A,5351.50439,N,02729.09880,E,0.193,,201015,,,A*76
$GPRMC,154137.00,A,5351.50449,N,02729.09920,E,0.465,,201015,,,A*77
$GPRMC,154138.00,A,5351.50460,N,02729.09954,E,0.026,,201015,,,A*73
$GPRMC,154139.00,A,5351.50454,N,02729.09948,E,0.505,,201015,,,A*7C
$GPRMC,154140.00,A,5351.50444,N,02729.09936,E,0.173,,201015,,,A*7F
$GPRMC,154141.00,A,5351.50437,N,02729.09938,E,0.811,,201015,,,A*79
$GPRMC,154142.00,A,5351.50439,N,02729.09951,E,0.203,,201015,,,A*72
$GPRMC,154143.00,A,5351.50433,N,02729.09950,E,0.733,,201015,,,A*7E
$GPRMC,154144.00,A,5351.50426,N,02729.09947,E,0.590,,201015,,,A*70
$GPRMC,154145.00,A,5351.50425,N,02729.09953,E,0.193,,201015,,,A*70
$GPRMC,154146.00,A,5351.50426,N,02729.09958,E,0.145,,201015,,,A*70
$GPRMC,154147.00,A,5351.50433,N,02729.09973,E,0.730,,201015,,,A*78
$GPRMC,154148.00,A,5351.50457,N,02729.10022,E,0.435,,201015,,,A*76
$GPRMC,154149.00,A,5351.50457,N,02729.10038,E,0.263,,201015,,,A*79
$GPRMC,154150.00,A,5351.50448,N,02729.10029,E,0.445,,201015,,,A*7D
$GPRMC,154151.00,A,5351.50443,N,02729.10027,E,0.339,,201015,,,A*75
$GPRMC,154152.00,A,5351.50436,N,02729.10033,E,1.371,,201015,,,A*7C
$GPRMC,154153.00,A,5351.50425,N,02729.10029,E,0.788,,201015,,,A*77
$GPRMC,154154.00,A,5351.50417,N,02729.10035,E,0.145,,201015,,,A*7B
$GPRMC,154155.00,A,5351.50409,N,02729.10030,E,0.205,,201015,,,A*77
$GPRMC,154156.00,A,5351.50410,N,02729.10037,E,0.684,,201015,,,A*76
$GPRMC,154157.00,A,5351.50423,N,02729.10085,E,0.269,,201015,,,A*79
$GPRMC,154158.00,A,5351.50424,N,02729.10102,E,0.566,,201015,,,A*77
$GPRMC,154159.00,A,5351.50413,N,02729.10083,E,0.505,,201015,,,A*7F
$GPRMC,154200.00,A,5351.50416,N,02729.10093,E,0.146,,201015,,,A*77
$GPRMC,154201.00,A,5351.50413,N,02729.10102,E,0.606,,201015,,,A*79
$GPRMC,154202.00,A,5351.50405,N,02729.10100,E,0.073,,201015,,,A*7B
$GPRMC,154203.00,A,5351.50400,N,02729.10098,E,0.447,,201015,,,A*7C
$GPRMC,154204.00,A,5351.50396,N,02729.10098,E,0.034,,201015,,,A*73
$GPRMC,154205.00,A,5351.50400,N,02729.10127,E,0.376,,201015,,,A*7A
$GPRMC,154206.00,A,5351.50390,N,02729.10130,E,0.536,,201015,,,A*73
$GPRMC,154207.00,A,5351.50375,N,02729.10105,E,0.224,,201015,,,A*7B
$GPRMC,154208.00,A,5351.50365,N,02729.10088,E,0.251,,201015,,,A*73
$GPRMC,154209.00,A,5351.50366,N,02729.10104,E,0.312,,201015,,,A*72
$GPRMC,154210.00,A,5351.50360,N,02729.10110,E,0.534,,201015,,,A*7B
$GPRMC,154211.00,A,5351.50356,N,02729.10120,E,0.306,,201015,,,A*7B
$GPRMC,154212.00,A,5351.50339,N,02729.10099,E,0.383,,201015,,,A*7F
$GPRMC,154213.00,A,5351.50341,N,02729.10105,E,0.237,,201015,,,A*7B
$GPRMC,154214.00,A,5351.50346,N,02729.10113,E,0.903,,201015,,,A*70
$GPRMC,154215.00,A,5351.50338,N,02729.10107,E,0.531,,201015,,,A*70
$GPRMC,154216.00,A,5351.50329,N,02729.10101,E,0.663,,201015,,,A*71
$GPRMC,154217.00,A,5351.50331,N,02729.10112,E,0.945,,201015,,,A*70
$GPRMC,154218.00,A,5351.50333,N,02729.10128,E,0.073,,201015,,,A*78
$GPRMC,154219.00,A,5351.50329,N,02729.10127,E,0.768,,201015,,,A*70
$GPRMC,154220.00,A,5351.50313,N,02729.10105,E,0.146,,201015,,,A*79
$GPRMC,154221.00,A,5351.50308,N,02729.10095,E,0.549,,201015,,,A*71
$GPRMC,154222.00,A,5351.50296,N,02729.10084,E,0.107,,201015,,,A*7A
$GPRMC,154223.00,A,5351.50291,N,02729.10081,E,0.544,,201015,,,A*7A
$GPRMC,154224.00,A,5351.50293,N,02729.10085,E,0.207,,201015,,,A*7B
$GPRMC,154225.00,A,5351.50286,N,02729.10073,E,0.592,,201015,,,A*7C
$GPRMC,154226.00,A,5351.50287,N,02729.10075,E,0.426,,201015,,,A*76
$GPRMC,154227.00,A,5351.50289,N,02729.10078,E,0.391,,201015,,,A*7F
$GPRMC,154228.00,A,5351.50288,N,02729.10075,E,0.836,,201015,,,A*7A
$GPRMC,154229.00,A,5351.50283,N,02729.10065,E,0.222,,201015,,,A*7E
$GPRMC,154230.00,A,5351.50271,N,02729.10046,E,0.371,,201015,,,A*7D
$GPRMC,154231.00,A,5351.50265,N,02729.10039,E,0.194,,201015,,,A*78
$GPRMC,154232.00,A,5351.50264,N,02729.10037,E,0.821,,201015,,,A*73
$GPRMC,154233.00,A,5351.50255,N,02729.10028,E,0.453,,201015,,,A*77
$GPRMC,154234.00,A,5351.50254,N,02729.10025,E,0.205,,201015,,,A*79
$GPRMC,154235.00,A,5351.50108,N,02729.09670,E,5.253,,201015,,,A*7A
$GPRMC,154236.00,A,5351.49966,N,02729.09238,E,6.091,247.64,201015,,,A*6B
$GPRMC,154237.00,A,5351.49723,N,02729.08799,E,8.329,232.22,201015,,,A*64
$GPRMC,154238.00,A,5351.49452,N,02729.08442,E,7.691,228.59,201015,,,A*65
$GPRMC,154239.00,A,5351.49090,N,02729.08043,E,9.664,221.15,201015,,,A*6E
$GPRMC,154240.00,A,5351.48616,N,02729.07586,E,12.623,216.92,201015,,,A*58
$GPRMC,154241.00,A,5351.48056,N,02729.07114,E,14.036,217.60,201015,,,A*5C
$GPRMC,154242.00,A,5351.47413,N,02729.06602,E,16.318,212.99,201015,,,A*5A
$GPRMC,154243.00,A,5351.46744,N,02729.06118,E,16.707,210.98,201015,,,A*5E
$GPRMC,154244.00,A,5351.46094,N,02729.05740,E,16.422,207.08,201015,,,A*50
$GPRMC,154245.00,A,5351.45423,N,02729.05283,E,17.503,209.72,201015,,,A*50
$GPRMC,154246.00,A,5351.44705,N,02729.04913,E,17.398,209.17,201015,,,A*51
$GPRMC,154247.00,A,5351.46794,N,02729.03910,E,9.639,222.48,201015,,,A*6C
$GPRMC,154248.00,A,5351.46979,N,02729.03747,E,7.238,230.33,201015,,,A*66
$GPRMC,154249.00,A,5351.46932,N,02729.03671,E,6.193,234.90,201015,,,A*62
$GPRMC,154250.00,A,5351.46948,N,02729.03812,E,3.781,235.40,201015,,,A*60
$GPRMC,154251.00,A,5351.47007,N,02729.04067,E,0.743,,201015,,,A*7C
$GPRMC,154252.00,A,5351.47038,N,02729.04266,E,0.919,,201015,,,A*71
$GPRMC,154253.00,A,5351.47047,N,02729.04393,E,0.392,,201015,,,A*7A
$GPRMC,154254.00,A,5351.47056,N,02729.04496,E,0.464,,201015,,,A*71
$GPRMC,154255.00,A,5351.47060,N,02729.04600,E,0.450,,201015,,,A*7F
$GPRMC,154256.00,A,5351.47081,N,02729.04735,E,0.290,,201015,,,A*7E
$GPRMC,154257.00,A,5351.47094,N,02729.04832,E,0.134,,201015,,,A*7E
$GPRMC,154258.00,A,5351.47094,N,02729.04856,E,1.208,,201015,,,A*7E
$GPRMC,154259.00,A,5351.47138,N,02729.05024,E,0.767,,201015,,,A*79
$GPRMC,154300.00,A,5351.47176,N,02729.05155,E,0.291,,201015,,,A*75
$GPRMC,154301.00,A,5351.47208,N,02729.05296,E,1.075,,201015,,,A*7B
$GPRMC,154302.00,A,5351.47235,N,02729.05423,E,0.522,,201015,,,A*78
$GPRMC,154303.00,A,5351.47307,N,02729.05685,E,0.750,,201015,,,A*70
$GPRMC,154304.00,A,5351.47368,N,02729.05904,E,1.708,,201015,,,A*74
$GPRMC,154305.00,A,5351.47425,N,02729.06126,E,2.957,,201015,,,A*77
$GPRMC,154306.00,A,5351.47428,N,02729.06180,E,1.669,,201015,,,A*74
$GPRMC,154307.00,A,5351.47468,N,02729.06324,E,0.937,,201015,,,A*78
$GPRMC,154308.00,A,5351.47511,N,02729.06479,E,0.772,,201015,,,A*78
$GPRMC,154309.00,A,5351.47553,N,02729.06624,E,1.479,,201015,,,A*7C
$GPRMC,154310.00,A,5351.47599,N,02729.06779,E,1.985,,201015,,,A*75
$GPRMC,154311.00,A,5351.47635,N,02729.06886,E,1.134,,201015,,,A*7C
$GPRMC,154312.00,A,5351.47658,N,02729.06948,E,0.041,,201015,,,A*75
$GPRMC,154313.00,A,5351.47660,N,02729.06941,E,0.341,,201015,,,A*75
$GPRMC,154314.00,A,5351.47667,N,02729.06951,E,0.218,,201015,,,A*79
$GPRMC,154315.00,A,5351.47694,N,02729.07023,E,0.434,,201015,,,A*71
$GPRMC,154316.00,A,5351.47689,N,02729.06999,E,0.910,,201015,,,A*7C
$GPRMC,154317.00,A,5351.47726,N,02729.07093,E,0.598,,201015,,,A*77
$GPRMC,154318.00,A,5351.47747,N,02729.07147,E,0.138,,201015,,,A*79
$GPRMC,154319.00,A,5351.47804,N,02729.07338,E,1.530,,201015,,,A*77
$GPRMC,154320.00,A,5351.47832,N,02729.07425,E,0.841,,201015,,,A*79
$GPRMC,154321.00,A,5351.47847,N,02729.07451,E,0.412,,201015,,,A*73
$GPRMC,154322.00,A,5351.47852,N,02729.07448,E,0.345,,201015,,,A*79
$GPRMC,154323.00,A,5351.47925,N,02729.07692,E,2.108,,201015,,,A*75
$GPRMC,154324.00,A,5351.47938,N,02729.07730,E,1.042,,201015,,,A*7B
$GPRMC,154325.00,A,5351.47935,N,02729.07683,E,0.935,,201015,,,A*76
$GPRMC,154326.00,A,5351.47965,N,02729.07769,E,0.706,,201015,,,A*7B
$GPRMC,154327.00,A,5351.48012,N,02729.07924,E,0.886,,201015,,,A*7C
$GPRMC,154328.00,A,5351.48039,N,02729.07989,E,1.114,,201015,,,A*7E
$GPRMC,154329.00,A,5351.48034,N,02729.07967,E,0.082,,201015,,,A*7D
$GPRMC,154330.00,A,5351.48056,N,02729.08000,E,0.547,,201015,,,A*7A
$GPRMC,154331.00,A,5351.48079,N,02729.08021,E,0.253,,201015,,,A*77
$GPRMC,154332.00,A,5351.48118,N,02729.08115,E,0.907,,201015,,,A*7E
$GPRMC,154333.00,A,5351.48162,N,02729.08216,E,1.003,,201015,,,A*7E
$GPRMC,154334.00,A,5351.48221,N,02729.08361,E,1.048,,201015,,,A*73
$GPRMC,154335.00,A,5351.48265,N,02729.08455,E,0.905,,201015,,,A*73
$GPRMC,154336.00,A,5351.48235,N,02729.08352,E,0.122,,201015,,,A*78
$GPRMC,154337.00,A,5351.48310,N,02729.08553,E,2.443,139.84,201015,,,A*61
$GPRMC,154338.00,A,5351.48292,N,02729.08481,E,0.623,,201015,,,A*74
$GPRMC,154339.00,A,5351.48290,N,02729.08464,E,0.067,,201015,,,A*7A
$GPRMC,154340.00,A,5351.48317,N,02729.08535,E,0.965,,201015,,,A*74
$GPRMC,154341.00,A,5351.48342,N,02729.08602,E,1.890,,201015,,,A*78
$GPRMC,154342.00,A,5351.48331,N,02729.08531,E,0.689,,201015,,,A*7B
$GPRMC,154343.00,A,5351.48341,N,02729.08549,E,0.111,,201015,,,A*74
$GPRMC,154344.00,A,5351.48353,N,02729.08575,E,0.192,,201015,,,A*74
$GPRMC,154345.00,A,5351.48369,N,02729.08605,E,0.573,,201015,,,A*73
$GPRMC,154346.00,A,5351.48359,N,02729.08574,E,0.207,,201015,,,A*72
$GPRMC,154347.00,A,5351.48368,N,02729.08593,E,0.461,,201015,,,A*7E
$GPRMC,154348.00,V,,,,,,,201015,,,N*75
$GPRMC,154349.00,V,,,,,,,201015,,,N*74
$GPRMC,154350.00,V,,,,,,,201015,,,N*7C
$GPRMC,154351.00,V,,,,,,,201015,,,N*7D
$GPRMC,154352.00,V,,,,,,,201015,,,N*7E
$GPRMC,154353.00,V,,,,,,,201015,,,N*7F
$GPRMC,154354.00,A,5351.48422,N,02729.08845,E,1.975,,201015,,,A*7A
$GPRMC,154355.00,A,5351.48550,N,02729.09227,E,4.409,80.53,201015,,,A*53
$GPRMC,154356.00,A,5351.48568,N,02729.09257,E,2.841,,201015,,,A*7A
$GPRMC,154357.00,A,5351.48556,N,02729.09160,E,0.877,,201015,,,A*76
$GPRMC,154358.00,A,5351.48611,N,02729.09271,E,1.636,,201015,,,A*70
$GPRMC,154359.00,A,5351.48591,N,02729.09180,E,1.014,,201015,,,A*71
$GPRMC,154400.00,A,5351.48584,N,02729.09109,E,0.322,,201015,,,A*78
$GPRMC,154401.00,A,5351.48482,N,02729.08781,E,3.270,150.47,201015,,,A*65
$GPRMC,154402.00,A,5351.48491,N,02729.08728,E,2.528,188.86,201015,,,A*64
$GPRMC,154403.00,A,5351.48509,N,02729.08770,E,0.899,,201015,,,A*7C
$GPRMC,154404.00,A,5351.48498,N,02729.08721,E,0.847,,201015,,,A*75
$GPRMC,154405.00,A,5351.48526,N,02729.08762,E,0.730,,201015,,,A*78
$GPRMC,154406.00,A,5351.48505,N,02729.08676,E,1.964,,201015,,,A*70
$GPRMC,154407.00,A,5351.48549,N,02729.08782,E,0.185,,201015,,,A*75
$GPRMC,154408.00,A,5351.48558,N,02729.08789,E,0.563,,201015,,,A*7D
$GPRMC,154409.00,A,5351.48565,N,02729.08778,E,0.069,,201015,,,A*73
$GPRMC,154410.00,A,5351.48551,N,02729.08713,E,1.263,,201015,,,A*78
$GPRMC,154411.00,A,5351.48515,N,02729.08580,E,1.921,,201015,,,A*7C
$GPRMC,154412.00,A,5351.48596,N,02729.08834,E,1.417,,201015,,,A*7E
$GPRMC,154413.00,A,5351.48581,N,02729.08768,E,0.163,,201015,,,A*78
$GPRMC,154414.00,A,5351.48646,N,02729.08924,E,0.813,,201015,,,A*7F
$GPRMC,154415.00,A,5351.48630,N,02729.08869,E,0.100,,201015,,,A*7C
$GPRMC,154416.00,A,5351.48664,N,02729.09003,E,1.876,,201015,,,A*72
$GPRMC,154417.00,A,5351.48668,N,02729.09027,E,1.639,,201015,,,A*7C
$GPRMC,154418.00,A,5351.48606,N,02729.08820,E,1.479,,201015,,,A*73
$GPRMC,154419.00,A,5351.48580,N,02729.08736,E,2.215,,201015,,,A*78
$GPRMC,154420.00,A,5351.48562,N,02729.08666,E,1.812,,201015,,,A*74
$GPRMC,154421.00,A,5351.48576,N,02729.08695,E,0.288,,201015,,,A*74
$GPRMC,154422.00,A,5351.48552,N,02729.08613,E,1.419,,201015,,,A*70
$GPRMC,154423.00,A,5351.48581,N,02729.08708,E,1.068,,201015,,,A*76
$GPRMC,154424.00,A,5351.48579,N,02729.08715,E,1.033,,201015,,,A*74
$GPRMC,154425.00,A,5351.48609,N,02729.08808,E,0.584,,201015,,,A*7A
$GPRMC,154426.00,A,5351.48617,N,02729.08834,E,1.031,,201015,,,A*73
$GPRMC,154427.00,A,5351.48703,N,02729.09085,E,2.115,,201015,,,A*71
$GPRMC,154428.00,A,5351.48736,N,02729.09193,E,1.594,,201015,,,A*70
$GPRMC,154429.00,A,5351.48682,N,02729.09021,E,0.645,,201015,,,A*79
$GPRMC,154430.00,A,5351.48614,N,02729.08819,E,0.399,,201015,,,A*78
$GPRMC,154431.00,A,5351.48520,N,02729.08503,E,2.678,,201015,,,A*73
$GPRMC,154432.00,A,5351.48516,N,02729.08501,E,2.111,,201015,,,A*7F
$GPRMC,154433.00,A,5351.48502,N,02729.08490,E,0.901,,201015,,,A*79
$GPRMC,154434.00,A,5351.48524,N,02729.08593,E,1.516,,201015,,,A*73
$GPRMC,154435.00,A,5351.48863,N,02729.09802,E,2.181,,201015,,,A*71
$GPRMC,154436.00,A,5351.49106,N,02729.10396,E,0.761,,201015,,,A*7D
$GPRMC,154437.00,A,5351.49287,N,02729.10800,E,1.052,,201015,,,A*74
$GPRMC,154438.00,A,5351.49423,N,02729.11008,E,0.913,,201015,,,A*7F
$GPRMC,154439.00,A,5351.49522,N,02729.11039,E,1.504,,201015,,,A*77
$GPRMC,154440.00,A,5351.49570,N,02729.10966,E,3.366,,201015,,,A*7C
$GPRMC,154441.00,A,5351.49395,N,02729.10853,E,2.962,,201015,,,A*78
$GPRMC,154442.00,A,5351.49357,N,02729.10713,E,1.908,,201015,,,A*71
$GPRMC,154443.00,A,5351.49342,N,02729.10660,E,0.539,,201015,,,A*7E
$GPRMC,154444.00,A,5351.49311,N,02729.10566,E,1.043,,201015,,,A*73
$GPRMC,154445.00,A,5351.49271,N,02729.10441,E,2.107,,201015,,,A*73
$GPRMC,154446.00,A,5351.49254,N,02729.10395,E,1.135,,201015,,,A*7B
$GPRMC,154447.00,A,5351.49222,N,02729.10298,E,0.205,,201015,,,A*76
$GPRMC,154448.00,A,5351.49178,N,02729.10177,E,0.516,,201015,,,A*72
$GPRMC,154449.00,A,5351.49212,N,02729.10259,E,0.180,,201015,,,A*78
$GPRMC,154450.00,A,5351.49223,N,02729.10287,E,0.409,,201015,,,A*75
$GPRMC,154451.00,A,5351.49162,N,02729.10119,E,0.257,,201015,,,A*7B
$GPRMC,154452.00,A,5351.49163,N,02729.10118,E,0.441,,201015,,,A*79
$GPRMC,154453.00,A,5351.49149,N,02729.10078,E,0.373,,201015,,,A*71
$GPRMC,154454.00,A,5351.49128,N,02729.10016,E,1.030,,201015,,,A*7C
$GPRMC,154455.00,V,,,,,,,201015,,,N*7E
$GPRMC,154456.00,V,,,,,,,201015,,,N*7D
$GPRMC,154457.00,V,,,,,,,201015,,,N*7C
$GPRMC,154458.00,V,,,,,,,201015,,,N*73
$GPRMC,154459.00,V,,,,,,,201015,,,N*72
$GPRMC,154500.00,A,5351.49088,N,02729.09962,E,0.465,,201015,,,A*70
$GPRMC,154501.00,A,5351.49157,N,02729.10207,E,1.197,,201015,,,A*7B
$GPRMC,154502.00,V,,,,,,,201015,,,N*7D
$GPRMC,154503.00,V,,,,,,,201015,,,N*7C
$GPRMC,154504.00,V,,,,,,,201015,,,N*7B
$GPRMC,154505.00,V,,,,,,,201015,,,N*7A
$GPRMC,154506.00,V,,,,,,,201015,,,N*79
$GPRMC,154507.00,A,5351.49221,N,02729.10511,E,2.127,,201015,,,A*77
$GPRMC,154508.00,A,5351.49333,N,02729.10915,E,4.791,100.82,201015,,,A*6A
$GPRMC,154509.00,A,5351.49456,N,02729.11382,E,6.910,78.71,201015,,,A*5D
$GPRMC,154510.00,A,5351.49417,N,02729.11332,E,5.182,70.39,201015,,,A*5F
$GPRMC,154511.00,A,5351.49351,N,02729.11175,E,3.012,,201015,,,A*77
$GPRMC,154512.00,A,5351.49318,N,02729.11101,E,1.951,,201015,,,A*76
$GPRMC,154513.00,V,,,,,,,201015,,,N*7D
$GPRMC,154514.00,V,,,,,,,201015,,,N*7A
$GPRMC,154515.00,V,,,,,,,201015,,,N*7B
$GPRMC,154516.00,V,,,,,,,201015,,,N*78
$GPRMC,154517.00,V,,,,,,,201015,,,N*79
$GPRMC,154518.00,V,,,,,,,201015,,,N*76
$GPRMC,154519.00,V,,,,,,,201015,,,N*77
$GPRMC,154520.00,V,,,,,,,201015,,,N*7D
$GPRMC,154521.00,V,,,,,,,201015,,,N*7C
$GPRMC,154522.00,V,,,,,,,201015,,,N*7F
$GPRMC,154523.00,A,5351.49738,N,02729.12044,E,2.493,65.55,201015,,,A*5C
$GPRMC,154524.00,A,5351.49613,N,02729.11680,E,0.740,,201015,,,A*7C
$GPRMC,154525.00,A,5351.49616,N,02729.11694,E,1.487,,201015,,,A*74
$GPRMC,154526.00,A,5351.49510,N,02729.11401,E,0.210,,201015,,,A*75
$GPRMC,154527.00,V,,,,,,,201015,,,N*7A
$GPRMC,154528.00,V,,,,,,,201015,,,N*75
$GPRMC,154529.00,V,,,,,,,201015,,,N*74
$GPRMC,154530.00,V,,,,,,,201015,,,N*7C
$GPRMC,154531.00,V,,,,,,,201015,,,N*7D
$GPRMC,154532.00,A,5351.49438,N,02729.11163,E,0.645,,201015,,,A*7E
$GPRMC,154533.00,A,5351.49357,N,02729.10985,E,0.988,,201015,,,A*7E
$GPRMC,154534.00,A,5351.49291,N,02729.10738,E,0.523,,201015,,,A*77
$GPRMC,154535.00,A,5351.49257,N,02729.10596,E,0.187,,201015,,,A*70
$GPRMC,154536.00,A,5351.49184,N,02729.10393,E,0.692,,201015,,,A*7E
$GPRMC,154537.00,A,5351.49111,N,02729.10250,E,0.213,,201015,,,A*70
$GPRMC,154538.00,A,5351.49159,N,02729.10395,E,1.499,,201015,,,A*7E
$GPRMC,154539.00,A,5351.49133,N,02729.10319,E,0.343,,201015,,,A*76
