0: $GPGSV,4,4,14,31,40,084,25,32,62,093,29*75
0: $GPGLL,5344.79739,N,02835.15628,E,145449.00,A,A*61
0: $GPRMC,145450.00,A,5344.80324,N,02835.18360,E,62.133,70.31,241015,,,A*67
0: $GPVTG,70.31,T,,M,62.133,N,115.071,K,A*3E
0: $GPGGA,145450.00,5344.80324,N,02835.18360,E,1,12,0.87,178.2,M,24.2,M,,*52
0: $GPGSA,A,3,32,01,03,04,11,19,17,14,23,31,12,25,1.44,0.87,1.15*02
0: $GPGSV,4,1,14,01,56,182,25,03,75,282,31,04,30,162,25,06,03,318,*76
0: $GPGSV,4,2,14,09,02,228,,11,31,188,30,12,07,002,26,14,10,051,20*79
0: $GPGSV,4,3,14,17,28,288,39,19,15,219,30,23,39,220,39,25,07,038,30*73
1: $GPGSV,4,4,14,31,40,084,23,32,62,093,29*73
1: $GPGLL,5344.80324,N,02835.18360,E,145450.00,A,A*63
1: $GPRMC,145451.00,A,5344.80900,N,02835.21114,E,62.495,70.69,241015,,,A*65
1: $GPVTG,70.69,T,,M,62.495,N,115.740,K,A*3F
1: $GPGGA,145451.00,5344.80900,N,02835.21114,E,1,12,0.82,178.1,M,24.2,M,,*52
1: $GPGSA,A,3,32,01,03,04,11,19,17,14,23,31,12,25,1.40,0.82,1.13*05
1: $GPGSV,4,1,14,01,56,182,26,03,75,282,32,04,30,162,25,06,03,318,*76
1: $GPGSV,4,2,14,09,02,228,,11,31,188,29,12,07,002,25,14,10,051,22*70
2: $GPGSV,4,3,14,17,28,288,39,19,15,219,30,23,39,220,39,25,07,038,30*73
2: $GPGSV,4,4,14,31,40,084,21,32,62,093,30*79
2: $GPGLL,5344.80900,N,02835.21114,E,145451.00,A,A*65
2: $GPRMC,145452.00,A,5344.81460,N,02835.23863,E,62.136,71.19,241015,,,A*6D
2: $GPVTG,71.19,T,,M,62.136,N,115.075,K,A*34
2: $GPGGA,145452.00,5344.81460,N,02835.23863,E,1,12,0.82,178.3,M,24.2,M,,*52
2: $GPGSA,A,3,32,01,03,04,11,19,17,14,23,31,12,25,1.40,0.82,1.13*05
2: $GPGSV,4,1,14,01,56,182,25,03,75,282,32,04,30,162,26,06,03,318,*76
2: $GPGSV,4,2,14,09,02,228,,11,31,188,29,12,07,002,25,14,10,051,23*71
2: $GPGSV,4,3,14,17,28,288,39,19,15,219,30,23,39,220,39,25,07,038,30*73
3: $GPGSV,4,4,14,31,40,084,19,32,62,093,30*72
3: $GPGLL,5344.81460,N,02835.23863,E,145452.00,A,A*67
3: $GPRMC,145453.00,A,5344.82018,N,02835.26620,E,62.281,71.14,241015,,,A*6A
3: $GPVTG,71.14,T,,M,62.281,N,115.344,K,A*37
3: $GPGGA,145453.00,5344.82018,N,02835.26620,E,1,12,0.89,178.5,M,24.2,M,,*5A
3: $GPGSA,A,3,32,01,03,04,11,19,17,14,23,31,12,25,1.58,0.89,1.31*07
3: $GPGSV,4,1,14,01,56,182,25,03,75,282,32,04,30,162,25,06,03,318,*75
3: $GPGSV,4,2,14,09,02,228,,11,31,188,29,12,07,002,25,14,10,051,21*73
3: $GPGSV,4,3,14,17,28,288,39,19,15,219,27,23,39,220,39,25,07,038,30*75
4: $GPGSV,4,4,14,31,40,084,16,32,62,093,31*7C
4: $GPGLL,5344.82018,N,02835.26620,E,145453.00,A,A*62
4: $GPRMC,145454.00,A,5344.82580,N,02835.29383,E,62.509,71.02,241015,,,A*6A
4: $GPVTG,71.02,T,,M,62.509,N,115.767,K,A*32
4: $GPGGA,145454.00,5344.82580,N,02835.29383,E,1,11,0.87,178.7,M,24.2,M,,*55
4: $GPGSA,A,3,32,01,03,04,11,19,17,14,23,12,25,,1.44,0.87,1.15*00
4: $GPGSV,4,1,14,01,56,182,24,03,75,282,32,04,30,162,25,06,03,318,*74
4: $GPGSV,4,2,14,09,02,228,,11,31,188,28,12,07,002,26,14,10,051,23*73
4: $GPGSV,4,3,14,17,28,288,39,19,15,219,25,23,39,220,39,25,07,038,29*7F
5: $GPGSV,4,4,14,31,40,084,,32,62,093,31*7B
5: $GPGLL,5344.82580,N,02835.29383,E,145454.00,A,A*62
5: $GPRMC,145455.00,A,5344.83150,N,02835.32156,E,62.878,70.92,241015,,,A*60
5: $GPVTG,70.92,T,,M,62.878,N,116.450,K,A*35
5: $GPGGA,145455.00,5344.83150,N,02835.32156,E,1,11,0.87,178.8,M,24.2,M,,*53
5: $GPGSA,A,3,32,01,03,04,11,19,17,14,23,12,25,,1.44,0.87,1.15*00
5: $GPGSV,4,1,14,01,56,182,26,03,75,282,32,04,30,162,25,06,03,318,*76
5: $GPGSV,4,2,14,09,02,228,,11,31,188,28,12,07,002,26,14,10,051,25*75
5: $GPGSV,4,3,14,17,28,288,39,19,15,219,26,23,39,220,39,25,07,038,28*7D
6: $GPGSV,4,4,14,31,40,084,,32,62,093,30*7A
6: $GPGLL,5344.83150,N,02835.32156,E,145455.00,A,A*6B
6: $GPRMC,145456.00,A,5344.83719,N,02835.34951,E,63.243,71.17,241015,,,A*6E
6: $GPVTG,71.17,T,,M,63.243,N,117.126,K,A*3F
6: $GPGGA,145456.00,5344.83719,N,02835.34951,E,1,11,0.87,178.8,M,24.2,M,,*52
6: $GPGSA,A,3,32,01,03,04,11,19,17,14,23,12,25,,1.44,0.87,1.15*00
6: $GPGSV,4,1,14,01,56,182,26,03,75,282,32,04,30,162,24,06,03,318,*77
6: $GPGSV,4,2,14,09,02,228,,11,31,188,29,12,07,002,26,14,10,051,25*74
6: $GPGSV,4,3,14,17,28,288,39,19,15,219,26,23,39,220,39,25,07,038,26*73
7: $GPGSV,4,4,14,31,40,084,,32,62,093,30*7A
7: $GPGLL,5344.83719,N,02835.34951,E,145456.00,A,A*6A
7: $GPRMC,145457.00,A,5344.84291,N,02835.37744,E,62.990,71.06,241015,,,A*60
7: $GPVTG,71.06,T,,M,62.990,N,116.658,K,A*34
7: $GPGGA,145457.00,5344.84291,N,02835.37744,E,1,12,0.87,179.2,M,24.2,M,,*50
7: $GPGSA,A,3,32,01,03,04,11,19,17,14,23,31,12,25,1.44,0.87,1.15*02
7: $GPGSV,4,1,14,01,56,182,26,03,75,282,33,04,30,162,25,06,03,318,*77
7: $GPGSV,4,2,14,09,02,228,,11,31,188,29,12,07,002,26,14,10,051,24*75
7: $GPGSV,4,3,14,17,28,288,39,19,15,219,24,23,39,220,39,25,07,038,24*73
8: $GPGSV,4,4,14,31,40,084,17,32,62,093,30*7C
8: $GPGLL,5344.84291,N,02835.37744,E,145457.00,A,A*60
8: $GPRMC,145458.00,A,5344.84858,N,02835.40545,E,63.209,71.16,241015,,,A*68
8: $GPVTG,71.16,T,,M,63.209,N,117.064,K,A*37
8: $GPGGA,145458.00,5344.84858,N,02835.40545,E,1,12,0.87,179.1,M,24.2,M,,*50
8: $GPGSA,A,3,32,01,03,04,11,19,17,14,23,31,12,25,1.44,0.87,1.15*02
8: $GPGSV,4,1,14,01,56,182,24,03,75,282,33,04,30,162,26,06,03,318,*76
8: $GPGSV,4,2,14,09,02,228,,11,31,188,28,12,07,002,26,14,10,051,24*74
8: $GPGSV,4,3,14,17,28,288,39,19,15,219,22,23,39,220,39,25,07,038,25*74
9: $GPGSV,4,4,14,31,40,084,17,32,62,093,29*74
9: $GPGLL,5344.84858,N,02835.40545,E,145458.00,A,A*63
9: $GPRMC,145459.00,A,5344.85424,N,02835.43357,E,63.544,71.29,241015,,,A*6B
9: $GPVTG,71.29,T,,M,63.544,N,117.683,K,A*3A
9: $GPGGA,145459.00,5344.85424,N,02835.43357,E,1,12,0.87,179.1,M,24.2,M,,*51
9: $GPGSA,A,3,32,01,03,04,11,19,17,14,23,31,12,25,1.44,0.87,1.15*02
9: $GPGSV,4,1,14,01,56,182,22,03,75,282,33,04,30,162,26,06,03,318,*70
9: $GPGSV,4,2,14,09,02,228,,11,31,188,27,12,07,002,24,14,10,051,23*7E
9: $GPGSV,4,3,14,17,28,288,39,19,15,219,25,23,39,220,39,25,07,038,25*73
10: $GPGSV,4,4,14,31,40,084,18,32,62,093,29*7B
10: $GPGLL,5344.85424,N,02835.43357,E,145459.00,A,A*62
10: $GPRMC,145500.00,A,5344.85985,N,02835.46183,E,63.755,71.55,241015,,,A*67
10: $GPVTG,71.55,T,,M,63.755,N,118.075,K,A*33
10: $GPGGA,145500.00,5344.85985,N,02835.46183,E,1,12,0.87,179.0,M,24.2,M,,*55
10: $GPGSA,A,3,32,01,03,04,11,19,17,14,23,31,12,25,1.44,0.87,1.15*02
10: $GPGSV,4,1,14,01,56,182,23,03,75,282,33,04,30,162,26,06,03,318,*71
10: $GPGSV,4,2,14,09,02,228,,11,31,188,26,12,07,002,20,14,10,051,23*7B
10: $GPGSV,4,3,14,17,28,288,39,19,15,219,27,23,39,220,39,25,07,038,25*71
11: $GPGSV,4,4,14,31,40,084,17,32,62,093,30*7C
11: $GPGLL,5344.85985,N,02835.46183,E,145500.00,A,A*67
11: $GPRMC,145501.00,A,5344.86547,N,02835.49015,E,63.735,71.43,241015,,,A*67
11: $GPVTG,71.43,T,,M,63.735,N,118.037,K,A*34
11: $GPGGA,145501.00,5344.86547,N,02835.49015,E,1,12,0.82,179.0,M,24.2,M,,*51
11: $GPGSA,A,3,32,01,03,04,11,19,17,14,23,31,12,25,1.39,0.82,1.13*0B
11: $GPGSV,4,1,14,01,56,182,24,03,75,282,33,04,30,162,26,06,03,318,*76
11: $GPGSV,4,2,14,09,02,228,,11,31,188,26,12,07,002,16,14,10,051,24*79
12: $GPGSV,4,3,14,17,28,288,39,19,15,219,26,23,39,220,39,25,07,038,26*73
12: $GPGSV,4,4,14,31,40,084,18,32,62,093,30*73
12: $GPGLL,5344.86547,N,02835.49015,E,145501.00,A,A*66
12: $GPRMC,145502.00,A,5344.87112,N,02835.51849,E,63.821,71.37,241015,,,A*60
12: $GPVTG,71.37,T,,M,63.821,N,118.196,K,A*37
12: $GPGGA,145502.00,5344.87112,N,02835.51849,E,1,12,0.87,179.0,M,24.2,M,,*5A
12: $GPGSA,A,3,32,01,03,04,11,19,17,14,23,31,12,25,1.44,0.87,1.15*02
12: $GPGSV,4,1,14,01,56,182,25,03,75,282,33,04,30,162,24,06,03,318,*75
12: $GPGSV,4,2,14,09,02,228,,11,31,188,26,12,07,002,10,14,10,051,22*79
12: $GPGSV,4,3,14,17,28,288,39,19,15,219,25,23,39,220,39,25,07,038,24*72
13: $GPGSV,4,4,14,31,40,084,18,32,62,093,30*73
13: $GPGLL,5344.87112,N,02835.51849,E,145502.00,A,A*68
13: $GPRMC,145503.00,A,5344.87678,N,02835.54686,E,63.969,71.37,241015,,,A*6F
13: $GPVTG,71.37,T,,M,63.969,N,118.471,K,A*36
13: $GPGGA,145503.00,5344.87678,N,02835.54686,E,1,12,0.82,179.0,M,24.2,M,,*5D
13: $GPGSA,A,3,32,01,03,04,11,19,17,14,23,31,12,25,1.39,0.82,1.13*0B
13: $GPGSV,4,1,14,01,56,182,25,03,75,282,33,04,30,162,24,06,03,318,*75
13: $GPGSV,4,2,14,09,02,228,,11,31,188,26,12,07,002,10,14,10,051,21*7A
13: $GPGSV,4,3,14,17,28,288,39,19,15,219,21,23,39,220,39,25,07,038,22*70
14: $GPGSV,4,4,14,31,40,084,20,32,62,093,30*78
14: $GPGLL,5344.87678,N,02835.54686,E,145503.00,A,A*6A
14: $GPRMC,145504.00,A,5344.88247,N,02835.57556,E,64.602,71.47,241015,,,A*60
14: $GPVTG,71.47,T,,M,64.602,N,119.643,K,A*36
14: $GPGGA,145504.00,5344.88247,N,02835.57556,E,1,12,0.82,178.6,M,24.2,M,,*57
14: $GPGSA,A,3,32,01,03,04,11,19,17,14,23,31,12,25,1.39,0.82,1.13*0B
14: $GPGSV,4,1,14,01,56,182,26,03,75,282,33,04,30,162,24,06,03,318,*76
14: $GPGSV,4,2,14,09,02,228,,11,31,188,26,12,07,002,15,14,10,051,21*7F
15: $GPGSV,4,3,14,17,28,288,39,19,15,219,19,23,39,220,39,25,07,038,21*78
15: $GPGSV,4,4,14,31,40,084,19,32,62,093,30*72
15: $GPGLL,5344.88247,N,02835.57556,E,145504.00,A,A*67
15: $GPRMC,145505.00,A,5344.88810,N,02835.60445,E,64.858,71.82,241015,,,A*66
15: $GPVTG,71.82,T,,M,64.858,N,120.117,K,A*32
15: $GPGGA,145505.00,5344.88810,N,02835.60445,E,1,12,0.82,178.1,M,24.2,M,,*5E
15: $GPGSA,A,3,32,01,03,04,11,19,17,14,23,31,12,25,1.39,0.82,1.13*0B
15: $GPGSV,4,1,14,01,56,182,26,03,75,282,33,04,30,162,24,06,03,318,*76
15: $GPGSV,4,2,14,09,02,228,,11,31,188,25,12,07,002,16,14,10,051,22*7C
16: $GPGSV,4,3,14,17,28,288,39,19,15,219,18,23,39,220,39,25,07,038,29*71
16: $GPGSV,4,4,14,31,40,084,18,32,62,093,29*7B
16: $GPGLL,5344.88810,N,02835.60445,E,145505.00,A,A*69
16: $GPRMC,145506.00,A,5344.89380,N,02835.63329,E,64.892,71.47,241015,,,A*67
16: $GPVTG,71.47,T,,M,64.892,N,120.181,K,A*32
16: $GPGGA,145506.00,5344.89380,N,02835.63329,E,1,12,0.82,177.7,M,24.2,M,,*59
16: $GPGSA,A,3,32,01,03,04,11,19,17,14,23,31,12,25,1.39,0.82,1.13*0B
16: $GPGSV,4,1,14,01,56,182,26,03,75,282,33,04,30,162,25,06,03,318,*77
16: $GPGSV,4,2,14,09,02,228,,11,31,188,27,12,07,002,15,14,10,051,23*7C
16: $GPGSV,4,3,14,17,28,288,39,19,15,219,19,23,39,220,39,25,07,038,30*78
17: $GPGSV,4,4,14,31,40,084,19,32,62,093,29*7A
17: $GPGLL,5344.89380,N,02835.63329,E,145506.00,A,A*67
17: $GPRMC,145507.00,A,5344.89964,N,02835.66219,E,65.311,71.09,241015,,,A*6A
17: $GPVTG,71.09,T,,M,65.311,N,120.957,K,A*3A
17: $GPGGA,145507.00,5344.89964,N,02835.66219,E,1,12,0.82,177.3,M,24.2,M,,*5B
17: $GPGSA,A,3,32,01,03,04,11,19,17,14,23,31,12,25,1.39,0.82,1.13*0B
17: $GPGSV,4,1,14,01,56,182,25,03,75,282,33,04,30,162,24,06,03,318,*75
17: $GPGSV,4,2,14,09,02,228,,11,31,188,29,12,07,002,17,14,10,051,22*71
18: $GPGSV,4,3,14,17,28,288,39,19,15,219,18,23,39,220,39,25,07,038,29*71
18: $GPGSV,4,4,14,31,40,084,21,32,62,093,29*71
18: $GPGLL,5344.89964,N,02835.66219,E,145507.00,A,A*61
18: $GPRMC,145508.00,A,5344.90550,N,02835.69127,E,65.841,71.25,241015,,,A*67
18: $GPVTG,71.25,T,,M,65.841,N,121.937,K,A*3D
18: $GPGGA,145508.00,5344.90550,N,02835.69127,E,1,12,0.82,176.7,M,24.2,M,,*53
18: $GPGSA,A,3,32,01,03,04,11,19,17,14,23,31,12,25,1.39,0.82,1.13*0B
18: $GPGSV,4,1,14,01,56,182,24,03,75,282,33,04,30,162,24,06,03,318,*74
18: $GPGSV,4,2,14,09,02,228,,11,31,188,28,12,07,002,16,14,10,051,21*72
18: $GPGSV,4,3,14,17,28,288,39,19,15,219,19,23,39,220,39,25,07,038,27*7E
19: $GPGSV,4,4,14,31,40,084,22,32,62,093,29*72
19: $GPGLL,5344.90550,N,02835.69127,E,145508.00,A,A*6C
19: $GPRMC,145509.00,A,5344.91135,N,02835.72053,E,66.163,71.35,241015,,,A*63
19: $GPVTG,71.35,T,,M,66.163,N,122.534,K,A*3A
19: $GPGGA,145509.00,5344.91135,N,02835.72053,E,1,12,0.82,176.2,M,24.2,M,,*59
19: $GPGSA,A,3,32,01,03,04,11,19,17,14,23,31,12,25,1.39,0.82,1.13*0B
19: $GPGSV,4,1,14,01,56,182,25,03,75,282,33,04,30,162,25,06,03,318,*74
19: $GPGSV,4,2,14,09,02,228,,11,31,188,28,12,07,002,18,14,10,051,21*7C
19: $GPGSV,4,3,14,17,28,288,39,19,15,219,19,23,39,220,39,25,07,038,26*7F
20: $GPGSV,4,4,14,31,40,084,22,32,62,093,29*72
20: $GPGLL,5344.91135,N,02835.72053,E,145509.00,A,A*63
20: $GPRMC,145510.00,A,5344.91725,N,02835.74992,E,66.265,71.29,241015,,,A*66
20: $GPVTG,71.29,T,,M,66.265,N,122.724,K,A*31
20: $GPGGA,145510.00,5344.91725,N,02835.74992,E,1,12,0.82,175.6,M,24.2,M,,*53
20: $GPGSA,A,3,32,01,03,04,11,19,17,14,23,31,12,25,1.39,0.82,1.13*0B
20: $GPGSV,4,1,14,01,56,182,24,03,75,282,33,04,30,162,24,06,03,318,*74
20: $GPGSV,4,2,14,09,02,228,,11,31,188,29,12,07,002,20,14,10,051,21*76
20: $GPGSV,4,3,14,17,28,288,39,19,15,219,18,23,39,220,39,25,07,038,23*7B
21: $GPGSV,4,4,14,31,40,084,21,32,62,093,29*71
21: $GPGLL,5344.91725,N,02835.74992,E,145510.00,A,A*6E
21: $GPRMC,145511.00,A,5344.92318,N,02835.77930,E,66.232,71.20,241015,,,A*6E
21: $GPVTG,71.20,T,,M,66.232,N,122.662,K,A*39
21: $GPGGA,145511.00,5344.92318,N,02835.77930,E,1,12,0.82,175.1,M,24.2,M,,*57
21: $GPGSA,A,3,32,01,03,04,11,19,17,14,23,31,12,25,1.39,0.82,1.13*0B
21: $GPGSV,4,1,14,01,56,182,25,03,75,282,33,04,30,162,24,06,03,318,*75
21: $GPGSV,4,2,14,09,02,228,,11,31,188,29,12,07,002,20,14,10,051,22*75
21: $GPGSV,4,3,14,17,28,288,39,19,15,219,17,23,39,220,39,25,07,038,22*75
22: $GPGSV,4,4,14,31,40,084,20,32,62,093,29*70
22: $GPGLL,5344.92318,N,02835.77930,E,145511.00,A,A*6D
22: $GPRMC,145512.00,A,5344.92910,N,02835.80870,E,66.310,71.26,241015,,,A*65
22: $GPVTG,71.26,T,,M,66.310,N,122.806,K,A*32
22: $GPGGA,145512.00,5344.92910,N,02835.80870,E,1,12,0.82,174.6,M,24.2,M,,*5D
22: $GPGSA,A,3,32,01,03,04,11,19,17,14,23,31,12,25,1.39,0.82,1.13*0B
22: $GPGSV,4,1,14,01,56,182,25,03,75,282,34,04,30,162,25,06,03,318,*73
22: $GPGSV,4,2,14,09,02,228,,11,31,188,29,12,07,002,20,14,10,051,21*76
22: $GPGSV,4,3,14,17,28,288,39,19,15,219,18,23,39,220,39,25,07,038,18*73
23: $GPGSV,4,4,14,31,40,084,20,32,62,093,29*70
23: $GPGLL,5344.92910,N,02835.80870,E,145512.00,A,A*61
23: $GPRMC,145513.00,A,5344.93496,N,02835.83811,E,66.513,71.47,241015,,,A*60
23: $GPVTG,71.47,T,,M,66.513,N,123.182,K,A*34
23: $GPGGA,145513.00,5344.93496,N,02835.83811,E,1,11,0.84,174.2,M,24.2,M,,*5B
23: $GPGSA,A,3,32,01,03,04,11,19,17,14,23,31,12,,1.45,0.84,1.18*0A
23: $GPGSV,4,1,14,01,56,182,25,03,75,282,34,04,30,162,24,06,03,318,*72
23: $GPGSV,4,2,14,09,02,228,,11,31,188,28,12,07,002,17,14,10,051,19*78
23: $GPGSV,4,3,14,17,28,288,38,19,15,219,19,23,39,220,40,25,07,038,*74
24: $GPGSV,4,4,14,31,40,084,19,32,62,093,29*7A
24: $GPGLL,5344.93496,N,02835.83811,E,145513.00,A,A*66
24: $GPRMC,145514.00,A,5344.94090,N,02835.86787,E,66.991,71.37,241015,,,A*66
24: $GPVTG,71.37,T,,M,66.991,N,124.067,K,A*38
24: $GPGGA,145514.00,5344.94090,N,02835.86787,E,1,11,0.84,173.5,M,24.2,M,,*5C
24: $GPGSA,A,3,32,01,03,04,11,19,17,14,23,31,12,,1.45,0.84,1.18*0A
24: $GPGSV,4,1,14,01,56,182,25,03,75,282,34,04,30,162,25,06,03,318,*73
24: $GPGSV,4,2,14,09,02,228,,11,31,188,28,12,07,002,15,14,10,051,17*74
24: $GPGSV,4,3,14,17,28,288,39,19,15,219,19,23,39,220,39,25,07,038,*7B
25: $GPGSV,4,4,14,31,40,084,17,32,62,093,29*74
25: $GPGLL,5344.94090,N,02835.86787,E,145514.00,A,A*61
25: $GPRMC,145515.00,A,5344.94681,N,02835.89742,E,66.607,71.41,241015,,,A*66
25: $GPVTG,71.41,T,,M,66.607,N,123.357,K,A*3E
25: $GPGGA,145515.00,5344.94681,N,02835.89742,E,1,11,0.84,173.4,M,24.2,M,,*5C
25: $GPGSA,A,3,32,01,03,04,11,19,17,14,23,31,12,,1.45,0.84,1.18*0A
25: $GPGSV,4,1,14,01,56,182,24,03,75,282,33,04,30,162,26,06,03,318,*76
25: $GPGSV,4,2,14,09,02,228,,11,31,188,28,12,07,002,13,14,10,051,15*70
25: $GPGSV,4,3,14,17,28,288,39,19,15,219,19,23,39,220,39,25,07,038,*7B
26: $GPGSV,4,4,14,31,40,084,16,32,62,093,28*74
26: $GPGLL,5344.94681,N,02835.89742,E,145515.00,A,A*60
26: $GPRMC,145516.00,A,5344.95255,N,02835.92705,E,66.488,72.03,241015,,,A*60
26: $GPVTG,72.03,T,,M,66.488,N,123.136,K,A*3B
26: $GPGGA,145516.00,5344.95255,N,02835.92705,E,1,10,0.88,173.2,M,24.2,M,,*51
26: $GPGSA,A,3,32,01,03,04,19,17,14,23,31,12,,,1.49,0.88,1.20*01
26: $GPGSV,4,1,14,01,56,182,21,03,75,282,33,04,30,162,27,06,03,318,*72
26: $GPGSV,4,2,14,09,02,228,,11,31,188,,12,07,002,12,14,10,051,17*79
26: $GPGSV,4,3,14,17,28,288,38,19,15,219,20,23,39,220,40,25,07,038,*7E
27: $GPGSV,4,4,14,31,40,084,18,32,62,093,29*7B
27: $GPGLL,5344.95255,N,02835.92705,E,145516.00,A,A*66
27: $GPRMC,145517.00,A,5344.95806,N,02835.95678,E,66.812,72.66,241015,,,A*6D
27: $GPVTG,72.66,T,,M,66.812,N,123.735,K,A*32
27: $GPGGA,145517.00,5344.95806,N,02835.95678,E,1,10,0.98,172.8,M,24.2,M,,*5A
27: $GPGSA,A,3,32,01,03,04,11,19,17,14,23,31,,,1.62,0.98,1.29*03
27: $GPGSV,4,1,14,01,56,182,18,03,75,282,34,04,30,162,25,06,03,318,*7D
27: $GPGSV,4,2,14,09,02,228,,11,31,188,24,12,07,002,09,14,10,051,20*71
27: $GPGSV,4,3,14,17,28,288,39,19,15,219,23,23,39,220,40,25,07,038,*7C
28: $GPGSV,4,4,14,31,40,084,22,32,62,093,29*72
28: $GPGLL,5344.95806,N,02835.95678,E,145517.00,A,A*67
28: $GPRMC,145518.00,A,5344.96350,N,02835.98647,E,66.606,72.71,241015,,,A*65
28: $GPVTG,72.71,T,,M,66.606,N,123.355,K,A*3D
28: $GPGGA,145518.00,5344.96350,N,02835.98647,E,1,10,0.98,172.6,M,24.2,M,,*51
28: $GPGSA,A,3,32,01,03,04,11,19,17,14,23,31,,,1.62,0.98,1.29*03
28: $GPGSV,4,1,14,01,56,182,14,03,75,282,33,04,30,162,25,06,03,318,*76
28: $GPGSV,4,2,14,09,02,228,,11,31,188,23,12,07,002,09,14,10,051,20*76
28: $GPGSV,4,3,14,17,28,288,39,19,15,219,21,23,39,220,40,25,07,038,*7E
29: $GPGSV,4,4,14,31,40,084,24,32,62,093,30*7C
29: $GPGLL,5344.96350,N,02835.98647,E,145518.00,A,A*62
29: $GPRMC,145519.00,A,5344.96906,N,02836.01610,E,66.158,72.22,241015,,,A*66
29: $GPVTG,72.22,T,,M,66.158,N,122.524,K,A*36
29: $GPGGA,145519.00,5344.96906,N,02836.01610,E,1,11,0.84,172.3,M,24.2,M,,*51
29: $GPGSA,A,3,32,01,03,04,11,19,17,14,23,31,12,,1.45,0.84,1.18*0A
29: $GPGSV,4,1,14,01,56,182,13,03,76,282,33,04,30,162,24,06,03,318,*73
29: $GPGSV,4,2,14,09,02,228,,11,31,188,21,12,07,002,10,14,10,051,22*7E
29: $GPGSV,4,3,14,17,28,288,39,19,15,219,20,23,39,220,39,25,07,038,*71
30: $GPGSV,4,4,14,31,40,084,24,32,62,093,30*7C
30: $GPGLL,5344.96906,N,02836.01610,E,145519.00,A,A*6B
30: $GPRMC,145520.00,A,5344.97467,N,02836.04547,E,65.475,72.02,241015,,,A*68
30: $GPVTG,72.02,T,,M,65.475,N,121.259,K,A*33
30: $GPGGA,145520.00,5344.97467,N,02836.04547,E,1,11,0.84,172.4,M,24.2,M,,*53
30: $GPGSA,A,3,32,01,03,04,11,19,17,14,23,31,12,,1.45,0.84,1.18*0A
30: $GPGSV,4,1,14,01,56,182,14,03,76,282,33,04,30,162,22,06,03,318,*72
30: $GPGSV,4,2,14,09,02,228,,11,31,188,23,12,07,002,11,14,10,051,23*7C
30: $GPGSV,4,3,14,17,28,288,39,19,15,219,22,23,39,220,40,25,07,038,*7D
31: $GPGSV,4,4,14,31,40,084,22,32,62,093,30*7A
31: $GPGLL,5344.97467,N,02836.04547,E,145520.00,A,A*6E
31: $GPRMC,145521.00,A,5344.98048,N,02836.07500,E,66.495,71.33,241015,,,A*63
31: $GPVTG,71.33,T,,M,66.495,N,123.149,K,A*3F
31: $GPGGA,145521.00,5344.98048,N,02836.07500,E,1,11,0.93,172.4,M,24.2,M,,*52
31: $GPGSA,A,3,32,01,03,04,11,19,17,14,23,31,25,,1.58,0.93,1.27*08
31: $GPGSV,4,1,14,01,56,182,16,03,76,282,33,04,30,162,21,06,03,318,*73
31: $GPGSV,4,2,14,09,02,228,,11,31,188,25,12,07,002,09,14,10,051,23*73
31: $GPGSV,4,3,14,17,28,288,39,19,15,219,20,23,39,220,39,25,07,038,27*74
32: $GPGSV,4,4,14,31,40,084,19,32,62,093,29*7A
32: $GPGLL,5344.98048,N,02836.07500,E,145521.00,A,A*69
32: $GPRMC,145522.00,A,5344.98638,N,02836.10430,E,66.590,71.16,241015,,,A*66
32: $GPVTG,71.16,T,,M,66.590,N,123.325,K,A*34
32: $GPGGA,145522.00,5344.98638,N,02836.10430,E,1,11,0.89,172.8,M,24.2,M,,*53
32: $GPGSA,A,3,32,01,03,04,11,19,17,14,23,31,25,,1.46,0.89,1.16*0E
32: $GPGSV,4,1,14,01,56,182,17,03,76,282,33,04,30,162,22,06,04,318,*76
32: $GPGSV,4,2,14,09,02,228,,11,31,188,26,12,07,002,08,14,10,051,25*77
32: $GPGSV,4,3,14,17,28,288,39,19,15,219,20,23,39,220,39,25,07,038,27*74
33: $GPGSV,4,4,14,31,40,084,15,32,62,093,29*76
33: $GPGLL,5344.98638,N,02836.10430,E,145522.00,A,A*6F
33: $GPRMC,145523.00,A,5344.99228,N,02836.13366,E,66.214,71.14,241015,,,A*6D
33: $GPVTG,71.14,T,,M,66.214,N,122.629,K,A*35
33: $GPGGA,145523.00,5344.99228,N,02836.13366,E,1,10,0.93,173.1,M,24.2,M,,*53
33: $GPGSA,A,3,32,01,03,04,11,19,17,14,23,25,,,1.50,0.93,1.18*0E
33: $GPGSV,4,1,14,01,56,182,18,03,76,282,34,04,30,162,22,06,04,318,*7E
33: $GPGSV,4,2,14,09,02,228,,11,31,188,27,12,07,002,08,14,10,051,25*76
33: $GPGSV,4,3,14,17,28,288,39,19,15,219,20,23,39,220,40,25,07,038,25*78
34: $GPGSV,4,4,14,31,40,084,,32,62,093,29*72
34: $GPGLL,5344.99228,N,02836.13366,E,145523.00,A,A*6D
34: $GPRMC,145524.00,A,5344.99817,N,02836.16321,E,66.406,71.41,241015,,,A*6F
34: $GPVTG,71.41,T,,M,66.406,N,122.984,K,A*38
34: $GPGGA,145524.00,5344.99817,N,02836.16321,E,1,11,0.87,173.3,M,24.2,M,,*52
34: $GPGSA,A,3,32,01,03,04,11,19,17,14,23,12,25,,1.44,0.87,1.15*00
34: $GPGSV,4,1,14,01,56,182,18,03,76,282,34,04,30,162,23,06,04,318,*7F
34: $GPGSV,4,2,14,09,02,228,,11,31,188,27,12,07,002,11,14,10,051,23*78
34: $GPGSV,4,3,14,17,28,288,39,19,15,219,19,23,39,220,40,25,07,038,22*75
35: $GPGSV,4,4,14,31,40,084,,32,62,093,29*72
35: $GPGLL,5344.99817,N,02836.16321,E,145524.00,A,A*6A
35: $GPRMC,145525.00,A,5345.00408,N,02836.19278,E,66.779,71.22,241015,,,A*61
35: $GPVTG,71.22,T,,M,66.779,N,123.674,K,A*37
35: $GPGGA,145525.00,5345.00408,N,02836.19278,E,1,10,0.90,173.3,M,24.2,M,,*55
35: $GPGSA,A,3,32,01,03,04,11,19,17,14,23,12,,,1.49,0.90,1.19*00
35: $GPGSV,4,1,14,01,56,182,18,03,76,282,34,04,30,162,23,06,04,318,*7F
35: $GPGSV,4,2,14,09,03,228,,11,31,188,27,12,07,002,14,14,10,051,20*7F
35: $GPGSV,4,3,14,17,28,288,39,19,15,219,18,23,39,220,40,25,07,038,*74
36: $GPGSV,4,4,14,31,40,084,,32,62,093,30*7A
36: $GPGLL,5345.00408,N,02836.19278,E,145525.00,A,A*6A
36: $GPRMC,145526.00,A,5345.01003,N,02836.22238,E,67.085,71.25,241015,,,A*62
36: $GPVTG,71.25,T,,M,67.085,N,124.241,K,A*30
36: $GPGGA,145526.00,5345.01003,N,02836.22238,E,1,10,0.90,173.3,M,24.2,M,,*54
36: $GPGSA,A,3,32,01,03,04,11,19,17,14,23,12,,,1.49,0.90,1.19*00
36: $GPGSV,4,1,14,01,56,182,19,03,76,282,34,04,30,162,24,06,04,318,*79
36: $GPGSV,4,2,14,09,03,228,,11,31,188,28,12,07,002,14,14,10,051,20*70
36: $GPGSV,4,3,14,17,28,288,39,19,15,219,20,23,39,220,40,25,07,038,*7F
37: $GPGSV,4,4,14,31,40,084,,32,62,093,29*72
37: $GPGLL,5345.01003,N,02836.22238,E,145526.00,A,A*6B
37: $GPRMC,145527.00,A,5345.01598,N,02836.25188,E,66.789,71.20,241015,,,A*64
37: $GPVTG,71.20,T,,M,66.789,N,123.692,K,A*32
37: $GPGGA,145527.00,5345.01598,N,02836.25188,E,1,10,0.90,173.5,M,24.2,M,,*5B
37: $GPGSA,A,3,32,01,03,04,11,19,17,14,23,12,,,1.49,0.90,1.19*00
37: $GPGSV,4,1,14,01,56,182,20,03,76,282,34,04,30,162,25,06,04,318,*72
37: $GPGSV,4,2,14,09,03,228,,11,30,188,29,12,07,002,13,14,10,051,22*75
37: $GPGSV,4,3,14,17,28,288,39,19,15,219,19,23,39,220,40,25,07,038,*75
38: $GPGSV,4,4,14,31,40,084,,32,62,093,29*72
38: $GPGLL,5345.01598,N,02836.25188,E,145527.00,A,A*62
38: $GPRMC,145528.00,A,5345.02197,N,02836.28131,E,66.332,71.10,241015,,,A*6B
38: $GPVTG,71.10,T,,M,66.332,N,122.846,K,A*33
38: $GPGGA,145528.00,5345.02197,N,02836.28131,E,1,10,0.98,173.9,M,24.2,M,,*57
38: $GPGSA,A,3,32,01,03,04,11,19,17,14,23,12,,,1.61,0.98,1.28*00
38: $GPGSV,4,1,14,01,56,182,19,03,76,282,33,04,30,162,25,06,04,318,*7F
38: $GPGSV,4,2,14,09,03,228,,11,30,188,30,12,07,002,10,14,10,051,21*7D
38: $GPGSV,4,3,14,17,28,288,39,19,15,219,20,23,39,220,39,25,07,038,*71
39: $GPGSV,4,4,14,31,40,084,,32,62,093,29*72
39: $GPGLL,5345.02197,N,02836.28131,E,145528.00,A,A*6A
39: $GPRMC,145529.00,A,5345.02797,N,02836.31103,E,66.845,71.15,241015,,,A*6B
39: $GPVTG,71.15,T,,M,66.845,N,123.796,K,A*3E
39: $GPGGA,145529.00,5345.02797,N,02836.31103,E,1,10,0.98,173.8,M,24.2,M,,*58
39: $GPGSA,A,3,32,01,03,04,11,19,17,14,23,31,,,1.61,0.98,1.28*01
39: $GPGSV,4,1,14,01,56,182,19,03,76,282,34,04,30,162,25,06,04,318,*78
39: $GPGSV,4,2,14,09,03,228,,11,30,188,30,12,07,002,09,14,10,051,20*74
39: $GPGSV,4,3,14,17,28,288,39,19,15,219,22,23,39,220,39,25,07,038,*73
40: $GPGSV,4,4,14,31,40,084,19,32,62,093,29*7A
40: $GPGLL,5345.02797,N,02836.31103,E,145529.00,A,A*64
40: $GPRMC,145530.00,A,5345.03391,N,02836.34056,E,66.979,71.30,241015,,,A*6D
40: $GPVTG,71.30,T,,M,66.979,N,124.044,K,A*38
40: $GPGGA,145530.00,5345.03391,N,02836.34056,E,1,10,0.98,174.1,M,24.2,M,,*59
40: $GPGSA,A,3,32,01,03,04,11,19,17,14,23,31,,,1.61,0.98,1.28*01
40: $GPGSV,4,1,14,01,56,182,18,03,76,282,34,04,30,162,24,06,04,318,*78
40: $GPGSV,4,2,14,09,03,228,,11,30,188,29,12,07,002,08,14,10,051,18*76
40: $GPGSV,4,3,14,17,28,288,39,19,15,219,24,23,39,220,39,25,07,038,*75
41: $GPGSV,4,4,14,31,40,084,17,32,62,093,29*74
41: $GPGLL,5345.03391,N,02836.34056,E,145530.00,A,A*6B
41: $GPRMC,145531.00,A,5345.03985,N,02836.37017,E,67.071,71.24,241015,,,A*60
41: $GPVTG,71.24,T,,M,67.071,N,124.216,K,A*38
41: $GPGGA,145531.00,5345.03985,N,02836.37017,E,1,09,1.66,174.3,M,24.2,M,,*5B
41: $GPGSA,A,3,32,01,03,04,11,19,17,23,31,,,,2.89,1.66,2.36*0D
41: $GPGSV,4,1,14,01,56,182,17,03,76,282,33,04,30,162,21,06,04,318,*75
41: $GPGSV,4,2,14,09,03,228,,11,30,188,28,12,07,002,08,14,10,051,*7E
41: $GPGSV,4,3,14,17,28,288,39,19,15,219,26,23,39,220,39,25,07,038,*77
42: $GPGSV,4,4,14,31,40,084,16,32,62,093,29*75
42: $GPGLL,5345.03985,N,02836.37017,E,145531.00,A,A*63
42: $GPRMC,145532.00,A,5345.04575,N,02836.39957,E,66.086,71.31,241015,,,A*69
42: $GPVTG,71.31,T,,M,66.086,N,122.391,K,A*3D
42: $GPGGA,145532.00,5345.04575,N,02836.39957,E,1,10,1.66,174.8,M,24.2,M,,*5C
42: $GPGSA,A,3,32,01,03,04,11,19,17,14,23,31,,,2.89,1.66,2.36*08
42: $GPGSV,4,1,14,01,56,182,16,03,76,282,34,04,30,162,21,06,04,318,*73
42: $GPGSV,4,2,14,09,03,228,,11,30,188,27,12,07,002,09,14,10,051,23*71
42: $GPGSV,4,3,14,17,28,288,39,19,15,219,25,23,39,220,39,25,07,038,*74
43: $GPGSV,4,4,14,31,40,084,16,32,62,093,29*75
43: $GPGLL,5345.04575,N,02836.39957,E,145532.00,A,A*67
43: $GPRMC,145533.00,A,5345.05167,N,02836.42908,E,65.828,71.30,241015,,,A*66
43: $GPVTG,71.30,T,,M,65.828,N,121.914,K,A*37
43: $GPGGA,145533.00,5345.05167,N,02836.42908,E,1,10,1.16,175.0,M,24.2,M,,*53
43: $GPGSA,A,3,32,01,03,04,11,19,17,14,23,31,,,2.20,1.16,1.87*05
43: $GPGSV,4,1,14,01,56,182,17,03,76,282,33,04,30,162,21,06,04,318,*75
43: $GPGSV,4,2,14,09,03,228,,11,30,188,27,12,07,002,08,14,10,051,21*72
43: $GPGSV,4,3,14,17,28,287,39,19,15,219,22,23,39,220,39,25,07,038,*7C
44: $GPGSV,4,4,14,31,40,084,17,32,62,093,29*74
44: $GPGLL,5345.05167,N,02836.42908,E,145533.00,A,A*66
44: $GPRMC,145534.00,A,5345.05763,N,02836.45886,E,66.748,71.29,241015,,,A*61
44: $GPVTG,71.29,T,,M,66.748,N,123.618,K,A*34
44: $GPGGA,145534.00,5345.05763,N,02836.45886,E,1,10,0.93,174.7,M,24.2,M,,*5C
44: $GPGSA,A,3,32,01,03,04,11,19,17,14,23,31,,,1.58,0.93,1.27*0F
44: $GPGSV,4,1,14,01,56,182,16,03,76,282,34,04,30,162,20,06,04,318,*72
44: $GPGSV,4,2,14,09,03,228,,11,30,188,28,12,07,002,08,14,10,051,22*7E
44: $GPGSV,4,3,14,17,28,287,39,19,15,219,19,23,39,220,40,25,07,038,*7A
45: $GPGSV,4,4,14,31,40,084,17,32,62,093,28*75
45: $GPGLL,5345.05763,N,02836.45886,E,145534.00,A,A*63
45: $GPRMC,145535.00,A,5345.06355,N,02836.48866,E,67.267,71.51,241015,,,A*67
45: $GPVTG,71.51,T,,M,67.267,N,124.578,K,A*30
45: $GPGGA,145535.00,5345.06355,N,02836.48866,E,1,10,0.93,174.6,M,24.2,M,,*5D
45: $GPGSA,A,3,32,01,03,04,11,19,17,14,23,31,,,1.58,0.93,1.27*0F
45: $GPGSV,4,1,14,01,56,182,16,03,76,282,34,04,30,162,22,06,04,318,*70
45: $GPGSV,4,2,14,09,03,228,,11,30,188,28,12,07,002,,14,10,051,24*70
45: $GPGSV,4,3,14,17,28,287,39,19,14,218,17,23,39,220,39,25,07,038,*7A
46: $GPGSV,4,4,14,31,40,084,17,32,62,093,28*75
46: $GPGLL,5345.06355,N,02836.48866,E,145535.00,A,A*63
46: $GPRMC,145536.00,A,5345.06944,N,02836.51853,E,67.044,71.64,241015,,,A*65
46: $GPVTG,71.64,T,,M,67.044,N,124.165,K,A*3D
46: $GPGGA,145536.00,5345.06944,N,02836.51853,E,1,11,0.93,174.2,M,24.2,M,,*5F
46: $GPGSA,A,3,32,01,03,04,11,19,17,14,23,31,25,,1.58,0.93,1.27*08
46: $GPGSV,4,1,14,01,56,182,17,03,76,282,34,04,30,162,22,06,04,318,*71
46: $GPGSV,4,2,14,09,03,228,,11,30,188,28,12,07,002,,14,10,051,26*72
46: $GPGSV,4,3,14,17,28,287,39,19,14,218,17,23,39,220,39,25,07,038,21*79
47: $GPGSV,4,4,14,31,40,084,17,32,62,093,29*74
47: $GPGLL,5345.06944,N,02836.51853,E,145536.00,A,A*64
47: $GPRMC,145537.00,A,5345.07533,N,02836.54827,E,66.638,71.51,241015,,,A*65
47: $GPVTG,71.51,T,,M,66.638,N,123.413,K,A*34
47: $GPGGA,145537.00,5345.07533,N,02836.54827,E,1,11,0.93,173.9,M,24.2,M,,*59
47: $GPGSA,A,3,32,01,03,04,11,19,17,14,23,31,25,,1.58,0.93,1.27*08
47: $GPGSV,4,1,14,01,56,182,18,03,76,282,34,04,30,162,24,06,04,318,*78
47: $GPGSV,4,2,14,09,03,228,,11,30,188,28,12,07,002,,14,10,051,26*72
47: $GPGSV,4,3,14,17,28,287,39,19,14,218,18,23,39,220,39,25,07,038,25*72
48: $GPGSV,4,4,14,31,40,084,18,32,62,093,29*7B
48: $GPGLL,5345.07533,N,02836.54827,E,145537.00,A,A*6E
48: $GPRMC,145538.00,A,5345.08122,N,02836.57771,E,66.488,71.38,241015,,,A*68
48: $GPVTG,71.38,T,,M,66.488,N,123.135,K,A*33
48: $GPGGA,145538.00,5345.08122,N,02836.57771,E,1,11,0.89,173.8,M,24.2,M,,*58
48: $GPGSA,A,3,32,01,03,04,11,19,17,14,23,31,25,,1.46,0.89,1.16*0E
48: $GPGSV,4,1,14,01,56,182,20,03,76,282,33,04,30,162,24,06,04,318,*74
48: $GPGSV,4,2,14,09,03,228,,11,30,188,30,12,07,002,,14,10,051,26*7B
48: $GPGSV,4,3,14,17,28,287,39,19,14,218,19,23,39,220,39,25,07,038,25*73
49: $GPGSV,4,4,14,31,40,084,17,32,62,093,29*74
49: $GPGLL,5345.08122,N,02836.57771,E,145538.00,A,A*65
49: $GPRMC,145539.00,A,5345.08709,N,02836.60699,E,66.348,71.45,241015,,,A*64
49: $GPVTG,71.45,T,,M,66.348,N,122.876,K,A*3D
49: $GPGGA,145539.00,5345.08709,N,02836.60699,E,1,11,0.89,173.7,M,24.2,M,,*5A
49: $GPGSA,A,3,32,01,03,04,11,19,17,14,23,31,25,,1.46,0.89,1.16*0E
49: $GPGSV,4,1,14,01,56,182,22,03,76,282,33,04,30,162,25,06,04,318,*77
49: $GPGSV,4,2,14,09,03,228,,11,30,188,31,12,07,002,,14,10,051,26*7A
49: $GPGSV,4,3,14,17,28,287,39,19,14,218,21,23,39,220,39,25,07,038,23*7E
50: $GPGSV,4,4,14,31,40,084,16,32,62,093,28*74
50: $GPGLL,5345.08709,N,02836.60699,E,145539.00,A,A*68
50: $GPRMC,145540.00,A,5345.09297,N,02836.63622,E,66.173,71.38,241015,,,A*6A
50: $GPVTG,71.38,T,,M,66.173,N,122.553,K,A*37
50: $GPGGA,145540.00,5345.09297,N,02836.63622,E,1,12,0.89,173.6,M,24.2,M,,*56
50: $GPGSA,A,3,32,01,03,04,11,19,17,14,23,31,12,25,1.46,0.89,1.16*0D
50: $GPGSV,4,1,14,01,56,182,22,03,76,282,33,04,30,162,25,06,04,318,*77
50: $GPGSV,4,2,14,09,03,228,,11,30,188,31,12,07,002,17,14,10,051,25*7F
51: $GPGSV,4,3,14,17,28,287,39,19,14,218,21,23,39,220,39,25,07,038,22*7F
51: $GPGSV,4,4,14,31,40,084,14,32,62,093,28*76
51: $GPGLL,5345.09297,N,02836.63622,E,145540.00,A,A*66
51: $GPRMC,145541.00,A,5345.09885,N,02836.66537,E,65.825,71.30,241015,,,A*61
51: $GPVTG,71.30,T,,M,65.825,N,121.908,K,A*37
51: $GPGGA,145541.00,5345.09885,N,02836.66537,E,1,12,0.89,173.4,M,24.2,M,,*5E
51: $GPGSA,A,3,32,01,03,04,11,19,17,14,23,31,12,25,1.46,0.89,1.16*0D
51: $GPGSV,4,1,14,01,56,182,21,03,76,282,33,04,30,162,25,06,04,318,*74
51: $GPGSV,4,2,14,09,03,228,,11,30,188,31,12,07,002,18,14,10,051,25*70
51: $GPGSV,4,3,14,17,28,287,39,19,14,218,21,23,39,220,39,25,07,038,21*7C
52: $GPGSV,4,4,14,31,40,084,14,32,62,093,28*76
52: $GPGLL,5345.09885,N,02836.66537,E,145541.00,A,A*6C
52: $GPRMC,145542.00,A,5345.10474,N,02836.69453,E,65.788,71.29,241015,,,A*64
52: $GPVTG,71.29,T,,M,65.788,N,121.840,K,A*3A
52: $GPGGA,145542.00,5345.10474,N,02836.69453,E,1,12,0.89,173.3,M,24.2,M,,*5C
52: $GPGSA,A,3,32,01,03,04,11,19,17,14,23,31,12,25,1.46,0.89,1.16*0D
52: $GPGSV,4,1,14,01,56,182,20,03,76,282,33,04,30,162,26,06,04,318,*76
52: $GPGSV,4,2,14,09,03,228,,11,30,188,31,12,07,002,17,14,10,051,25*7F
53: $GPGSV,4,3,14,17,28,287,39,19,14,218,29,23,39,220,40,25,07,038,19*71
53: $GPGSV,4,4,14,31,40,084,14,32,62,093,29*77
53: $GPGLL,5345.10474,N,02836.69453,E,145542.00,A,A*69
53: $GPRMC,145543.00,A,5345.11058,N,02836.72346,E,65.644,71.49,241015,,,A*60
53: $GPVTG,71.49,T,,M,65.644,N,121.573,K,A*30
53: $GPGGA,145543.00,5345.11058,N,02836.72346,E,1,11,0.93,173.4,M,24.2,M,,*50
53: $GPGSA,A,3,32,01,03,04,11,19,17,14,23,31,12,,1.58,0.93,1.27*0C
53: $GPGSV,4,1,14,01,56,182,21,03,76,282,34,04,30,162,26,06,04,318,*70
53: $GPGSV,4,2,14,09,03,228,,11,30,188,32,12,07,002,16,14,10,051,22*7A
54: $GPGSV,4,3,14,17,28,287,39,19,14,218,29,23,39,220,39,25,07,038,*77
54: $GPGSV,4,4,14,31,40,084,14,32,62,093,29*77
54: $GPGLL,5345.11058,N,02836.72346,E,145543.00,A,A*6A
54: $GPRMC,145544.00,A,5345.11642,N,02836.75258,E,65.939,71.31,241015,,,A*69
54: $GPVTG,71.31,T,,M,65.939,N,122.119,K,A*31
54: $GPGGA,145544.00,5345.11642,N,02836.75258,E,1,11,0.93,173.1,M,24.2,M,,*56
54: $GPGSA,A,3,32,01,03,04,11,19,17,14,23,31,12,,1.57,0.93,1.27*03
54: $GPGSV,4,1,14,01,56,182,21,03,76,282,34,04,30,162,27,06,04,318,*71
54: $GPGSV,4,2,14,09,03,228,,11,30,188,32,12,07,002,13,14,10,051,20*7D
54: $GPGSV,4,3,14,17,28,287,39,19,14,218,28,23,39,220,39,25,07,038,*76
55: $GPGSV,4,4,14,31,40,084,18,32,62,093,30*73
55: $GPGLL,5345.11642,N,02836.75258,E,145544.00,A,A*69
55: $GPRMC,145545.00,A,5345.12236,N,02836.78158,E,65.528,71.01,241015,,,A*6D
55: $GPVTG,71.01,T,,M,65.528,N,121.359,K,A*3B
55: $GPGGA,145545.00,5345.12236,N,02836.78158,E,1,11,0.91,172.9,M,24.2,M,,*56
55: $GPGSA,A,3,32,01,03,04,11,19,17,14,23,31,12,,1.59,0.91,1.31*08
55: $GPGSV,4,1,14,01,56,182,21,03,76,282,34,04,30,162,25,06,04,318,*73
55: $GPGSV,4,2,14,09,03,228,,11,30,188,31,12,07,002,13,14,10,051,20*7E
55: $GPGSV,4,3,14,17,28,287,39,19,14,218,28,23,39,220,39,25,07,038,*76
56: $GPGSV,4,4,14,31,40,084,19,32,62,093,29*7A
56: $GPGLL,5345.12236,N,02836.78158,E,145545.00,A,A*62
56: $GPRMC,145546.00,A,5345.12830,N,02836.81079,E,65.704,71.24,241015,,,A*6D
56: $GPVTG,71.24,T,,M,65.704,N,121.683,K,A*32
56: $GPGGA,145546.00,5345.12830,N,02836.81079,E,1,11,0.91,172.5,M,24.2,M,,*51
56: $GPGSA,A,3,32,01,03,04,11,19,17,14,23,31,12,,1.59,0.91,1.31*08
56: $GPGSV,4,1,14,01,56,182,22,03,76,282,34,04,30,162,24,06,04,318,*71
56: $GPGSV,4,2,14,09,03,228,,11,30,188,31,12,07,002,13,14,10,051,19*74
56: $GPGSV,4,3,14,17,28,287,39,19,14,218,27,23,39,220,39,25,07,038,*79
57: $GPGSV,4,4,14,31,40,084,18,32,62,093,30*73
57: $GPGLL,5345.12830,N,02836.81079,E,145546.00,A,A*69
57: $GPRMC,145547.00,A,5345.13415,N,02836.83985,E,65.734,71.32,241015,,,A*6A
57: $GPVTG,71.32,T,,M,65.734,N,121.740,K,A*38
57: $GPGGA,145547.00,5345.13415,N,02836.83985,E,1,10,0.91,172.3,M,24.2,M,,*55
57: $GPGSA,A,3,32,01,03,04,11,19,17,23,31,12,,,1.59,0.91,1.31*0D
57: $GPGSV,4,1,14,01,56,182,20,03,76,282,34,04,30,162,22,06,04,318,*75
57: $GPGSV,4,2,14,09,03,228,,11,30,188,30,12,07,002,11,14,10,051,*7F
57: $GPGSV,4,3,14,17,28,287,39,19,14,218,27,23,39,220,39,25,07,038,*79
58: $GPGSV,4,4,14,31,40,084,18,32,62,093,29*7B
58: $GPGLL,5345.13415,N,02836.83985,E,145547.00,A,A*6A
58: $GPRMC,145548.00,A,5345.14000,N,02836.86911,E,66.174,71.37,241015,,,A*6E
58: $GPVTG,71.37,T,,M,66.174,N,122.554,K,A*38
58: $GPGGA,145548.00,5345.14000,N,02836.86911,E,1,09,1.16,171.9,M,24.2,M,,*5A
58: $GPGSA,A,3,32,01,03,04,11,19,17,23,31,,,,2.20,1.16,1.87*00
58: $GPGSV,4,1,14,01,56,182,20,03,76,282,34,04,30,162,21,06,04,318,*76
58: $GPGSV,4,2,14,09,03,228,,11,30,188,29,12,07,002,09,14,10,051,*7E
58: $GPGSV,4,3,14,17,28,287,39,19,14,218,26,23,39,220,39,25,07,038,*78
59: $GPGSV,4,4,14,31,40,084,17,32,62,094,29*73
59: $GPGLL,5345.14000,N,02836.86911,E,145548.00,A,A*6A
59: $GPRMC,145549.00,A,5345.14588,N,02836.89830,E,66.145,71.27,241015,,,A*64
59: $GPVTG,71.27,T,,M,66.145,N,122.501,K,A*3B
59: $GPGGA,145549.00,5345.14588,N,02836.89830,E,1,10,0.91,171.9,M,24.2,M,,*55
59: $GPGSA,A,3,32,01,03,04,11,19,17,23,31,12,,,1.59,0.91,1.31*0D
59: $GPGSV,4,1,14,01,56,182,22,03,76,282,34,04,30,162,22,06,04,318,*77
59: $GPGSV,4,2,14,09,03,228,,11,30,188,31,12,07,002,10,14,10,051,*7F
59: $GPGSV,4,3,14,17,28,287,39,19,14,218,24,23,39,220,39,25,07,038,*7A
60: $GPGSV,4,4,14,31,40,084,16,32,62,094,30*7A
60: $GPGLL,5345.14588,N,02836.89830,E,145549.00,A,A*63
60: $GPRMC,145550.00,A,5345.15181,N,02836.92772,E,66.065,71.30,241015,,,A*66
60: $GPVTG,71.30,T,,M,66.065,N,122.352,K,A*3E
60: $GPGGA,145550.00,5345.15181,N,02836.92772,E,1,10,1.16,171.4,M,24.2,M,,*51
60: $GPGSA,A,3,32,01,03,04,11,19,17,14,23,31,,,2.20,1.16,1.87*05
60: $GPGSV,4,1,14,01,56,182,22,03,76,282,34,04,30,162,22,06,04,318,*77
60: $GPGSV,4,2,14,09,03,228,,11,30,188,31,12,07,002,09,14,10,051,18*7E
60: $GPGSV,4,3,14,17,28,287,39,19,14,218,22,23,39,220,39,25,07,038,*7C
61: $GPGSV,4,4,14,31,40,084,15,32,62,094,30*79
61: $GPGLL,5345.15181,N,02836.92772,E,145550.00,A,A*64
61: $GPRMC,145551.00,A,5345.15773,N,02836.95713,E,66.154,71.23,241015,,,A*6D
61: $GPVTG,71.23,T,,M,66.154,N,122.516,K,A*39
61: $GPGGA,145551.00,5345.15773,N,02836.95713,E,1,10,1.16,170.9,M,24.2,M,,*57
61: $GPGSA,A,3,32,01,03,04,11,19,17,14,23,31,,,2.20,1.16,1.87*05
61: $GPGSV,4,1,14,01,56,182,22,03,76,282,34,04,30,162,20,06,04,318,*75
61: $GPGSV,4,2,14,09,03,228,,11,30,188,27,12,07,002,08,14,10,051,19*79
61: $GPGSV,4,3,14,17,28,287,39,19,14,218,18,23,39,220,39,25,07,038,*75
62: $GPGSV,4,4,14,31,40,084,14,32,62,094,30*78
62: $GPGLL,5345.15773,N,02836.95713,E,145551.00,A,A*6E
62: $GPRMC,145552.00,A,5345.16364,N,02836.98652,E,66.286,71.23,241015,,,A*6A
62: $GPVTG,71.23,T,,M,66.286,N,122.762,K,A*34
62: $GPGGA,145552.00,5345.16364,N,02836.98652,E,1,11,1.16,170.4,M,24.2,M,,*50
62: $GPGSA,A,3,32,01,03,04,11,19,17,14,23,31,25,,2.20,1.16,1.87*02
62: $GPGSV,4,1,14,01,56,182,22,03,76,282,34,04,30,162,20,06,04,318,*75
62: $GPGSV,4,2,14,09,03,228,,11,30,188,28,12,07,002,,14,10,051,19*7E
62: $GPGSV,4,3,14,17,28,287,39,19,14,218,18,23,39,220,40,25,07,038,18*72
63: $GPGSV,4,4,14,31,40,084,14,32,62,094,29*70
63: $GPGLL,5345.16364,N,02836.98652,E,145552.00,A,A*65
63: $GPRMC,145553.00,A,5345.16949,N,02837.01603,E,66.607,71.57,241015,,,A*65
63: $GPVTG,71.57,T,,M,66.607,N,123.355,K,A*3B
63: $GPGGA,145553.00,5345.16949,N,02837.01603,E,1,11,0.93,169.8,M,24.2,M,,*59
63: $GPGSA,A,3,32,01,03,04,11,19,17,14,23,31,25,,1.57,0.93,1.27*07
63: $GPGSV,4,1,14,01,56,182,22,03,76,282,34,04,30,162,21,06,04,318,*74
63: $GPGSV,4,2,14,09,03,228,,11,30,188,28,12,07,002,,14,10,051,20*74
63: $GPGSV,4,3,14,17,28,287,39,19,14,218,16,23,39,220,39,25,07,038,18*72
64: $GPGSV,4,4,14,31,40,084,15,32,62,094,29*71
64: $GPGLL,5345.16949,N,02837.01603,E,145553.00,A,A*64
64: $GPRMC,145554.00,A,5345.17529,N,02837.04535,E,66.287,71.63,241015,,,A*61
64: $GPVTG,71.63,T,,M,66.287,N,122.763,K,A*30
64: $GPGGA,145554.00,5345.17529,N,02837.04535,E,1,11,0.93,169.8,M,24.2,M,,*56
64: $GPGSA,A,3,32,01,03,04,11,19,17,14,23,31,25,,1.57,0.93,1.27*07
64: $GPGSV,4,1,14,01,56,182,21,03,76,282,34,04,30,162,23,06,04,318,*75
64: $GPGSV,4,2,14,09,03,228,,11,30,188,29,12,07,002,,14,10,051,21*74
64: $GPGSV,4,3,14,17,28,287,39,19,14,218,16,23,39,220,40,25,07,038,17*73
65: $GPGSV,4,4,14,31,40,084,17,32,62,094,29*73
65: $GPGLL,5345.17529,N,02837.04535,E,145554.00,A,A*6B
65: $GPRMC,145555.00,A,5345.18105,N,02837.07459,E,65.973,71.62,241015,,,A*6F
65: $GPVTG,71.62,T,,M,65.973,N,122.182,K,A*3B
65: $GPGGA,145555.00,5345.18105,N,02837.07459,E,1,11,0.93,169.8,M,24.1,M,,*59
65: $GPGSA,A,3,32,01,03,04,11,19,17,14,23,31,25,,1.57,0.93,1.27*07
65: $GPGSV,4,1,14,01,56,182,21,03,76,282,34,04,30,162,23,06,04,318,*75
65: $GPGSV,4,2,14,09,03,228,,11,30,188,29,12,07,002,,14,10,051,22*77
65: $GPGSV,4,3,14,17,28,287,39,19,14,218,18,23,39,220,39,25,07,038,19*7D
66: $GPGSV,4,4,14,31,40,084,17,32,62,094,30*7B
66: $GPGLL,5345.18105,N,02837.07459,E,145555.00,A,A*67
66: $GPRMC,145556.00,A,5345.18696,N,02837.10418,E,66.641,71.33,241015,,,A*6B
66: $GPVTG,71.33,T,,M,66.641,N,123.419,K,A*34
66: $GPGGA,145556.00,5345.18696,N,02837.10418,E,1,11,0.89,169.2,M,24.1,M,,*55
66: $GPGSA,A,3,32,01,03,04,11,19,17,14,23,31,25,,1.46,0.89,1.15*0D
66: $GPGSV,4,1,14,01,56,182,20,03,76,282,33,04,30,162,23,06,04,318,*73
66: $GPGSV,4,2,14,09,03,228,,11,30,188,29,12,07,002,,14,10,051,22*77
66: $GPGSV,4,3,14,17,28,287,38,19,14,218,18,23,39,220,39,25,07,038,23*75
67: $GPGSV,4,4,14,31,40,084,17,32,62,094,29*73
67: $GPGLL,5345.18696,N,02837.10418,E,145556.00,A,A*6A
67: $GPRMC,145557.00,A,5345.19287,N,02837.13352,E,66.469,71.28,241015,,,A*67
67: $GPVTG,71.28,T,,M,66.469,N,123.100,K,A*3B
67: $GPGGA,145557.00,5345.19287,N,02837.13352,E,1,12,0.89,168.9,M,24.1,M,,*52
67: $GPGSA,A,3,32,01,03,04,11,19,17,14,23,31,12,25,1.46,0.89,1.15*0E
67: $GPGSV,4,1,14,01,56,182,21,03,76,282,33,04,30,162,24,06,04,318,*75
67: $GPGSV,4,2,14,09,03,228,,11,30,188,29,12,07,002,14,14,10,051,21*71
67: $GPGSV,4,3,14,17,28,287,38,19,14,218,18,23,39,220,39,25,07,038,21*77
68: $GPGSV,4,4,14,31,40,084,18,32,62,094,28*7D
68: $GPGLL,5345.19287,N,02837.13352,E,145557.00,A,A*64
68: $GPRMC,145558.00,A,5345.19872,N,02837.16265,E,65.514,71.29,241015,,,A*61
68: $GPVTG,71.29,T,,M,65.514,N,121.332,K,A*33
68: $GPGGA,145558.00,5345.19872,N,02837.16265,E,1,12,0.89,168.7,M,24.1,M,,*53
68: $GPGSA,A,3,32,01,03,04,11,19,17,14,23,31,12,25,1.46,0.89,1.15*0E
68: $GPGSV,4,1,14,01,56,182,20,03,76,282,33,04,30,162,24,06,04,318,*74
68: $GPGSV,4,2,14,09,03,228,,11,30,188,29,12,07,002,18,14,10,051,20*7C
68: $GPGSV,4,3,14,17,28,287,38,19,14,218,21,23,39,220,39,25,07,038,18*77
69: $GPGSV,4,4,14,31,40,084,20,32,62,094,28*76
69: $GPGLL,5345.19872,N,02837.16265,E,145558.00,A,A*6B
69: $GPRMC,145559.00,A,5345.20440,N,02837.19114,E,64.091,71.42,241015,,,A*69
69: $GPVTG,71.42,T,,M,64.091,N,118.696,K,A*36
69: $GPGGA,145559.00,5345.20440,N,02837.19114,E,1,11,0.93,168.9,M,24.1,M,,*59
69: $GPGSA,A,3,32,01,03,04,11,19,17,14,23,31,12,,1.57,0.93,1.27*03
69: $GPGSV,4,1,14,01,56,182,20,03,76,282,33,04,30,162,24,06,04,318,*74
69: $GPGSV,4,2,14,09,03,228,,11,30,188,28,12,07,002,18,14,10,051,19*77
69: $GPGSV,4,3,14,17,28,287,38,19,14,218,22,23,39,220,39,25,07,038,*7D
70: $GPGSV,4,4,14,31,40,084,22,32,62,094,29*75
70: $GPGLL,5345.20440,N,02837.19114,E,145559.00,A,A*67
70: $GPRMC,145600.00,A,5345.21002,N,02837.21925,E,63.253,71.25,241015,,,A*6E
70: $GPVTG,71.25,T,,M,63.253,N,117.145,K,A*3A
70: $GPGGA,145600.00,5345.21002,N,02837.21925,E,1,11,0.93,168.9,M,24.1,M,,*54
70: $GPGSA,A,3,32,01,03,04,11,19,17,14,23,31,12,,1.57,0.93,1.27*03
70: $GPGSV,4,1,14,01,56,182,18,03,76,282,33,04,30,162,24,06,04,318,*7F
70: $GPGSV,4,2,14,09,03,228,,11,30,188,29,12,07,002,14,14,10,051,21*71
70: $GPGSV,4,3,14,17,28,287,38,19,14,218,25,23,39,220,38,25,07,038,*7B
71: $GPGSV,4,4,14,31,40,084,20,32,62,094,29*77
71: $GPGLL,5345.21002,N,02837.21925,E,145600.00,A,A*6A
71: $GPRMC,145601.00,A,5345.21558,N,02837.24691,E,62.265,71.23,241015,,,A*62
71: $GPVTG,71.23,T,,M,62.265,N,115.315,K,A*3D
71: $GPGGA,145601.00,5345.21558,N,02837.24691,E,1,10,0.93,169.0,M,24.1,M,,*53
71: $GPGSA,A,3,32,01,03,04,11,19,17,14,23,31,,,1.57,0.93,1.27*00
71: $GPGSV,4,1,14,01,56,182,17,03,76,282,32,04,30,162,24,06,04,318,*71
71: $GPGSV,4,2,14,09,03,228,,11,30,188,28,12,07,002,09,14,10,051,22*7F
71: $GPGSV,4,3,14,17,28,287,38,19,14,218,26,23,39,220,38,25,07,038,*78
72: $GPGSV,4,4,14,31,40,084,19,32,62,094,29*7D
72: $GPGLL,5345.21558,N,02837.24691,E,145601.00,A,A*64
72: $GPRMC,145602.00,A,5345.22101,N,02837.27392,E,60.873,71.29,241015,,,A*6A
72: $GPVTG,71.29,T,,M,60.873,N,112.736,K,A*3A
72: $GPGGA,145602.00,5345.22101,N,02837.27392,E,1,11,0.93,169.4,M,24.1,M,,*5B
72: $GPGSA,A,3,32,01,03,04,11,19,17,14,23,31,25,,1.57,0.93,1.27*07
72: $GPGSV,4,1,14,01,56,182,16,03,76,282,32,04,30,162,24,06,04,318,*70
72: $GPGSV,4,2,14,09,03,228,,11,30,188,28,12,07,002,08,14,10,051,24*78
72: $GPGSV,4,3,14,17,28,287,38,19,14,218,27,23,39,220,38,25,07,038,17*7F
73: $GPGSV,4,4,14,31,40,084,19,32,62,094,29*7D
73: $GPGLL,5345.22101,N,02837.27392,E,145602.00,A,A*69
73: $GPRMC,145603.00,A,5345.22636,N,02837.30074,E,60.072,71.41,241015,,,A*62
73: $GPVTG,71.41,T,,M,60.072,N,111.253,K,A*38
73: $GPGGA,145603.00,5345.22636,N,02837.30074,E,1,10,0.93,169.7,M,24.1,M,,*56
73: $GPGSA,A,3,32,01,03,04,11,19,17,14,23,31,,,1.57,0.93,1.27*00
73: $GPGSV,4,1,14,01,56,182,15,03,76,282,32,04,30,162,24,06,04,318,*73
73: $GPGSV,4,2,14,09,03,228,,11,30,188,27,12,07,002,,14,10,051,25*7E
73: $GPGSV,4,3,14,17,28,287,38,19,14,218,28,23,39,220,38,25,07,038,*76
74: $GPGSV,4,4,14,31,40,084,20,32,62,094,29*77
74: $GPGLL,5345.22636,N,02837.30074,E,145603.00,A,A*66
74: $GPRMC,145604.00,A,5345.23159,N,02837.32734,E,59.583,71.63,241015,,,A*6A
74: $GPVTG,71.63,T,,M,59.583,N,110.347,K,A*3C
74: $GPGGA,145604.00,5345.23159,N,02837.32734,E,1,10,0.93,170.0,M,24.1,M,,*50
74: $GPGSA,A,3,32,01,03,04,11,19,17,14,23,31,,,1.57,0.93,1.27*00
74: $GPGSV,4,1,14,01,56,182,14,03,76,282,31,04,30,162,25,06,04,318,*70
74: $GPGSV,4,2,14,09,03,228,,11,30,188,25,12,07,002,,14,10,051,27*7E
74: $GPGSV,4,3,14,17,28,287,38,19,14,218,28,23,39,220,38,25,07,038,*76
75: $GPGSV,4,4,14,31,40,084,23,32,62,094,30*7C
75: $GPGLL,5345.23159,N,02837.32734,E,145604.00,A,A*6F
75: $GPRMC,145605.00,A,5345.23679,N,02837.35365,E,59.306,71.49,241015,,,A*6A
75: $GPVTG,71.49,T,,M,59.306,N,109.834,K,A*38
75: $GPGGA,145605.00,5345.23679,N,02837.35365,E,1,10,0.93,170.3,M,24.1,M,,*50
75: $GPGSA,A,3,32,01,03,04,11,19,17,14,23,31,,,1.57,0.93,1.27*00
75: $GPGSV,4,1,14,01,56,182,13,03,76,282,31,04,30,162,24,06,04,318,*76
75: $GPGSV,4,2,14,09,03,228,,11,30,188,25,12,07,002,,14,10,051,27*7E
75: $GPGSV,4,3,14,17,28,287,38,19,14,218,27,23,39,220,38,25,07,038,*79
76: $GPGSV,4,4,14,31,40,084,21,32,62,094,30*7E
76: $GPGLL,5345.23679,N,02837.35365,E,145605.00,A,A*6C
76: $GPRMC,145606.00,A,5345.24196,N,02837.37980,E,58.840,71.43,241015,,,A*69
76: $GPVTG,71.43,T,,M,58.840,N,108.972,K,A*38
76: $GPGGA,145606.00,5345.24196,N,02837.37980,E,1,10,0.93,170.1,M,24.1,M,,*53
76: $GPGSA,A,3,32,01,03,04,11,19,17,14,23,31,,,1.57,0.93,1.27*00
76: $GPGSV,4,1,14,01,56,182,13,03,76,282,31,04,30,162,22,06,04,318,*70
76: $GPGSV,4,2,14,09,03,228,,11,30,188,26,12,07,002,,14,10,051,27*7D
76: $GPGSV,4,3,14,17,28,287,38,19,14,218,27,23,39,220,38,25,07,038,*79
77: $GPGSV,4,4,14,31,40,084,20,32,62,094,29*77
77: $GPGLL,5345.24196,N,02837.37980,E,145606.00,A,A*6D
77: $GPRMC,145607.00,A,5345.24707,N,02837.40538,E,57.193,71.41,241015,,,A*63
77: $GPVTG,71.41,T,,M,57.193,N,105.921,K,A*39
77: $GPGGA,145607.00,5345.24707,N,02837.40538,E,1,11,0.93,170.5,M,24.1,M,,*56
77: $GPGSA,A,3,32,01,03,04,11,19,17,14,23,31,25,,1.57,0.93,1.27*07
77: $GPGSV,4,1,14,01,56,182,12,03,76,282,31,04,30,162,23,06,04,318,*70
77: $GPGSV,4,2,14,09,03,228,,11,30,188,26,12,07,002,,14,10,051,28*72
77: $GPGSV,4,3,14,17,28,287,38,19,14,218,27,23,39,220,38,25,07,038,18*70
78: $GPGSV,4,4,14,31,40,084,19,32,62,094,30*75
78: $GPGLL,5345.24707,N,02837.40538,E,145607.00,A,A*6D
78: $GPRMC,145608.00,A,5345.25207,N,02837.43064,E,56.180,71.59,241015,,,A*6D
78: $GPVTG,71.59,T,,M,56.180,N,104.046,K,A*3A
78: $GPGGA,145608.00,5345.25207,N,02837.43064,E,1,12,0.93,170.7,M,24.1,M,,*53
78: $GPGSA,A,3,32,01,03,04,11,19,17,14,23,31,12,25,1.57,0.93,1.27*04
78: $GPGSV,4,1,14,01,56,182,12,03,76,282,31,04,30,162,24,06,04,318,*77
78: $GPGSV,4,2,14,09,03,228,,11,30,188,25,12,07,002,17,14,10,051,28*77
78: $GPGSV,4,3,14,17,28,287,38,19,14,218,25,23,39,220,38,25,07,038,17*7D
79: $GPGSV,4,4,14,31,40,084,20,32,62,094,29*77
79: $GPGLL,5345.25207,N,02837.43064,E,145608.00,A,A*69
79: $GPRMC,145609.00,A,5345.25700,N,02837.45575,E,56.161,71.65,241015,,,A*6D
79: $GPVTG,71.65,T,,M,56.161,N,104.010,K,A*39
79: $GPGGA,145609.00,5345.25700,N,02837.45575,E,1,12,0.93,170.8,M,24.1,M,,*5C
79: $GPGSA,A,3,32,01,03,04,11,19,17,14,23,31,12,25,1.57,0.93,1.27*04
79: $GPGSV,4,1,14,01,56,182,13,03,76,282,31,04,30,162,24,06,04,318,*76
79: $GPGSV,4,2,14,09,03,228,,11,30,188,23,12,07,002,16,14,10,051,27*7F
79: $GPGSV,4,3,14,17,28,287,38,19,14,218,21,23,39,220,37,25,07,038,15*74
80: $GPGSV,4,4,14,31,40,084,21,32,62,094,29*76
80: $GPGLL,5345.25700,N,02837.45575,E,145609.00,A,A*69
80: $GPRMC,145610.00,A,5345.26193,N,02837.48060,E,56.056,71.34,241015,,,A*67
80: $GPVTG,71.34,T,,M,56.056,N,103.816,K,A*31
80: $GPGGA,145610.00,5345.26193,N,02837.48060,E,1,11,0.93,171.1,M,24.1,M,,*5C
80: $GPGSA,A,3,32,01,03,04,11,19,17,14,23,31,12,,1.57,0.93,1.27*03
80: $GPGSV,4,1,14,01,56,182,12,03,76,282,31,04,30,162,24,06,04,318,*77
80: $GPGSV,4,2,14,09,03,228,,11,30,188,22,12,07,002,15,14,10,051,28*72
80: $GPGSV,4,3,14,17,28,287,38,19,14,218,23,23,39,220,38,25,07,038,*7D
81: $GPGSV,4,4,14,31,40,084,21,32,62,094,29*76
81: $GPGLL,5345.26193,N,02837.48060,E,145610.00,A,A*62
81: $GPRMC,145611.00,A,5345.26690,N,02837.50551,E,56.051,71.37,241015,,,A*68
81: $GPVTG,71.37,T,,M,56.051,N,103.807,K,A*35
81: $GPGGA,145611.00,5345.26690,N,02837.50551,E,1,11,0.93,171.3,M,24.1,M,,*55
81: $GPGSA,A,3,32,01,03,04,11,19,17,14,23,31,12,,1.57,0.93,1.27*03
81: $GPGSV,4,1,14,01,56,182,13,03,76,282,31,04,30,162,24,06,04,318,*76
81: $GPGSV,4,2,14,09,03,228,,11,30,188,23,12,07,002,12,14,10,051,27*7B
81: $GPGSV,4,3,14,17,28,287,38,19,14,218,24,23,39,220,37,25,07,038,*75
82: $GPGSV,4,4,14,31,40,084,22,32,62,094,29*75
82: $GPGLL,5345.26690,N,02837.50551,E,145611.00,A,A*69
82: $GPRMC,145612.00,A,5345.27190,N,02837.53027,E,55.583,71.03,241015,,,A*64
82: $GPVTG,71.03,T,,M,55.583,N,102.940,K,A*38
82: $GPGGA,145612.00,5345.27190,N,02837.53027,E,1,10,0.93,171.6,M,24.1,M,,*53
82: $GPGSA,A,3,32,01,03,04,11,19,17,14,23,31,,,1.57,0.93,1.27*00
82: $GPGSV,4,1,14,01,56,182,12,03,76,282,31,04,30,162,23,06,04,318,*70
82: $GPGSV,4,2,14,09,03,228,,11,30,188,23,12,07,002,09,14,10,051,27*71
82: $GPGSV,4,3,14,17,28,287,38,19,14,218,30,23,39,220,38,25,07,038,*7F
83: $GPGSV,4,4,14,31,40,084,22,32,62,094,28*74
83: $GPGLL,5345.27190,N,02837.53027,E,145612.00,A,A*6B
83: $GPRMC,145613.00,A,5345.27692,N,02837.55503,E,55.877,71.00,241015,,,A*60
83: $GPVTG,71.00,T,,M,55.877,N,103.485,K,A*38
83: $GPGGA,145613.00,5345.27692,N,02837.55503,E,1,10,0.93,171.8,M,24.1,M,,*5C
83: $GPGSA,A,3,32,01,03,04,11,19,17,14,23,31,,,1.57,0.93,1.27*00
83: $GPGSV,4,1,14,01,56,182,12,03,76,282,31,04,30,162,24,06,04,318,*77
83: $GPGSV,4,2,14,09,03,228,,11,30,188,25,12,07,002,08,14,10,051,26*77
83: $GPGSV,4,3,14,17,28,287,38,19,14,218,29,23,39,220,38,25,07,038,*77
84: $GPGSV,4,4,14,31,40,084,21,32,62,094,28*77
84: $GPGLL,5345.27692,N,02837.55503,E,145613.00,A,A*6A
84: $GPRMC,145614.00,A,5345.28193,N,02837.57974,E,56.053,71.09,241015,,,A*64
84: $GPVTG,71.09,T,,M,56.053,N,103.810,K,A*3C
84: $GPGGA,145614.00,5345.28193,N,02837.57974,E,1,10,0.93,172.2,M,24.1,M,,*55
84: $GPGSA,A,3,32,01,03,04,11,19,17,14,23,31,,,1.57,0.93,1.26*01
84: $GPGSV,4,1,14,01,56,182,15,03,76,282,31,04,30,162,25,06,04,318,*71
84: $GPGSV,4,2,14,09,03,228,,11,30,188,24,12,07,002,,14,10,051,25*7D
84: $GPGSV,4,3,14,17,28,287,38,19,14,218,27,23,39,220,38,25,07,038,*79
85: $GPGSV,4,4,14,31,40,084,22,32,62,094,29*75
85: $GPGLL,5345.28193,N,02837.57974,E,145614.00,A,A*6A
85: $GPRMC,145615.00,A,5345.28696,N,02837.60464,E,56.503,71.12,241015,,,A*65
85: $GPVTG,71.12,T,,M,56.503,N,104.643,K,A*39
85: $GPGGA,145615.00,5345.28696,N,02837.60464,E,1,10,0.93,172.4,M,24.1,M,,*58
85: $GPGSA,A,3,32,01,03,04,11,19,17,14,23,31,,,1.57,0.93,1.26*01
85: $GPGSV,4,1,14,01,56,182,15,03,76,282,31,04,30,162,26,06,04,318,*72
85: $GPGSV,4,2,14,09,03,228,,11,30,188,23,12,07,002,,14,10,051,25*7A
85: $GPGSV,4,3,14,17,28,287,38,19,14,218,25,23,39,220,38,25,07,038,*7B
86: $GPGSV,4,4,14,31,40,084,22,32,62,094,28*74
86: $GPGLL,5345.28696,N,02837.60464,E,145615.00,A,A*61
86: $GPRMC,145616.00,A,5345.29200,N,02837.62960,E,56.235,71.17,241015,,,A*60
86: $GPVTG,71.17,T,,M,56.235,N,104.147,K,A*3D
86: $GPGGA,145616.00,5345.29200,N,02837.62960,E,1,09,0.94,172.8,M,24.1,M,,*59
86: $GPGSA,A,3,32,03,04,11,19,17,14,23,31,,,,1.63,0.94,1.33*04
86: $GPGSV,4,1,14,01,56,182,,03,76,282,32,04,30,162,25,06,04,318,*76
86: $GPGSV,4,2,14,09,03,228,,11,30,188,23,12,07,002,,14,10,051,25*7A
86: $GPGSV,4,3,14,17,28,287,38,19,14,218,24,23,39,220,38,25,07,038,*7A
87: $GPGSV,4,4,14,31,40,084,21,32,62,094,28*77
87: $GPGLL,5345.29200,N,02837.62960,E,145616.00,A,A*63
87: $GPRMC,145617.00,A,5345.29699,N,02837.65461,E,56.202,71.37,241015,,,A*68
87: $GPVTG,71.37,T,,M,56.202,N,104.085,K,A*34
87: $GPGGA,145617.00,5345.29699,N,02837.65461,E,1,09,0.94,173.2,M,24.1,M,,*5C
87: $GPGSA,A,3,32,03,04,11,19,17,14,23,31,,,,1.63,0.94,1.33*04
87: $GPGSV,4,1,14,01,56,182,,03,76,282,32,04,30,162,24,06,04,318,*77
87: $GPGSV,4,2,14,09,03,228,,11,30,188,22,12,07,002,,14,10,051,23*7D
87: $GPGSV,4,3,14,17,28,287,38,19,14,218,21,23,39,220,38,25,07,038,*7F
88: $GPGSV,4,4,14,31,40,084,23,32,62,094,28*75
88: $GPGLL,5345.29699,N,02837.65461,E,145617.00,A,A*6D
88: $GPRMC,145618.00,A,5345.30198,N,02837.67976,E,56.792,71.41,241015,,,A*6D
88: $GPVTG,71.41,T,,M,56.792,N,105.179,K,A*3A
88: $GPGGA,145618.00,5345.30198,N,02837.67976,E,1,10,0.94,173.4,M,24.1,M,,*5A
88: $GPGSA,A,3,32,01,03,04,11,19,17,14,23,31,,,1.63,0.94,1.33*05
88: $GPGSV,4,1,14,01,56,182,14,03,76,282,31,04,30,162,23,06,04,318,*76
88: $GPGSV,4,2,14,09,03,228,,11,30,188,22,12,07,002,,14,10,051,23*7D
88: $GPGSV,4,3,14,17,28,287,38,19,14,218,19,23,39,220,38,25,07,038,*74
89: $GPGSV,4,4,14,31,40,084,23,32,62,094,28*75
89: $GPGLL,5345.30198,N,02837.67976,E,145618.00,A,A*65
89: $GPRMC,145619.00,A,5345.30701,N,02837.70531,E,57.669,71.51,241015,,,A*66
89: $GPVTG,71.51,T,,M,57.669,N,106.803,K,A*38
89: $GPGGA,145619.00,5345.30701,N,02837.70531,E,1,09,0.94,173.3,M,24.1,M,,*5B
89: $GPGSA,A,3,32,03,04,11,19,17,14,23,31,,,,1.63,0.94,1.33*04
89: $GPGSV,4,1,14,01,56,182,,03,76,282,31,04,30,162,23,06,04,318,*73
89: $GPGSV,4,2,14,09,03,228,,11,30,188,23,12,07,002,,14,10,051,21*7E
89: $GPGSV,4,3,14,17,28,287,38,19,14,218,18,23,39,220,38,25,07,038,*75
90: $GPGSV,4,4,14,31,40,084,23,32,62,094,29*74
90: $GPGLL,5345.30701,N,02837.70531,E,145619.00,A,A*6B
90: $GPRMC,145620.00,A,5345.31211,N,02837.73075,E,57.423,71.26,241015,,,A*63
90: $GPVTG,71.26,T,,M,57.423,N,106.347,K,A*3F
90: $GPGGA,145620.00,5345.31211,N,02837.73075,E,1,09,0.94,173.6,M,24.1,M,,*57
90: $GPGSA,A,3,32,03,04,11,19,17,14,23,31,,,,1.63,0.94,1.33*04
90: $GPGSV,4,1,14,01,56,182,,03,76,282,32,04,30,162,22,06,04,318,*71
90: $GPGSV,4,2,14,09,03,228,,11,30,188,24,12,07,002,,14,10,051,19*72
90: $GPGSV,4,3,14,17,28,287,38,19,14,218,19,23,39,220,38,25,07,038,*74
91: $GPGSV,4,4,14,31,40,084,22,32,62,094,29*75
91: $GPGLL,5345.31211,N,02837.73075,E,145620.00,A,A*62
91: $GPRMC,145621.00,A,5345.31727,N,02837.75632,E,57.513,71.13,241015,,,A*65
91: $GPVTG,71.13,T,,M,57.513,N,106.513,K,A*3C
91: $GPGGA,145621.00,5345.31727,N,02837.75632,E,1,10,0.94,174.1,M,24.1,M,,*5D
91: $GPGSA,A,3,32,01,03,04,11,19,17,14,23,31,,,1.63,0.94,1.33*05
91: $GPGSV,4,1,14,01,56,182,14,03,76,282,32,04,30,162,22,06,04,318,*74
91: $GPGSV,4,2,14,09,03,228,,11,30,188,23,12,07,002,,14,10,051,18*74
91: $GPGSV,4,3,14,17,28,287,38,19,14,218,20,23,39,220,38,25,07,038,*7E
92: $GPGSV,4,4,14,31,40,084,21,32,62,094,29*76
92: $GPGLL,5345.31727,N,02837.75632,E,145621.00,A,A*60
92: $GPRMC,145622.00,A,5345.32250,N,02837.78203,E,58.168,71.05,241015,,,A*6B
92: $GPVTG,71.05,T,,M,58.168,N,107.726,K,A*39
92: $GPGGA,145622.00,5345.32250,N,02837.78203,E,1,10,0.94,174.6,M,24.1,M,,*54
92: $GPGSA,A,3,32,01,03,04,11,19,17,14,23,31,,,1.63,0.94,1.33*05
92: $GPGSV,4,1,14,01,56,182,15,03,76,282,32,04,30,162,21,06,04,318,*76
92: $GPGSV,4,2,14,09,03,228,,11,30,188,23,12,07,002,,14,10,051,21*7E
92: $GPGSV,4,3,14,17,28,287,38,19,14,218,19,23,39,220,36,25,07,038,*7A
93: $GPGSV,4,4,14,31,40,084,21,32,62,094,28*77
93: $GPGLL,5345.32250,N,02837.78203,E,145622.00,A,A*6E
93: $GPRMC,145623.00,A,5345.32774,N,02837.80829,E,59.235,71.30,241015,,,A*60
93: $GPVTG,71.30,T,,M,59.235,N,109.703,K,A*3C
93: $GPGGA,145623.00,5345.32774,N,02837.80829,E,1,09,0.94,174.4,M,24.1,M,,*59
93: $GPGSA,A,3,32,03,04,11,19,17,14,23,31,,,,1.63,0.94,1.33*04
93: $GPGSV,4,1,14,01,56,182,,03,76,282,32,04,30,162,21,06,04,318,*72
93: $GPGSV,4,2,14,09,03,228,,11,30,188,23,12,07,002,,14,10,051,21*7E
93: $GPGSV,4,3,14,17,28,287,38,19,14,218,19,23,39,220,38,25,07,038,*74
94: $GPGSV,4,4,14,31,40,084,21,32,62,094,28*77
94: $GPGLL,5345.32774,N,02837.80829,E,145623.00,A,A*69
94: $GPRMC,145624.00,A,5345.33299,N,02837.83471,E,59.752,71.39,241015,,,A*6F
94: $GPVTG,71.39,T,,M,59.752,N,110.661,K,A*3C
94: $GPGGA,145624.00,5345.33299,N,02837.83471,E,1,09,0.94,174.4,M,24.1,M,,*5B
94: $GPGSA,A,3,32,03,04,11,19,17,14,23,31,,,,1.63,0.94,1.33*04
94: $GPGSV,4,1,14,01,56,182,,03,76,282,32,04,30,162,22,06,04,318,*71
94: $GPGSV,4,2,14,09,03,228,,11,30,188,23,12,07,002,,14,10,051,20*7F
94: $GPGSV,4,3,14,17,28,287,38,19,14,218,19,23,39,220,39,25,07,038,*75
95: $GPGSV,4,4,14,31,40,084,21,32,62,094,28*77
95: $GPGLL,5345.33299,N,02837.83471,E,145624.00,A,A*6B
95: $GPRMC,145625.00,A,5345.33833,N,02837.86139,E,59.822,71.32,241015,,,A*6B
95: $GPVTG,71.32,T,,M,59.822,N,110.791,K,A*31
95: $GPGGA,145625.00,5345.33833,N,02837.86139,E,1,10,0.94,174.6,M,24.1,M,,*56
95: $GPGSA,A,3,32,01,03,04,11,19,17,14,23,31,,,1.63,0.94,1.33*05
95: $GPGSV,4,1,14,01,56,182,14,03,76,282,32,04,30,162,21,06,04,318,*77
95: $GPGSV,4,2,14,09,03,228,,11,30,188,23,12,07,002,,14,10,051,20*7F
95: $GPGSV,4,3,14,17,28,287,38,19,14,218,19,23,39,220,36,25,07,038,*7A
96: $GPGSV,4,4,14,31,40,084,21,32,62,094,28*77
96: $GPGLL,5345.33833,N,02837.86139,E,145625.00,A,A*6C
96: $GPRMC,145626.00,A,5345.34368,N,02837.88823,E,60.054,71.41,241015,,,A*61
96: $GPVTG,71.41,T,,M,60.054,N,111.220,K,A*38
96: $GPGGA,145626.00,5345.34368,N,02837.88823,E,1,10,0.94,174.6,M,24.1,M,,*5B
96: $GPGSA,A,3,32,01,03,04,11,19,17,14,23,31,,,1.63,0.94,1.33*05
96: $GPGSV,4,1,14,01,56,182,13,03,76,282,32,04,30,162,22,06,04,318,*73
96: $GPGSV,4,2,14,09,03,228,,11,30,188,23,12,07,002,,14,10,051,21*7E
96: $GPGSV,4,3,14,17,28,287,38,19,14,218,18,23,39,220,38,25,07,038,*75
97: $GPGSV,4,4,14,31,40,084,21,32,62,094,28*77
97: $GPGLL,5345.34368,N,02837.88823,E,145626.00,A,A*61
97: $GPRMC,145627.00,A,5345.34906,N,02837.91512,E,60.933,71.21,241015,,,A*6B
97: $GPVTG,71.21,T,,M,60.933,N,112.848,K,A*31
97: $GPGGA,145627.00,5345.34906,N,02837.91512,E,1,09,0.94,174.7,M,24.1,M,,*56
97: $GPGSA,A,3,32,03,04,11,19,17,14,23,31,,,,1.63,0.94,1.33*04
97: $GPGSV,4,1,14,01,56,182,,03,76,282,32,04,30,162,22,06,04,318,*71
97: $GPGSV,4,2,14,09,03,228,,11,30,188,22,12,07,002,,14,10,051,20*7E
97: $GPGSV,4,3,14,17,28,287,38,19,14,218,18,23,39,220,38,25,07,038,*75
98: $GPGSV,4,4,14,31,40,084,19,32,62,094,28*7C
98: $GPGLL,5345.34906,N,02837.91512,E,145627.00,A,A*65
98: $GPRMC,145628.00,A,5345.35444,N,02837.94211,E,61.387,71.38,241015,,,A*63
98: $GPVTG,71.38,T,,M,61.387,N,113.690,K,A*37
98: $GPGGA,145628.00,5345.35444,N,02837.94211,E,1,10,0.94,174.8,M,24.1,M,,*55
98: $GPGSA,A,3,32,01,03,04,11,19,17,14,23,31,,,1.63,0.94,1.33*05
98: $GPGSV,4,1,14,01,55,182,18,03,76,282,32,04,30,162,22,06,04,318,*7B
98: $GPGSV,4,2,14,09,03,228,,11,30,188,23,12,07,002,,14,10,051,18*74
98: $GPGSV,4,3,14,17,28,287,38,19,14,218,18,23,39,220,38,25,07,038,*75
99: $GPGSV,4,4,14,31,40,084,19,32,62,094,28*7C
99: $GPGLL,5345.35444,N,02837.94211,E,145628.00,A,A*61
99: $GPRMC,145629.00,A,5345.35991,N,02837.96940,E,61.272,71.24,241015,,,A*6C
99: $GPVTG,71.24,T,,M,61.272,N,113.477,K,A*3A
99: $GPGGA,145629.00,5345.35991,N,02837.96940,E,1,10,1.23,174.7,M,24.1,M,,*5E
99: $GPGSA,A,3,32,01,03,04,11,19,17,14,23,31,,,2.43,1.23,2.10*0B
99: $GPGSV,4,1,14,01,55,182,17,03,76,282,32,04,30,162,21,06,04,318,*77
99: $GPGSV,4,2,14,09,03,228,,11,30,188,25,12,07,002,,14,10,051,22*7B
99: $GPGSV,4,3,14,17,28,287,38,19,14,218,18,23,39,220,38,25,07,038,*75
100: $GPGSV,4,4,14,31,40,084,19,32,62,094,28*7C
100: $GPGLL,5345.35991,N,02837.96940,E,145629.00,A,A*68
100: $GPRMC,145630.00,A,5345.36540,N,02837.99670,E,60.930,71.17,241015,,,A*68
100: $GPVTG,71.17,T,,M,60.930,N,112.843,K,A*3C
100: $GPGGA,145630.00,5345.36540,N,02837.99670,E,1,10,1.23,174.6,M,24.1,M,,*57
100: $GPGSA,A,3,32,01,03,04,11,19,17,14,23,31,,,2.43,1.23,2.10*0B
100: $GPGSV,4,1,14,01,55,182,17,03,76,283,32,04,30,162,21,06,04,318,*76
100: $GPGSV,4,2,14,09,03,228,,11,30,188,24,12,07,002,,14,10,051,20*78
100: $GPGSV,4,3,14,17,28,287,38,19,14,218,17,23,39,220,38,25,07,038,*7A
101: $GPGSV,4,4,14,31,40,084,19,32,62,094,28*7C
101: $GPGLL,5345.36540,N,02837.99670,E,145630.00,A,A*60
101: $GPRMC,145631.00,A,5345.37088,N,02838.02390,E,61.246,71.18,241015,,,A*6B
101: $GPVTG,71.18,T,,M,61.246,N,113.428,K,A*38
101: $GPGGA,145631.00,5345.37088,N,02838.02390,E,1,10,0.93,174.5,M,24.1,M,,*59
101: $GPGSA,A,3,32,01,03,04,11,19,17,14,23,31,,,1.57,0.93,1.26*01
101: $GPGSV,4,1,14,01,55,182,17,03,76,283,32,04,29,162,21,06,04,318,*7E
101: $GPGSV,4,2,14,09,03,228,,11,30,188,24,12,07,002,,14,10,051,22*7A
101: $GPGSV,4,3,14,17,28,287,38,19,14,218,19,23,39,220,38,25,07,038,*74
102: $GPGSV,4,4,14,31,40,084,20,32,62,094,28*76
102: $GPGLL,5345.37088,N,02838.02390,E,145631.00,A,A*67
102: $GPRMC,145632.00,A,5345.37636,N,02838.05107,E,61.561,71.14,241015,,,A*6E
102: $GPVTG,71.14,T,,M,61.561,N,114.010,K,A*3E
102: $GPGGA,145632.00,5345.37636,N,02838.05107,E,1,11,0.93,174.5,M,24.1,M,,*53
102: $GPGSA,A,3,32,01,03,04,11,19,17,14,23,31,25,,1.57,0.93,1.26*06
102: $GPGSV,4,1,14,01,55,182,17,03,76,283,32,04,29,162,22,06,04,318,*7D
102: $GPGSV,4,2,14,09,03,228,,11,30,188,24,12,07,002,,14,10,051,22*7A
102: $GPGSV,4,3,14,17,28,287,38,19,14,218,21,23,39,220,38,25,07,038,17*79
103: $GPGSV,4,4,14,31,40,084,20,32,62,094,28*76
