0: $GPGGA,145450.00,5344.80324,N,02835.18360,E,1,12,0.87,178.2,M,24.2,M,,*52
1: $GPGGA,145451.00,5344.80900,N,02835.21114,E,1,12,0.82,178.1,M,24.2,M,,*52
2: $GPGGA,145452.00,5344.81460,N,02835.23863,E,1,12,0.82,178.3,M,24.2,M,,*52
3: $GPGGA,145453.00,5344.82018,N,02835.26620,E,1,12,0.89,178.5,M,24.2,M,,*5A
4: $GPGGA,145454.00,5344.82580,N,02835.29383,E,1,11,0.87,178.7,M,24.2,M,,*55
5: $GPGGA,145455.00,5344.83150,N,02835.32156,E,1,11,0.87,178.8,M,24.2,M,,*53
6: $GPGGA,145456.00,5344.83719,N,02835.34951,E,1,11,0.87,178.8,M,24.2,M,,*52
7: $GPGGA,145457.00,5344.84291,N,02835.37744,E,1,12,0.87,179.2,M,24.2,M,,*50
8: $GPGGA,145458.00,5344.84858,N,02835.40545,E,1,12,0.87,179.1,M,24.2,M,,*50
9: $GPGGA,145459.00,5344.85424,N,02835.43357,E,1,12,0.87,179.1,M,24.2,M,,*51
10: $GPGGA,145500.00,5344.85985,N,02835.46183,E,1,12,0.87,179.0,M,24.2,M,,*55
11: $GPGGA,145501.00,5344.86547,N,02835.49015,E,1,12,0.82,179.0,M,24.2,M,,*51
12: $GPGGA,145502.00,5344.87112,N,02835.51849,E,1,12,0.87,179.0,M,24.2,M,,*5A
13: $GPGGA,145503.00,5344.87678,N,02835.54686,E,1,12,0.82,179.0,M,24.2,M,,*5D
14: $GPGGA,145504.00,5344.88247,N,02835.57556,E,1,12,0.82,178.6,M,24.2,M,,*57
15: $GPGGA,145505.00,5344.88810,N,02835.60445,E,1,12,0.82,178.1,M,24.2,M,,*5E
16: $GPGGA,145506.00,5344.89380,N,02835.63329,E,1,12,0.82,177.7,M,24.2,M,,*59
17: $GPGGA,145507.00,5344.89964,N,02835.66219,E,1,12,0.82,177.3,M,24.2,M,,*5B
18: $GPGGA,145508.00,5344.90550,N,02835.69127,E,1,12,0.82,176.7,M,24.2,M,,*53
19: $GPGGA,145509.00,5344.91135,N,02835.72053,E,1,12,0.82,176.2,M,24.2,M,,*59
20: $GPGGA,145510.00,5344.91725,N,02835.74992,E,1,12,0.82,175.6,M,24.2,M,,*53
21: $GPGGA,145511.00,5344.92318,N,02835.77930,E,1,12,0.82,175.1,M,24.2,M,,*57
22: $GPGGA,145512.00,5344.92910,N,02835.80870,E,1,12,0.82,174.6,M,24.2,M,,*5D
23: $GPGGA,145513.00,5344.93496,N,02835.83811,E,1,11,0.84,174.2,M,24.2,M,,*5B
24: $GPGGA,145514.00,5344.94090,N,02835.86787,E,1,11,0.84,173.5,M,24.2,M,,*5C
25: $GPGGA,145515.00,5344.94681,N,02835.89742,E,1,11,0.84,173.4,M,24.2,M,,*5C
26: $GPGGA,145516.00,5344.95255,N,02835.92705,E,1,10,0.88,173.2,M,24.2,M,,*51
27: $GPGGA,145517.00,5344.95806,N,02835.95678,E,1,10,0.98,172.8,M,24.2,M,,*5A
28: $GPGGA,145518.00,5344.96350,N,02835.98647,E,1,10,0.98,172.6,M,24.2,M,,*51
29: $GPGGA,145519.00,5344.96906,N,02836.01610,E,1,11,0.84,172.3,M,24.2,M,,*51
30: $GPGGA,145520.00,5344.97467,N,02836.04547,E,1,11,0.84,172.4,M,24.2,M,,*53
31: $GPGGA,145521.00,5344.98048,N,02836.07500,E,1,11,0.93,172.4,M,24.2,M,,*52
32: $GPGGA,145522.00,5344.98638,N,02836.10430,E,1,11,0.89,172.8,M,24.2,M,,*53
33: $GPGGA,145523.00,5344.99228,N,02836.13366,E,1,10,0.93,173.1,M,24.2,M,,*53
34: $GPGGA,145524.00,5344.99817,N,02836.16321,E,1,11,0.87,173.3,M,24.2,M,,*52
35: $GPGGA,145525.00,5345.00408,N,02836.19278,E,1,10,0.90,173.3,M,24.2,M,,*55
36: $GPGGA,145526.00,5345.01003,N,02836.22238,E,1,10,0.90,173.3,M,24.2,M,,*54
37: $GPGGA,145527.00,5345.01598,N,02836.25188,E,1,10,0.90,173.5,M,24.2,M,,*5B
38: $GPGGA,145528.00,5345.02197,N,02836.28131,E,1,10,0.98,173.9,M,24.2,M,,*57
39: $GPGGA,145529.00,5345.02797,N,02836.31103,E,1,10,0.98,173.8,M,24.2,M,,*58
40: $GPGGA,145530.00,5345.03391,N,02836.34056,E,1,10,0.98,174.1,M,24.2,M,,*59
41: $GPGGA,145531.00,5345.03985,N,02836.37017,E,1,09,1.66,174.3,M,24.2,M,,*5B
42: $GPGGA,145532.00,5345.04575,N,02836.39957,E,1,10,1.66,174.8,M,24.2,M,,*5C
43: $GPGGA,145533.00,5345.05167,N,02836.42908,E,1,10,1.16,175.0,M,24.2,M,,*53
44: $GPGGA,145534.00,5345.05763,N,02836.45886,E,1,10,0.93,174.7,M,24.2,M,,*5C
45: $GPGGA,145535.00,5345.06355,N,02836.48866,E,1,10,0.93,174.6,M,24.2,M,,*5D
46: $GPGGA,145536.00,5345.06944,N,02836.51853,E,1,11,0.93,174.2,M,24.2,M,,*5F
47: $GPGGA,145537.00,5345.07533,N,02836.54827,E,1,11,0.93,173.9,M,24.2,M,,*59
48: $GPGGA,145538.00,5345.08122,N,02836.57771,E,1,11,0.89,173.8,M,24.2,M,,*58
49: $GPGGA,145539.00,5345.08709,N,02836.60699,E,1,11,0.89,173.7,M,24.2,M,,*5A
50: $GPGGA,145540.00,5345.09297,N,02836.63622,E,1,12,0.89,173.6,M,24.2,M,,*56
51: $GPGGA,145541.00,5345.09885,N,02836.66537,E,1,12,0.89,173.4,M,24.2,M,,*5E
52: $GPGGA,145542.00,5345.10474,N,02836.69453,E,1,12,0.89,173.3,M,24.2,M,,*5C
53: $GPGGA,145543.00,5345.11058,N,02836.72346,E,1,11,0.93,173.4,M,24.2,M,,*50
54: $GPGGA,145544.00,5345.11642,N,02836.75258,E,1,11,0.93,173.1,M,24.2,M,,*56
55: $GPGGA,145545.00,5345.12236,N,02836.78158,E,1,11,0.91,172.9,M,24.2,M,,*56
56: $GPGGA,145546.00,5345.12830,N,02836.81079,E,1,11,0.91,172.5,M,24.2,M,,*51
57: $GPGGA,145547.00,5345.13415,N,02836.83985,E,1,10,0.91,172.3,M,24.2,M,,*55
58: $GPGGA,145548.00,5345.14000,N,02836.86911,E,1,09,1.16,171.9,M,24.2,M,,*5A
59: $GPGGA,145549.00,5345.14588,N,02836.89830,E,1,10,0.91,171.9,M,24.2,M,,*55
60: $GPGGA,145550.00,5345.15181,N,02836.92772,E,1,10,1.16,171.4,M,24.2,M,,*51
61: $GPGGA,145551.00,5345.15773,N,02836.95713,E,1,10,1.16,170.9,M,24.2,M,,*57
62: $GPGGA,145552.00,5345.16364,N,02836.98652,E,1,11,1.16,170.4,M,24.2,M,,*50
63: $GPGGA,145553.00,5345.16949,N,02837.01603,E,1,11,0.93,169.8,M,24.2,M,,*59
64: $GPGGA,145554.00,5345.17529,N,02837.04535,E,1,11,0.93,169.8,M,24.2,M,,*56
65: $GPGGA,145555.00,5345.18105,N,02837.07459,E,1,11,0.93,169.8,M,24.1,M,,*59
66: $GPGGA,145556.00,5345.18696,N,02837.10418,E,1,11,0.89,169.2,M,24.1,M,,*55
67: $GPGGA,145557.00,5345.19287,N,02837.13352,E,1,12,0.89,168.9,M,24.1,M,,*52
68: $GPGGA,145558.00,5345.19872,N,02837.16265,E,1,12,0.89,168.7,M,24.1,M,,*53
69: $GPGGA,145559.00,5345.20440,N,02837.19114,E,1,11,0.93,168.9,M,24.1,M,,*59
70: $GPGGA,145600.00,5345.21002,N,02837.21925,E,1,11,0.93,168.9,M,24.1,M,,*54
71: $GPGGA,145601.00,5345.21558,N,02837.24691,E,1,10,0.93,169.0,M,24.1,M,,*53
72: $GPGGA,145602.00,5345.22101,N,02837.27392,E,1,11,0.93,169.4,M,24.1,M,,*5B
73: $GPGGA,145603.00,5345.22636,N,02837.30074,E,1,10,0.93,169.7,M,24.1,M,,*56
74: $GPGGA,145604.00,5345.23159,N,02837.32734,E,1,10,0.93,170.0,M,24.1,M,,*50
75: $GPGGA,145605.00,5345.23679,N,02837.35365,E,1,10,0.93,170.3,M,24.1,M,,*50
76: $GPGGA,145606.00,5345.24196,N,02837.37980,E,1,10,0.93,170.1,M,24.1,M,,*53
77: $GPGGA,145607.00,5345.24707,N,02837.40538,E,1,11,0.93,170.5,M,24.1,M,,*56
78: $GPGGA,145608.00,5345.25207,N,02837.43064,E,1,12,0.93,170.7,M,24.1,M,,*53
79: $GPGGA,145609.00,5345.25700,N,02837.45575,E,1,12,0.93,170.8,M,24.1,M,,*5C
80: $GPGGA,145610.00,5345.26193,N,02837.48060,E,1,11,0.93,171.1,M,24.1,M,,*5C
81: $GPGGA,145611.00,5345.26690,N,02837.50551,E,1,11,0.93,171.3,M,24.1,M,,*55
82: $GPGGA,145612.00,5345.27190,N,02837.53027,E,1,10,0.93,171.6,M,24.1,M,,*53
83: $GPGGA,145613.00,5345.27692,N,02837.55503,E,1,10,0.93,171.8,M,24.1,M,,*5C
84: $GPGGA,145614.00,5345.28193,N,02837.57974,E,1,10,0.93,172.2,M,24.1,M,,*55
85: $GPGGA,145615.00,5345.28696,N,02837.60464,E,1,10,0.93,172.4,M,24.1,M,,*58
86: $GPGGA,145616.00,5345.29200,N,02837.62960,E,1,09,0.94,172.8,M,24.1,M,,*59
87: $GPGGA,145617.00,5345.29699,N,02837.65461,E,1,09,0.94,173.2,M,24.1,M,,*5C
88: $GPGGA,145618.00,5345.30198,N,02837.67976,E,1,10,0.94,173.4,M,24.1,M,,*5A
89: $GPGGA,145619.00,5345.30701,N,02837.70531,E,1,09,0.94,173.3,M,24.1,M,,*5B
90: $GPGGA,145620.00,5345.31211,N,02837.73075,E,1,09,0.94,173.6,M,24.1,M,,*57
91: $GPGGA,145621.00,5345.31727,N,02837.75632,E,1,10,0.94,174.1,M,24.1,M,,*5D
92: $GPGGA,145622.00,5345.32250,N,02837.78203,E,1,10,0.94,174.6,M,24.1,M,,*54
93: $GPGGA,145623.00,5345.32774,N,02837.80829,E,1,09,0.94,174.4,M,24.1,M,,*59
94: $GPGGA,145624.00,5345.33299,N,02837.83471,E,1,09,0.94,174.4,M,24.1,M,,*5B
95: $GPGGA,145625.00,5345.33833,N,02837.86139,E,1,10,0.94,174.6,M,24.1,M,,*56
96: $GPGGA,145626.00,5345.34368,N,02837.88823,E,1,10,0.94,174.6,M,24.1,M,,*5B
97: $GPGGA,145627.00,5345.34906,N,02837.91512,E,1,09,0.94,174.7,M,24.1,M,,*56
98: $GPGGA,145628.00,5345.35444,N,02837.94211,E,1,10,0.94,174.8,M,24.1,M,,*55
99: $GPGGA,145629.00,5345.35991,N,02837.96940,E,1,10,1.23,174.7,M,24.1,M,,*5E
100: $GPGGA,145630.00,5345.36540,N,02837.99670,E,1,10,1.23,174.6,M,24.1,M,,*57
101: $GPGGA,145631.00,5345.37088,N,02838.02390,E,1,10,0.93,174.5,M,24.1,M,,*59
102: $GPGGA,145632.00,5345.37636,N,02838.05107,E,1,11,0.93,174.5,M,24.1,M,,*53
103: $GPGGA,145633.00,5345.38181,N,02838.07833,E,1,11,0.93,174.3,M,24.1,M,,*5C
104: $GPGGA,145634.00,5345.38725,N,02838.10577,E,1,10,0.89,173.8,M,24.1,M,,*5E
105: $GPGGA,145635.00,5345.39259,N,02838.13314,E,1,11,0.89,173.3,M,24.1,M,,*5A
106: $GPGGA,145636.00,5345.39798,N,02838.16034,E,1,12,0.89,173.0,M,24.1,M,,*55
107: $GPGGA,145637.00,5345.40334,N,02838.18741,E,1,12,0.89,172.8,M,24.1,M,,*5A
108: $GPGGA,145638.00,5345.40873,N,02838.21464,E,1,12,0.82,172.3,M,24.1,M,,*53
109: $GPGGA,145639.00,5345.41411,N,02838.24166,E,1,11,0.82,171.9,M,24.1,M,,*53
110: $GPGGA,145640.00,5345.41950,N,02838.26848,E,1,11,0.82,171.7,M,24.1,M,,*5C
111: $GPGGA,145641.00,5345.42486,N,02838.29518,E,1,12,0.82,171.5,M,24.1,M,,*5E
112: $GPGGA,145642.00,5345.43022,N,02838.32198,E,1,12,0.82,171.4,M,24.1,M,,*51
113: $GPGGA,145643.00,5345.43556,N,02838.34866,E,1,11,0.84,171.5,M,24.1,M,,*5C
114: $GPGGA,145644.00,5345.44083,N,02838.37504,E,1,11,0.84,171.6,M,24.1,M,,*58
115: $GPGGA,145645.00,5345.44616,N,02838.40161,E,1,10,0.93,171.6,M,24.1,M,,*53
116: $GPGGA,145646.00,5345.45146,N,02838.42827,E,1,10,0.93,171.7,M,24.1,M,,*5B
117: $GPGGA,145647.00,5345.45681,N,02838.45508,E,1,09,0.94,171.7,M,24.1,M,,*5E
118: $GPGGA,145648.00,5345.46219,N,02838.48187,E,1,09,0.94,171.8,M,24.1,M,,*56
119: $GPGGA,145649.00,5345.46755,N,02838.50872,E,1,09,0.94,171.6,M,24.1,M,,*5E
120: $GPGGA,145650.00,5345.47294,N,02838.53540,E,1,10,0.94,171.8,M,24.1,M,,*56
121: $GPGGA,145651.00,5345.47827,N,02838.56218,E,1,09,1.23,171.9,M,24.1,M,,*5E
122: $GPGGA,145652.00,5345.48360,N,02838.58901,E,1,10,1.23,172.1,M,24.1,M,,*54
123: $GPGGA,145653.00,5345.48896,N,02838.61591,E,1,10,1.23,172.2,M,24.1,M,,*5B
124: $GPGGA,145654.00,5345.49430,N,02838.64302,E,1,09,1.23,172.0,M,24.1,M,,*5E
125: $GPGGA,145655.00,5345.49965,N,02838.67035,E,1,11,0.94,171.5,M,24.1,M,,*54
126: $GPGGA,145656.00,5345.50500,N,02838.69759,E,1,11,0.94,171.3,M,24.1,M,,*55
127: $GPGGA,145657.00,5345.51037,N,02838.72484,E,1,09,0.94,170.8,M,24.1,M,,*5E
128: $GPGGA,145658.00,5345.51576,N,02838.75171,E,1,09,0.94,170.7,M,24.1,M,,*56
129: $GPGGA,145659.00,5345.52116,N,02838.77842,E,1,09,0.99,170.7,M,24.1,M,,*50
130: $GPGGA,145700.00,5345.52650,N,02838.80523,E,1,10,0.99,170.5,M,24.1,M,,*50
131: $GPGGA,145701.00,5345.53176,N,02838.83178,E,1,10,0.99,170.5,M,24.1,M,,*5A
132: $GPGGA,145702.00,5345.53706,N,02838.85829,E,1,10,0.98,170.6,M,24.1,M,,*51
133: $GPGGA,145703.00,5345.54228,N,02838.88479,E,1,09,0.98,170.7,M,24.1,M,,*53
134: $GPGGA,145704.00,5345.54741,N,02838.91086,E,1,10,0.98,170.7,M,24.1,M,,*5A
135: $GPGGA,145705.00,5345.55243,N,02838.93655,E,1,09,0.98,170.5,M,24.1,M,,*5D
136: $GPGGA,145706.00,5345.55732,N,02838.96156,E,1,10,0.98,170.3,M,24.1,M,,*52
137: $GPGGA,145707.00,5345.56209,N,02838.98599,E,1,10,0.98,169.8,M,24.1,M,,*57
138: $GPGGA,145708.00,5345.56675,N,02839.00957,E,1,10,0.98,169.9,M,24.1,M,,*58
139: $GPGGA,145709.00,5345.57132,N,02839.03270,E,1,10,0.93,169.9,M,24.1,M,,*5A
140: $GPGGA,145710.00,5345.57579,N,02839.05533,E,1,10,0.93,169.8,M,24.1,M,,*5E
141: $GPGGA,145711.00,5345.58024,N,02839.07742,E,1,10,0.93,169.9,M,24.1,M,,*5A
142: $GPGGA,145712.00,5345.58469,N,02839.09934,E,1,11,0.94,169.9,M,24.1,M,,*53
143: $GPGGA,145713.00,5345.58909,N,02839.12103,E,1,12,0.94,170.0,M,24.1,M,,*5D
144: $GPGGA,145714.00,5345.59338,N,02839.14244,E,1,12,0.94,170.2,M,24.1,M,,*57
145: $GPGGA,145715.00,5345.59761,N,02839.16364,E,1,12,0.89,170.3,M,24.1,M,,*52
146: $GPGGA,145716.00,5345.60182,N,02839.18468,E,1,10,0.89,170.3,M,24.1,M,,*57
147: $GPGGA,145717.00,5345.60596,N,02839.20564,E,1,11,0.82,170.0,M,24.1,M,,*58
148: $GPGGA,145718.00,5345.61009,N,02839.22626,E,1,11,0.82,170.0,M,24.1,M,,*52
149: $GPGGA,145719.00,5345.61417,N,02839.24665,E,1,12,0.82,169.9,M,24.1,M,,*5B
150: $GPGGA,145720.00,5345.61821,N,02839.26683,E,1,12,0.82,170.1,M,24.1,M,,*52
151: $GPGGA,145721.00,5345.62221,N,02839.28687,E,1,12,0.82,170.2,M,24.1,M,,*53
152: $GPGGA,145722.00,5345.62616,N,02839.30677,E,1,12,0.82,170.4,M,24.1,M,,*50
153: $GPGGA,145723.00,5345.63008,N,02839.32658,E,1,12,0.82,170.5,M,24.1,M,,*57
154: $GPGGA,145724.00,5345.63407,N,02839.34656,E,1,12,0.82,170.6,M,24.1,M,,*50
155: $GPGGA,145725.00,5345.63815,N,02839.36670,E,1,11,0.82,170.7,M,24.1,M,,*5A
156: $GPGGA,145726.00,5345.64229,N,02839.38714,E,1,11,0.82,170.7,M,24.1,M,,*56
157: $GPGGA,145727.00,5345.64641,N,02839.40788,E,1,11,0.82,170.7,M,24.1,M,,*57
158: $GPGGA,145728.00,5345.65057,N,02839.42894,E,1,11,0.82,170.8,M,24.1,M,,*57
159: $GPGGA,145729.00,5345.65484,N,02839.45025,E,1,11,0.82,170.8,M,24.1,M,,*59
160: $GPGGA,145730.00,5345.65921,N,02839.47181,E,1,11,0.82,170.9,M,24.1,M,,*5F
161: $GPGGA,145731.00,5345.66365,N,02839.49367,E,1,11,0.82,171.0,M,24.1,M,,*5B
162: $GPGGA,145732.00,5345.66813,N,02839.51578,E,1,11,0.82,171.0,M,24.1,M,,*53
163: $GPGGA,145733.00,5345.67268,N,02839.53816,E,1,11,0.82,171.2,M,24.1,M,,*50
164: $GPGGA,145734.00,5345.67728,N,02839.56069,E,1,11,0.82,171.4,M,24.1,M,,*55
165: $GPGGA,145735.00,5345.68189,N,02839.58333,E,1,11,0.82,171.5,M,24.1,M,,*55
166: $GPGGA,145736.00,5345.68652,N,02839.60611,E,1,11,0.82,171.6,M,24.1,M,,*5A
167: $GPGGA,145737.00,5345.69113,N,02839.62897,E,1,12,0.82,171.6,M,24.1,M,,*59
168: $GPGGA,145738.00,5345.69582,N,02839.65193,E,1,12,0.82,171.7,M,24.1,M,,*51
169: $GPGGA,145739.00,5345.70054,N,02839.67500,E,1,11,0.82,171.8,M,24.1,M,,*56
170: $GPGGA,145740.00,5345.70519,N,02839.69829,E,1,11,0.82,171.8,M,24.1,M,,*5C
171: $GPGGA,145741.00,5345.70982,N,02839.72179,E,1,12,0.82,171.9,M,24.1,M,,*57
172: $GPGGA,145742.00,5345.71449,N,02839.74547,E,1,12,0.82,172.1,M,24.1,M,,*5B
173: $GPGGA,145743.00,5345.71919,N,02839.76924,E,1,12,0.82,172.2,M,24.1,M,,*5A
174: $GPGGA,145744.00,5345.72389,N,02839.79305,E,1,12,0.82,172.4,M,24.1,M,,*5D
175: $GPGGA,145745.00,5345.72857,N,02839.81693,E,1,12,0.82,172.7,M,24.1,M,,*5A
176: $GPGGA,145746.00,5345.73324,N,02839.84092,E,1,12,0.82,172.9,M,24.1,M,,*5B
177: $GPGGA,145747.00,5345.73799,N,02839.86496,E,1,12,0.82,173.1,M,24.1,M,,*53
178: $GPGGA,145748.00,5345.74282,N,02839.88906,E,1,11,0.82,173.3,M,24.1,M,,*5F
179: $GPGGA,145749.00,5345.74764,N,02839.91326,E,1,11,0.82,173.6,M,24.1,M,,*56
180: $GPGGA,145750.00,5345.75247,N,02839.93751,E,1,11,0.82,173.7,M,24.1,M,,*5C
181: $GPGGA,145751.00,5345.75719,N,02839.96188,E,1,12,0.82,173.9,M,24.1,M,,*59
182: $GPGGA,145752.00,5345.76174,N,02839.98630,E,1,12,0.82,174.1,M,24.1,M,,*51
183: $GPGGA,145753.00,5345.76617,N,02840.01091,E,1,12,0.81,174.3,M,24.1,M,,*50
184: $GPGGA,145754.00,5345.77050,N,02840.03573,E,1,12,0.81,174.4,M,24.1,M,,*5F
185: $GPGGA,145755.00,5345.77477,N,02840.06086,E,1,12,0.81,174.5,M,24.1,M,,*54
186: $GPGGA,145756.00,5345.77894,N,02840.08617,E,1,12,0.82,174.8,M,24.1,M,,*58
187: $GPGGA,145757.00,5345.78308,N,02840.11168,E,1,12,0.81,175.0,M,24.1,M,,*55
188: $GPGGA,145758.00,5345.78716,N,02840.13736,E,1,12,0.81,175.3,M,24.1,M,,*5D
189: $GPGGA,145759.00,5345.79121,N,02840.16302,E,1,11,0.83,175.7,M,24.1,M,,*5C
190: $GPGGA,145800.00,5345.79523,N,02840.18852,E,1,11,0.83,176.0,M,24.1,M,,*5D
191: $GPGGA,145801.00,5345.79912,N,02840.21373,E,1,11,0.83,176.5,M,24.1,M,,*55
192: $GPGGA,145802.00,5345.80288,N,02840.23859,E,1,11,0.83,177.1,M,24.1,M,,*5C
193: $GPGGA,145803.00,5345.80645,N,02840.26317,E,1,12,0.83,177.7,M,24.1,M,,*59
194: $GPGGA,145804.00,5345.80993,N,02840.28761,E,1,12,0.83,178.3,M,24.1,M,,*5A
195: $GPGGA,145805.00,5345.81336,N,02840.31195,E,1,12,0.83,178.6,M,24.1,M,,*5F
196: $GPGGA,145806.00,5345.81675,N,02840.33622,E,1,12,0.81,178.9,M,24.1,M,,*5A
197: $GPGGA,145807.00,5345.82020,N,02840.36048,E,1,12,0.81,179.3,M,24.1,M,,*5A
198: $GPGGA,145808.00,5345.82375,N,02840.38469,E,1,12,0.81,179.8,M,24.1,M,,*54
199: $GPGGA,145809.00,5345.82746,N,02840.40885,E,1,12,0.81,180.1,M,24.1,M,,*5F
200: $GPGGA,145810.00,5345.83131,N,02840.43295,E,1,12,0.81,180.3,M,24.1,M,,*5A
201: $GPGGA,145811.00,5345.83535,N,02840.45700,E,1,12,0.81,180.7,M,24.1,M,,*50
202: $GPGGA,145812.00,5345.83949,N,02840.48107,E,1,12,0.81,181.0,M,24.1,M,,*5E
203: $GPGGA,145813.00,5345.84375,N,02840.50520,E,1,12,0.81,181.2,M,24.1,M,,*57
204: $GPGGA,145814.00,5345.84808,N,02840.52934,E,1,12,0.81,181.4,M,24.1,M,,*5C
205: $GPGGA,145815.00,5345.85251,N,02840.55351,E,1,12,0.81,181.6,M,24.1,M,,*56
206: $GPGGA,145816.00,5345.85710,N,02840.57768,E,1,12,0.81,182.0,M,24.1,M,,*5C
207: $GPGGA,145817.00,5345.86171,N,02840.60184,E,1,12,0.81,182.1,M,24.1,M,,*5E
208: $GPGGA,145818.00,5345.86637,N,02840.62598,E,1,12,0.81,182.3,M,24.1,M,,*5D
209: $GPGGA,145819.00,5345.87102,N,02840.65010,E,1,12,0.81,182.5,M,24.1,M,,*58
210: $GPGGA,145820.00,5345.87583,N,02840.67404,E,1,12,0.81,182.4,M,24.1,M,,*5D
211: $GPGGA,145821.00,5345.88080,N,02840.69771,E,1,12,0.81,182.5,M,24.1,M,,*5B
212: $GPGGA,145822.00,5345.88587,N,02840.72087,E,1,12,0.83,182.7,M,24.1,M,,*5E
213: $GPGGA,145823.00,5345.89097,N,02840.74359,E,1,12,0.81,182.6,M,24.1,M,,*5F
214: $GPGGA,145824.00,5345.89606,N,02840.76588,E,1,12,0.81,182.4,M,24.1,M,,*5C
215: $GPGGA,145825.00,5345.90119,N,02840.78809,E,1,12,0.81,182.4,M,24.1,M,,*56
216: $GPGGA,145826.00,5345.90642,N,02840.81050,E,1,12,0.81,182.1,M,24.1,M,,*5B
217: $GPGGA,145827.00,5345.91195,N,02840.83302,E,1,12,0.81,182.1,M,24.1,M,,*50
218: $GPGGA,145828.00,5345.91760,N,02840.85559,E,1,12,0.81,182.2,M,24.1,M,,*5E
219: $GPGGA,145829.00,5345.92329,N,02840.87852,E,1,11,0.85,182.0,M,24.1,M,,*54
220: $GPGGA,145830.00,5345.92895,N,02840.90186,E,1,12,0.85,181.9,M,24.1,M,,*5F
221: $GPGGA,145831.00,5345.93464,N,02840.92551,E,1,12,0.85,182.0,M,24.1,M,,*5B
222: $GPGGA,145832.00,5345.94037,N,02840.94940,E,1,11,0.85,181.7,M,24.1,M,,*50
223: $GPGGA,145833.00,5345.94613,N,02840.97361,E,1,11,0.85,181.5,M,24.1,M,,*59
224: $GPGGA,145834.00,5345.95189,N,02840.99815,E,1,11,0.85,181.3,M,24.1,M,,*5B
225: $GPGGA,145835.00,5345.95767,N,02841.02292,E,1,11,0.85,181.1,M,24.1,M,,*58
226: $GPGGA,145836.00,5345.96349,N,02841.04778,E,1,11,0.85,181.0,M,24.1,M,,*56
227: $GPGGA,145837.00,5345.96937,N,02841.07275,E,1,11,0.85,180.8,M,24.1,M,,*56
228: $GPGGA,145838.00,5345.97531,N,02841.09787,E,1,11,0.85,180.6,M,24.1,M,,*5A
229: $GPGGA,145839.00,5345.98130,N,02841.12313,E,1,11,0.85,180.3,M,24.1,M,,*57
230: $GPGGA,145840.00,5345.98730,N,02841.14848,E,1,11,0.85,180.1,M,24.1,M,,*5E
231: $GPGGA,145841.00,5345.99327,N,02841.17390,E,1,12,0.85,179.9,M,24.1,M,,*5C
232: $GPGGA,145842.00,5345.99923,N,02841.19944,E,1,12,0.85,179.8,M,24.1,M,,*5D
233: $GPGGA,145843.00,5346.00514,N,02841.22513,E,1,12,0.85,179.7,M,24.1,M,,*5E
234: $GPGGA,145844.00,5346.01105,N,02841.25090,E,1,12,0.85,179.6,M,24.1,M,,*54
235: $GPGGA,145845.00,5346.01703,N,02841.27676,E,1,12,0.85,179.5,M,24.1,M,,*5A
236: $GPGGA,145846.00,5346.02308,N,02841.30271,E,1,12,0.81,179.2,M,24.1,M,,*53
237: $GPGGA,145847.00,5346.02918,N,02841.32873,E,1,12,0.81,179.3,M,24.1,M,,*52
238: $GPGGA,145848.00,5346.03524,N,02841.35495,E,1,12,0.81,179.3,M,24.1,M,,*5C
239: $GPGGA,145849.00,5346.04115,N,02841.38141,E,1,12,0.81,179.2,M,24.1,M,,*5C
240: $GPGGA,145850.00,5346.04688,N,02841.40804,E,1,12,0.81,179.1,M,24.1,M,,*53
241: $GPGGA,145851.00,5346.05245,N,02841.43483,E,1,12,0.81,178.9,M,24.1,M,,*5F
242: $GPGGA,145852.00,5346.05791,N,02841.46171,E,1,12,0.81,178.9,M,24.1,M,,*5D
243: $GPGGA,145853.00,5346.06331,N,02841.48855,E,1,12,0.81,178.9,M,24.1,M,,*50
244: $GPGGA,145854.00,5346.06867,N,02841.51530,E,1,12,0.81,178.9,M,24.1,M,,*59
245: $GPGGA,145855.00,5346.07402,N,02841.54183,E,1,12,0.81,179.0,M,24.1,M,,*57
246: $GPGGA,145856.00,5346.07933,N,02841.56824,E,1,12,0.81,179.1,M,24.1,M,,*5C
247: $GPGGA,145857.00,5346.08459,N,02841.59450,E,1,12,0.81,179.3,M,24.1,M,,*51
248: $GPGGA,145858.00,5346.08980,N,02841.62058,E,1,12,0.81,179.4,M,24.1,M,,*54
249: $GPGGA,145859.00,5346.09501,N,02841.64663,E,1,12,0.81,179.6,M,24.1,M,,*5B
250: $GPGGA,145900.00,5346.10017,N,02841.67249,E,1,12,0.81,179.6,M,24.1,M,,*53
251: $GPGGA,145901.00,5346.10532,N,02841.69822,E,1,12,0.81,179.6,M,24.1,M,,*59
252: $GPGGA,145902.00,5346.11048,N,02841.72403,E,1,12,0.81,180.0,M,24.1,M,,*56
253: $GPGGA,145903.00,5346.11565,N,02841.74987,E,1,12,0.81,180.3,M,24.1,M,,*59
254: $GPGGA,145904.00,5346.12083,N,02841.77571,E,1,12,0.81,180.6,M,24.1,M,,*53
255: $GPGGA,145905.00,5346.12600,N,02841.80153,E,1,12,0.82,180.9,M,24.1,M,,*5F
256: $GPGGA,145906.00,5346.13118,N,02841.82730,E,1,12,0.82,181.4,M,24.1,M,,*5E
257: $GPGGA,145907.00,5346.13635,N,02841.85303,E,1,12,0.81,181.7,M,24.1,M,,*54
258: $GPGGA,145908.00,5346.14154,N,02841.87868,E,1,12,0.81,182.1,M,24.1,M,,*5D
259: $GPGGA,145909.00,5346.14676,N,02841.90435,E,1,12,0.82,182.6,M,24.1,M,,*5D
260: $GPGGA,145910.00,5346.15200,N,02841.93006,E,1,12,0.82,183.0,M,24.1,M,,*51
261: $GPGGA,145911.00,5346.15722,N,02841.95585,E,1,12,0.82,183.4,M,24.1,M,,*59
262: $GPGGA,145912.00,5346.16242,N,02841.98174,E,1,12,0.82,183.7,M,24.1,M,,*5E
263: $GPGGA,145913.00,5346.16750,N,02842.00782,E,1,12,0.82,184.0,M,24.1,M,,*54
264: $GPGGA,145914.00,5346.17247,N,02842.03403,E,1,12,0.81,184.2,M,24.1,M,,*59
265: $GPGGA,145915.00,5346.17727,N,02842.06043,E,1,12,0.81,184.3,M,24.1,M,,*5F
266: $GPGGA,145916.00,5346.18204,N,02842.08694,E,1,12,0.81,184.5,M,24.1,M,,*53
267: $GPGGA,145917.00,5346.18700,N,02842.11336,E,1,12,0.81,184.7,M,24.1,M,,*54
268: $GPGGA,145918.00,5346.19211,N,02842.13976,E,1,12,0.81,184.9,M,24.1,M,,*5D
269: $GPGGA,145919.00,5346.19732,N,02842.16616,E,1,12,0.81,185.0,M,24.1,M,,*5C
270: $GPGGA,145920.00,5346.20264,N,02842.19261,E,1,12,0.81,185.2,M,24.0,M,,*52
271: $GPGGA,145921.00,5346.20793,N,02842.21913,E,1,12,0.81,185.2,M,24.0,M,,*5B
272: $GPGGA,145922.00,5346.21321,N,02842.24576,E,1,12,0.81,185.2,M,24.0,M,,*5E
273: $GPGGA,145923.00,5346.21850,N,02842.27250,E,1,12,0.81,185.1,M,24.0,M,,*51
274: $GPGGA,145924.00,5346.22383,N,02842.29936,E,1,12,0.81,185.1,M,24.0,M,,*55
275: $GPGGA,145925.00,5346.22919,N,02842.32637,E,1,12,0.81,185.0,M,24.0,M,,*58
276: $GPGGA,145926.00,5346.23462,N,02842.35356,E,1,12,0.81,184.9,M,24.0,M,,*56
277: $GPGGA,145927.00,5346.24018,N,02842.38090,E,1,12,0.81,184.8,M,24.0,M,,*5C
278: $GPGGA,145928.00,5346.24575,N,02842.40842,E,1,12,0.81,184.8,M,24.0,M,,*55
279: $GPGGA,145929.00,5346.25133,N,02842.43618,E,1,12,0.81,184.6,M,24.0,M,,*5F
280: $GPGGA,145930.00,5346.25694,N,02842.46405,E,1,12,0.81,184.5,M,24.0,M,,*55
281: $GPGGA,145931.00,5346.26262,N,02842.49206,E,1,12,0.81,184.4,M,24.0,M,,*51
282: $GPGGA,145932.00,5346.26828,N,02842.52025,E,1,12,0.81,184.2,M,24.0,M,,*59
283: $GPGGA,145933.00,5346.27389,N,02842.54865,E,1,12,0.81,184.1,M,24.0,M,,*50
284: $GPGGA,145934.00,5346.27950,N,02842.57718,E,1,12,0.81,184.0,M,24.0,M,,*5E
285: $GPGGA,145935.00,5346.28513,N,02842.60582,E,1,12,0.81,183.8,M,24.0,M,,*51
286: $GPGGA,145936.00,5346.29078,N,02842.63445,E,1,12,0.81,183.8,M,24.0,M,,*52
287: $GPGGA,145937.00,5346.29648,N,02842.66312,E,1,12,0.81,183.8,M,24.0,M,,*56
288: $GPGGA,145938.00,5346.30232,N,02842.69190,E,1,12,0.81,183.7,M,24.0,M,,*50
289: $GPGGA,145939.00,5346.30816,N,02842.72076,E,1,12,0.81,183.5,M,24.0,M,,*5C
290: $GPGGA,145940.00,5346.31396,N,02842.74973,E,1,12,0.81,183.2,M,24.0,M,,*5D
291: $GPGGA,145941.00,5346.31969,N,02842.77880,E,1,12,0.81,183.0,M,24.0,M,,*5A
292: $GPGGA,145942.00,5346.32545,N,02842.80797,E,1,12,0.81,182.9,M,24.0,M,,*51
293: $GPGGA,145943.00,5346.33126,N,02842.83720,E,1,12,0.81,182.8,M,24.0,M,,*5E
294: $GPGGA,145944.00,5346.33707,N,02842.86647,E,1,12,0.81,182.7,M,24.0,M,,*56
295: $GPGGA,145945.00,5346.34295,N,02842.89576,E,1,12,0.81,182.6,M,24.0,M,,*51
296: $GPGGA,145946.00,5346.34887,N,02842.92509,E,1,12,0.81,182.5,M,24.0,M,,*5A
297: $GPGGA,145947.00,5346.35477,N,02842.95451,E,1,12,0.81,182.3,M,24.0,M,,*54
298: $GPGGA,145948.00,5346.36064,N,02842.98405,E,1,11,0.88,182.2,M,24.0,M,,*59
299: $GPGGA,145949.00,5346.36647,N,02843.01363,E,1,11,0.88,182.1,M,24.0,M,,*5A
300: $GPGGA,145950.00,5346.37229,N,02843.04329,E,1,11,0.88,182.0,M,24.0,M,,*55
301: $GPGGA,145951.00,5346.37811,N,02843.07303,E,1,11,0.88,182.2,M,24.0,M,,*5C
302: $GPGGA,145952.00,5346.38390,N,02843.10281,E,1,11,0.88,182.1,M,24.0,M,,*5C
303: $GPGGA,145953.00,5346.38978,N,02843.13261,E,1,12,0.88,182.1,M,24.0,M,,*5F
304: $GPGGA,145954.00,5346.39580,N,02843.16240,E,1,12,0.93,182.1,M,24.0,M,,*5E
305: $GPGGA,145955.00,5346.40183,N,02843.19226,E,1,12,0.93,182.2,M,24.0,M,,*5A
306: $GPGGA,145956.00,5346.40781,N,02843.22221,E,1,11,0.93,182.2,M,24.0,M,,*51
307: $GPGGA,145957.00,5346.41382,N,02843.25210,E,1,11,0.88,182.3,M,24.0,M,,*58
308: $GPGGA,145958.00,5346.41983,N,02843.28213,E,1,11,0.89,182.4,M,24.0,M,,*54
309: $GPGGA,145959.00,5346.42586,N,02843.31229,E,1,11,0.89,182.5,M,24.0,M,,*5F
310: $GPGGA,150000.00,5346.43181,N,02843.34256,E,1,11,0.89,182.3,M,24.0,M,,*57
311: $GPGGA,150001.00,5346.43774,N,02843.37297,E,1,11,0.89,182.1,M,24.0,M,,*56
312: $GPGGA,150002.00,5346.44372,N,02843.40347,E,1,11,0.89,181.9,M,24.0,M,,*57
313: $GPGGA,150003.00,5346.44981,N,02843.43405,E,1,11,0.89,181.8,M,24.0,M,,*53
314: $GPGGA,150004.00,5346.45596,N,02843.46474,E,1,11,0.95,181.6,M,24.0,M,,*5F
315: $GPGGA,150005.00,5346.46206,N,02843.49560,E,1,11,0.95,181.4,M,24.0,M,,*5A
316: $GPGGA,150006.00,5346.46817,N,02843.52648,E,1,11,0.88,181.2,M,24.0,M,,*5A
317: $GPGGA,150007.00,5346.47436,N,02843.55745,E,1,11,0.88,180.9,M,24.0,M,,*54
318: $GPGGA,150008.00,5346.48059,N,02843.58854,E,1,11,0.88,180.6,M,24.0,M,,*54
319: $GPGGA,150009.00,5346.48685,N,02843.61969,E,1,11,0.88,180.3,M,24.0,M,,*52
320: $GPGGA,150010.00,5346.49311,N,02843.65092,E,1,11,0.88,180.1,M,24.0,M,,*58
321: $GPGGA,150011.00,5346.49935,N,02843.68221,E,1,11,0.88,179.9,M,24.0,M,,*5C
322: $GPGGA,150012.00,5346.50558,N,02843.71353,E,1,11,0.88,179.7,M,24.0,M,,*52
323: $GPGGA,150013.00,5346.51175,N,02843.74463,E,1,12,0.88,179.7,M,24.0,M,,*5B
324: $GPGGA,150014.00,5346.51787,N,02843.77543,E,1,12,0.81,179.5,M,24.0,M,,*5C
325: $GPGGA,150015.00,5346.52396,N,02843.80577,E,1,12,0.81,179.5,M,24.0,M,,*55
326: $GPGGA,150016.00,5346.52990,N,02843.83564,E,1,12,0.81,179.3,M,24.0,M,,*5D
327: $GPGGA,150017.00,5346.53574,N,02843.86528,E,1,12,0.81,179.5,M,24.0,M,,*50
328: $GPGGA,150018.00,5346.54156,N,02843.89486,E,1,12,0.81,179.6,M,24.0,M,,*55
329: $GPGGA,150019.00,5346.54748,N,02843.92434,E,1,12,0.81,179.9,M,24.0,M,,*51
330: $GPGGA,150020.00,5346.55336,N,02843.95382,E,1,12,0.81,180.1,M,24.0,M,,*54
331: $GPGGA,150021.00,5346.55919,N,02843.98312,E,1,12,0.81,180.3,M,24.0,M,,*54
332: $GPGGA,150022.00,5346.56503,N,02844.01214,E,1,12,0.81,180.6,M,24.0,M,,*56
333: $GPGGA,150023.00,5346.57087,N,02844.04090,E,1,11,0.81,180.9,M,24.0,M,,*58
334: $GPGGA,150024.00,5346.57666,N,02844.06954,E,1,12,0.81,181.1,M,24.0,M,,*5F
335: $GPGGA,150025.00,5346.58239,N,02844.09820,E,1,12,0.81,181.2,M,24.0,M,,*51
336: $GPGGA,150026.00,5346.58810,N,02844.12694,E,1,12,0.81,181.4,M,24.0,M,,*5E
337: $GPGGA,150027.00,5346.59379,N,02844.15577,E,1,11,0.81,181.6,M,24.0,M,,*52
338: $GPGGA,150028.00,5346.59942,N,02844.18466,E,1,12,0.81,181.7,M,24.0,M,,*51
339: $GPGGA,150029.00,5346.60505,N,02844.21357,E,1,12,0.81,181.8,M,24.0,M,,*55
340: $GPGGA,150030.00,5346.61076,N,02844.24257,E,1,12,0.81,182.0,M,24.0,M,,*52
341: $GPGGA,150031.00,5346.61660,N,02844.27160,E,1,12,0.81,182.3,M,24.0,M,,*55
342: $GPGGA,150032.00,5346.62245,N,02844.30067,E,1,12,0.81,182.4,M,24.0,M,,*51
343: $GPGGA,150033.00,5346.62835,N,02844.32980,E,1,12,0.81,182.5,M,24.0,M,,*5E
344: $GPGGA,150034.00,5346.63421,N,02844.35902,E,1,12,0.81,182.7,M,24.0,M,,*5E
345: $GPGGA,150035.00,5346.64006,N,02844.38830,E,1,12,0.81,182.8,M,24.0,M,,*5B
346: $GPGGA,150036.00,5346.64591,N,02844.41771,E,1,12,0.81,183.0,M,24.0,M,,*5E
347: $GPGGA,150037.00,5346.65175,N,02844.44721,E,1,12,0.81,183.2,M,24.0,M,,*52
348: $GPGGA,150038.00,5346.65759,N,02844.47676,E,1,12,0.81,183.4,M,24.0,M,,*53
349: $GPGGA,150039.00,5346.66343,N,02844.50634,E,1,12,0.81,183.7,M,24.0,M,,*5D
350: $GPGGA,150040.00,5346.66933,N,02844.53595,E,1,12,0.81,183.9,M,24.0,M,,*5B
351: $GPGGA,150041.00,5346.67532,N,02844.56560,E,1,12,0.81,184.2,M,24.0,M,,*55
352: $GPGGA,150042.00,5346.68137,N,02844.59533,E,1,12,0.81,184.4,M,24.0,M,,*57
353: $GPGGA,150043.00,5346.68741,N,02844.62512,E,1,12,0.81,184.7,M,24.0,M,,*59
354: $GPGGA,150044.00,5346.69343,N,02844.65488,E,1,12,0.81,185.1,M,24.0,M,,*5B
355: $GPGGA,150045.00,5346.69938,N,02844.68474,E,1,12,0.81,185.3,M,24.0,M,,*50
356: $GPGGA,150046.00,5346.70524,N,02844.71471,E,1,12,0.81,185.6,M,24.0,M,,*52
357: $GPGGA,150047.00,5346.71106,N,02844.74475,E,1,12,0.81,185.9,M,24.0,M,,*58
358: $GPGGA,150048.00,5346.71689,N,02844.77484,E,1,12,0.81,186.2,M,24.0,M,,*52
359: $GPGGA,150049.00,5346.72281,N,02844.80499,E,1,12,0.81,186.2,M,24.0,M,,*58
360: $GPGGA,150050.00,5346.72878,N,02844.83501,E,1,11,0.83,186.3,M,24.0,M,,*5F
361: $GPGGA,150051.00,5346.73468,N,02844.86451,E,1,11,0.83,186.8,M,24.0,M,,*58
362: $GPGGA,150052.00,5346.74047,N,02844.89360,E,1,11,0.83,187.2,M,24.0,M,,*54
363: $GPGGA,150053.00,5346.74615,N,02844.92265,E,1,11,0.83,187.0,M,24.0,M,,*58
364: $GPGGA,150054.00,5346.75184,N,02844.95146,E,1,11,0.83,187.5,M,24.0,M,,*51
365: $GPGGA,150055.00,5346.75765,N,02844.98018,E,1,10,0.93,188.0,M,24.0,M,,*54
366: $GPGGA,150056.00,5346.76347,N,02845.00892,E,1,10,0.95,188.4,M,24.0,M,,*58
367: $GPGGA,150057.00,5346.76935,N,02845.03764,E,1,10,0.95,188.8,M,24.0,M,,*5F
368: $GPGGA,150058.00,5346.77515,N,02845.06644,E,1,11,0.95,189.2,M,24.0,M,,*53
369: $GPGGA,150059.00,5346.78082,N,02845.09536,E,1,11,0.93,189.4,M,24.0,M,,*5F
370: $GPGGA,150100.00,5346.78642,N,02845.12433,E,1,11,0.95,189.3,M,24.0,M,,*57
371: $GPGGA,150101.00,5346.79208,N,02845.15332,E,1,10,1.23,189.7,M,24.0,M,,*55
372: $GPGGA,150102.00,5346.79775,N,02845.18244,E,1,10,1.16,189.7,M,24.0,M,,*52
373: $GPGGA,150103.00,5346.80347,N,02845.21141,E,1,10,1.23,189.9,M,24.0,M,,*54
374: $GPGGA,150104.00,5346.80925,N,02845.24035,E,1,10,1.23,190.1,M,24.0,M,,*5A
375: $GPGGA,150105.00,5346.81505,N,02845.26925,E,1,10,0.95,190.5,M,24.0,M,,*56
376: $GPGGA,150106.00,5346.82083,N,02845.29827,E,1,10,0.95,190.7,M,24.0,M,,*53
377: $GPGGA,150107.00,5346.82666,N,02845.32715,E,1,10,0.95,191.5,M,24.0,M,,*58
378: $GPGGA,150108.00,5346.83249,N,02845.35626,E,1,10,0.95,191.9,M,24.0,M,,*55
379: $GPGGA,150109.00,5346.83824,N,02845.38542,E,1,10,0.95,192.0,M,24.0,M,,*53
380: $GPGGA,150110.00,5346.84405,N,02845.41450,E,1,10,0.95,192.6,M,24.0,M,,*59
381: $GPGGA,150111.00,5346.84991,N,02845.44375,E,1,09,1.23,192.7,M,24.0,M,,*58
382: $GPGGA,150112.00,5346.85596,N,02845.47251,E,1,09,1.23,194.2,M,24.0,M,,*56
383: $GPGGA,150113.00,5346.86186,N,02845.50152,E,1,09,1.23,194.6,M,24.0,M,,*53
384: $GPGGA,150114.00,5346.86770,N,02845.53072,E,1,09,1.23,194.8,M,24.0,M,,*55
385: $GPGGA,150115.00,5346.87347,N,02845.55992,E,1,09,1.23,194.9,M,24.0,M,,*55
386: $GPGGA,150116.00,5346.87926,N,02845.58903,E,1,09,1.23,195.0,M,24.0,M,,*56
387: $GPGGA,150117.00,5346.88504,N,02845.61804,E,1,09,1.23,195.2,M,24.0,M,,*5A
388: $GPGGA,150118.00,5346.89082,N,02845.64697,E,1,09,1.23,195.4,M,24.0,M,,*58
389: $GPGGA,150119.00,5346.89656,N,02845.67587,E,1,08,1.23,195.4,M,24.0,M,,*56
390: $GPGGA,150120.00,5346.90224,N,02845.70468,E,1,09,1.23,195.5,M,24.0,M,,*53
391: $GPGGA,150121.00,5346.90788,N,02845.73344,E,1,10,1.23,195.4,M,24.0,M,,*52
392: $GPGGA,150122.00,5346.91347,N,02845.76193,E,1,10,1.23,195.5,M,24.0,M,,*5B
393: $GPGGA,150123.00,5346.91905,N,02845.79037,E,1,10,0.93,195.4,M,24.0,M,,*5D
394: $GPGGA,150124.00,5346.92455,N,02845.81850,E,1,11,0.95,195.5,M,24.0,M,,*59
395: $GPGGA,150125.00,5346.93013,N,02845.84615,E,1,11,0.95,196.2,M,24.0,M,,*51
396: $GPGGA,150126.00,5346.93555,N,02845.87357,E,1,11,0.93,196.1,M,24.0,M,,*50
397: $GPGGA,150127.00,5346.94088,N,02845.90073,E,1,11,0.93,195.9,M,24.0,M,,*5B
398: $GPGGA,150128.00,5346.94615,N,02845.92774,E,1,11,0.93,196.1,M,24.0,M,,*5F
399: $GPGGA,150129.00,5346.95141,N,02845.95477,E,1,11,0.95,195.9,M,24.0,M,,*53
400: $GPGGA,150130.00,5346.95667,N,02845.98174,E,1,11,0.95,195.9,M,24.0,M,,*53
401: $GPGGA,150131.00,5346.96195,N,02846.00867,E,1,11,0.95,195.8,M,24.0,M,,*53
402: $GPGGA,150132.00,5346.96729,N,02846.03556,E,1,11,0.95,195.7,M,24.0,M,,*52
403: $GPGGA,150133.00,5346.97267,N,02846.06239,E,1,12,0.95,195.5,M,24.0,M,,*57
404: $GPGGA,150134.00,5346.97809,N,02846.08929,E,1,12,0.89,195.1,M,24.0,M,,*5F
405: $GPGGA,150135.00,5346.98351,N,02846.11611,E,1,12,0.89,194.8,M,24.0,M,,*53
406: $GPGGA,150136.00,5346.98889,N,02846.14293,E,1,12,0.89,194.4,M,24.0,M,,*59
407: $GPGGA,150137.00,5346.99424,N,02846.16969,E,1,12,0.89,194.2,M,24.0,M,,*58
408: $GPGGA,150138.00,5346.99956,N,02846.19648,E,1,12,0.89,194.0,M,24.0,M,,*5E
409: $GPGGA,150139.00,5347.00486,N,02846.22335,E,1,12,0.86,193.8,M,24.0,M,,*59
410: $GPGGA,150140.00,5347.01015,N,02846.25029,E,1,12,0.86,193.4,M,24.0,M,,*5D
411: $GPGGA,150141.00,5347.01550,N,02846.27730,E,1,12,0.93,193.2,M,24.0,M,,*57
412: $GPGGA,150142.00,5347.02087,N,02846.30426,E,1,12,0.93,192.9,M,24.0,M,,*50
413: $GPGGA,150143.00,5347.02623,N,02846.33113,E,1,12,0.93,193.0,M,24.0,M,,*51
414: $GPGGA,150144.00,5347.03155,N,02846.35793,E,1,12,0.93,193.2,M,24.0,M,,*5B
415: $GPGGA,150145.00,5347.03682,N,02846.38472,E,1,12,0.93,193.3,M,24.0,M,,*57
416: $GPGGA,150146.00,5347.04212,N,02846.41143,E,1,12,0.93,193.5,M,24.0,M,,*51
417: $GPGGA,150147.00,5347.04740,N,02846.43811,E,1,12,0.93,193.6,M,24.0,M,,*5D
418: $GPGGA,150148.00,5347.05263,N,02846.46474,E,1,12,0.93,193.7,M,24.0,M,,*5C
419: $GPGGA,150149.00,5347.05780,N,02846.49120,E,1,12,0.91,193.8,M,24.0,M,,*53
420: $GPGGA,150150.00,5347.06295,N,02846.51753,E,1,12,0.91,193.9,M,24.0,M,,*53
421: $GPGGA,150151.00,5347.06810,N,02846.54366,E,1,12,0.91,193.9,M,24.0,M,,*52
422: $GPGGA,150152.00,5347.07326,N,02846.56964,E,1,12,0.91,194.2,M,24.0,M,,*58
423: $GPGGA,150153.00,5347.07839,N,02846.59549,E,1,12,0.91,194.5,M,24.0,M,,*57
424: $GPGGA,150154.00,5347.08345,N,02846.62127,E,1,12,0.80,194.7,M,24.0,M,,*59
425: $GPGGA,150155.00,5347.08843,N,02846.64689,E,1,12,0.80,194.9,M,24.0,M,,*5E
426: $GPGGA,150156.00,5347.09345,N,02846.67236,E,1,11,0.91,195.1,M,24.0,M,,*58
427: $GPGGA,150157.00,5347.09856,N,02846.69774,E,1,11,0.91,195.1,M,24.0,M,,*5D
428: $GPGGA,150158.00,5347.10365,N,02846.72295,E,1,11,0.91,195.2,M,24.0,M,,*52
429: $GPGGA,150159.00,5347.10868,N,02846.74799,E,1,12,0.91,195.4,M,24.0,M,,*5F
430: $GPGGA,150200.00,5347.11361,N,02846.77289,E,1,12,0.91,195.5,M,24.0,M,,*55
431: $GPGGA,150201.00,5347.11852,N,02846.79784,E,1,12,0.91,195.6,M,24.0,M,,*5A
432: $GPGGA,150202.00,5347.12339,N,02846.82274,E,1,12,0.91,195.5,M,24.0,M,,*51
433: $GPGGA,150203.00,5347.12822,N,02846.84757,E,1,12,0.85,195.2,M,24.0,M,,*51
434: $GPGGA,150204.00,5347.13310,N,02846.87234,E,1,12,0.80,195.1,M,24.0,M,,*58
435: $GPGGA,150205.00,5347.13802,N,02846.89706,E,1,12,0.80,195.1,M,24.0,M,,*5B
436: $GPGGA,150206.00,5347.14292,N,02846.92180,E,1,12,0.81,195.2,M,24.0,M,,*5C
437: $GPGGA,150207.00,5347.14785,N,02846.94653,E,1,12,0.81,195.4,M,24.0,M,,*57
438: $GPGGA,150208.00,5347.15288,N,02846.97135,E,1,12,0.81,195.3,M,24.0,M,,*52
439: $GPGGA,150209.00,5347.15789,N,02846.99623,E,1,12,0.78,195.0,M,24.0,M,,*5C
440: $GPGGA,150210.00,5347.16280,N,02847.02105,E,1,11,0.81,194.8,M,24.0,M,,*57
441: $GPGGA,150211.00,5347.16772,N,02847.04594,E,1,12,0.81,194.6,M,24.0,M,,*59
442: $GPGGA,150212.00,5347.17265,N,02847.07088,E,1,12,0.81,194.3,M,24.0,M,,*56
443: $GPGGA,150213.00,5347.17761,N,02847.09576,E,1,12,0.81,194.0,M,24.0,M,,*5F
444: $GPGGA,150214.00,5347.18260,N,02847.12060,E,1,12,0.81,193.9,M,24.0,M,,*55
445: $GPGGA,150215.00,5347.18767,N,02847.14561,E,1,12,0.81,193.7,M,24.0,M,,*5A
446: $GPGGA,150216.00,5347.19277,N,02847.17075,E,1,12,0.81,193.4,M,24.0,M,,*5C
447: $GPGGA,150217.00,5347.19786,N,02847.19608,E,1,12,0.81,192.9,M,24.0,M,,*58
448: $GPGGA,150218.00,5347.20298,N,02847.22153,E,1,11,0.81,192.5,M,24.0,M,,*59
449: $GPGGA,150219.00,5347.20810,N,02847.24706,E,1,11,0.81,192.0,M,24.0,M,,*57
450: $GPGGA,150220.00,5347.21319,N,02847.27266,E,1,12,0.81,191.4,M,24.0,M,,*5A
451: $GPGGA,150221.00,5347.21831,N,02847.29835,E,1,12,0.81,190.9,M,24.0,M,,*54
452: $GPGGA,150222.00,5347.22350,N,02847.32418,E,1,12,0.81,190.3,M,24.0,M,,*5B
453: $GPGGA,150223.00,5347.22872,N,02847.35004,E,1,12,0.81,189.9,M,23.9,M,,*53
454: $GPGGA,150224.00,5347.23391,N,02847.37597,E,1,12,0.81,189.3,M,23.9,M,,*54
455: $GPGGA,150225.00,5347.23911,N,02847.40203,E,1,12,0.81,188.7,M,23.9,M,,*58
456: $GPGGA,150226.00,5347.24430,N,02847.42819,E,1,12,0.81,188.0,M,23.9,M,,*56
457: $GPGGA,150227.00,5347.24954,N,02847.45430,E,1,12,0.81,187.5,M,23.9,M,,*52
458: $GPGGA,150228.00,5347.25481,N,02847.48046,E,1,12,0.81,187.1,M,23.9,M,,*55
459: $GPGGA,150229.00,5347.26005,N,02847.50671,E,1,12,0.78,186.7,M,23.9,M,,*55
460: $GPGGA,150230.00,5347.26525,N,02847.53296,E,1,12,0.78,186.4,M,23.9,M,,*57
461: $GPGGA,150231.00,5347.27040,N,02847.55921,E,1,12,0.78,186.1,M,23.9,M,,*55
462: $GPGGA,150232.00,5347.27557,N,02847.58540,E,1,12,0.78,185.9,M,23.9,M,,*58
463: $GPGGA,150233.00,5347.28075,N,02847.61150,E,1,12,0.78,185.8,M,23.9,M,,*5D
464: $GPGGA,150234.00,5347.28593,N,02847.63749,E,1,12,0.78,186.0,M,23.9,M,,*50
465: $GPGGA,150235.00,5347.29104,N,02847.66335,E,1,12,0.78,185.9,M,23.9,M,,*5A
466: $GPGGA,150236.00,5347.29610,N,02847.68902,E,1,12,0.78,186.1,M,23.9,M,,*50
467: $GPGGA,150237.00,5347.30109,N,02847.71444,E,1,12,0.78,186.2,M,23.9,M,,*52
468: $GPGGA,150238.00,5347.30603,N,02847.73969,E,1,12,0.78,186.3,M,23.9,M,,*51
469: $GPGGA,150239.00,5347.31100,N,02847.76481,E,1,12,0.78,186.3,M,23.9,M,,*5B
470: $GPGGA,150240.00,5347.31599,N,02847.78984,E,1,12,0.78,186.2,M,23.9,M,,*56
471: $GPGGA,150241.00,5347.32095,N,02847.81471,E,1,12,0.78,186.0,M,23.9,M,,*5E
472: $GPGGA,150242.00,5347.32584,N,02847.83918,E,1,12,0.78,186.0,M,23.9,M,,*58
473: $GPGGA,150243.00,5347.33065,N,02847.86324,E,1,12,0.78,185.8,M,23.9,M,,*59
474: $GPGGA,150244.00,5347.33543,N,02847.88697,E,1,12,0.78,185.7,M,23.9,M,,*53
475: $GPGGA,150245.00,5347.34019,N,02847.91053,E,1,12,0.78,185.5,M,23.9,M,,*5B
476: $GPGGA,150246.00,5347.34491,N,02847.93395,E,1,12,0.78,185.3,M,23.9,M,,*51
477: $GPGGA,150247.00,5347.34959,N,02847.95723,E,1,12,0.78,185.5,M,23.9,M,,*50
478: $GPGGA,150248.00,5347.35429,N,02847.98050,E,1,12,0.78,185.4,M,23.9,M,,*5B
479: $GPGGA,150249.00,5347.35891,N,02848.00389,E,1,12,0.80,185.0,M,23.9,M,,*5F
480: $GPGGA,150250.00,5347.36337,N,02848.02730,E,1,12,0.81,184.8,M,23.9,M,,*5F
481: $GPGGA,150251.00,5347.36793,N,02848.05081,E,1,12,0.80,184.4,M,23.9,M,,*53
482: $GPGGA,150252.00,5347.37257,N,02848.07441,E,1,12,0.80,184.1,M,23.9,M,,*53
483: $GPGGA,150253.00,5347.37710,N,02848.09812,E,1,12,0.80,183.5,M,23.9,M,,*53
484: $GPGGA,150254.00,5347.38168,N,02848.12171,E,1,12,0.80,183.5,M,23.9,M,,*54
485: $GPGGA,150255.00,5347.38642,N,02848.14536,E,1,11,0.91,183.6,M,23.9,M,,*5B
486: $GPGGA,150256.00,5347.39125,N,02848.16923,E,1,11,0.91,183.5,M,23.9,M,,*56
487: $GPGGA,150257.00,5347.39594,N,02848.19330,E,1,11,0.91,182.7,M,23.9,M,,*5D
488: $GPGGA,150258.00,5347.40071,N,02848.21734,E,1,12,0.91,182.6,M,23.9,M,,*5B
489: $GPGGA,150259.00,5347.40551,N,02848.24156,E,1,12,0.91,182.4,M,23.9,M,,*58
490: $GPGGA,150300.00,5347.41035,N,02848.26589,E,1,10,0.93,182.3,M,23.9,M,,*50
491: $GPGGA,150301.00,5347.41523,N,02848.29045,E,1,10,0.93,182.0,M,23.9,M,,*5A
492: $GPGGA,150302.00,5347.42008,N,02848.31502,E,1,11,0.93,182.0,M,23.9,M,,*58
493: $GPGGA,150303.00,5347.42494,N,02848.33967,E,1,11,0.93,181.9,M,23.9,M,,*5F
494: $GPGGA,150304.00,5347.42972,N,02848.36436,E,1,10,0.95,181.4,M,23.9,M,,*5B
495: $GPGGA,150305.00,5347.43465,N,02848.38885,E,1,10,0.95,182.0,M,23.9,M,,*5D
496: $GPGGA,150306.00,5347.43945,N,02848.41330,E,1,10,0.95,181.9,M,23.9,M,,*50
497: $GPGGA,150307.00,5347.44435,N,02848.43763,E,1,11,0.95,182.6,M,23.9,M,,*51
498: $GPGGA,150308.00,5347.44924,N,02848.46204,E,1,11,0.95,183.1,M,23.9,M,,*54
499: $GPGGA,150309.00,5347.45422,N,02848.48637,E,1,10,0.95,183.8,M,23.9,M,,*5D
500: $GPGGA,150310.00,5347.45904,N,02848.51074,E,1,09,0.99,183.5,M,23.9,M,,*5C
501: $GPGGA,150311.00,5347.46392,N,02848.53499,E,1,10,0.99,183.7,M,23.9,M,,*54
502: $GPGGA,150312.00,5347.46883,N,02848.55925,E,1,09,0.99,183.8,M,23.9,M,,*57
503: $GPGGA,150313.00,5347.47370,N,02848.58361,E,1,10,0.99,184.0,M,23.9,M,,*50
504: $GPGGA,150314.00,5347.47854,N,02848.60803,E,1,11,0.99,183.9,M,23.9,M,,*51
505: $GPGGA,150315.00,5347.48337,N,02848.63257,E,1,10,0.99,183.6,M,23.9,M,,*57
506: $GPGGA,150316.00,5347.48824,N,02848.65720,E,1,10,0.99,183.2,M,23.9,M,,*5A
507: $GPGGA,150317.00,5347.49315,N,02848.68190,E,1,10,0.99,183.1,M,23.9,M,,*50
508: $GPGGA,150318.00,5347.49805,N,02848.70676,E,1,10,0.95,182.7,M,23.9,M,,*58
509: $GPGGA,150319.00,5347.50308,N,02848.73161,E,1,10,0.95,182.7,M,23.9,M,,*55
510: $GPGGA,150320.00,5347.50813,N,02848.75656,E,1,11,0.95,182.5,M,23.9,M,,*58
511: $GPGGA,150321.00,5347.51322,N,02848.78163,E,1,11,0.95,182.4,M,23.9,M,,*5C
512: $GPGGA,150322.00,5347.51829,N,02848.80680,E,1,11,0.95,182.3,M,23.9,M,,*55
513: $GPGGA,150323.00,5347.52325,N,02848.83203,E,1,12,0.89,181.9,M,23.9,M,,*5B
514: $GPGGA,150324.00,5347.52818,N,02848.85724,E,1,12,0.89,181.6,M,23.9,M,,*50
515: $GPGGA,150325.00,5347.53315,N,02848.88237,E,1,12,0.89,181.3,M,23.9,M,,*59
516: $GPGGA,150326.00,5347.53813,N,02848.90739,E,1,12,0.86,180.9,M,23.9,M,,*51
517: $GPGGA,150327.00,5347.54307,N,02848.93215,E,1,12,0.86,180.6,M,23.9,M,,*5E
518: $GPGGA,150328.00,5347.54795,N,02848.95658,E,1,12,0.86,180.4,M,23.9,M,,*57
519: $GPGGA,150329.00,5347.55278,N,02848.98068,E,1,12,0.78,179.9,M,23.9,M,,*53
520: $GPGGA,150330.00,5347.55756,N,02849.00448,E,1,12,0.78,179.5,M,23.9,M,,*58
521: $GPGGA,150331.00,5347.56225,N,02849.02812,E,1,12,0.78,179.3,M,23.9,M,,*5C
522: $GPGGA,150332.00,5347.56692,N,02849.05167,E,1,12,0.78,179.0,M,23.9,M,,*58
523: $GPGGA,150333.00,5347.57162,N,02849.07511,E,1,12,0.78,178.7,M,23.9,M,,*51
524: $GPGGA,150334.00,5347.57632,N,02849.09835,E,1,12,0.78,178.5,M,23.9,M,,*53
525: $GPGGA,150335.00,5347.58099,N,02849.12144,E,1,12,0.78,178.4,M,23.9,M,,*5E
526: $GPGGA,150336.00,5347.58562,N,02849.14433,E,1,12,0.78,178.2,M,23.9,M,,*59
527: $GPGGA,150337.00,5347.59019,N,02849.16703,E,1,12,0.78,178.0,M,23.9,M,,*50
528: $GPGGA,150338.00,5347.59470,N,02849.18961,E,1,12,0.78,178.0,M,23.9,M,,*50
529: $GPGGA,150339.00,5347.59921,N,02849.21211,E,1,12,0.78,177.9,M,23.9,M,,*58
530: $GPGGA,150340.00,5347.60370,N,02849.23448,E,1,12,0.78,177.9,M,23.9,M,,*5A
531: $GPGGA,150341.00,5347.60817,N,02849.25675,E,1,12,0.78,177.8,M,23.9,M,,*5A
532: $GPGGA,150342.00,5347.61258,N,02849.27889,E,1,12,0.78,177.6,M,23.9,M,,*58
533: $GPGGA,150343.00,5347.61695,N,02849.30080,E,1,12,0.78,177.4,M,23.9,M,,*59
534: $GPGGA,150344.00,5347.62130,N,02849.32250,E,1,12,0.78,177.3,M,23.9,M,,*5F
535: $GPGGA,150345.00,5347.62561,N,02849.34406,E,1,12,0.78,177.1,M,23.9,M,,*5F
536: $GPGGA,150346.00,5347.62992,N,02849.36561,E,1,12,0.78,176.9,M,23.9,M,,*57
537: $GPGGA,150347.00,5347.63421,N,02849.38718,E,1,12,0.78,176.8,M,23.9,M,,*51
538: $GPGGA,150348.00,5347.63850,N,02849.40878,E,1,12,0.78,176.7,M,23.9,M,,*5D
539: $GPGGA,150349.00,5347.64279,N,02849.43032,E,1,12,0.78,176.7,M,23.9,M,,*5F
540: $GPGGA,150350.00,5347.64702,N,02849.45153,E,1,12,0.78,176.6,M,23.9,M,,*5F
541: $GPGGA,150351.00,5347.65117,N,02849.47227,E,1,12,0.78,176.6,M,23.9,M,,*5F
542: $GPGGA,150352.00,5347.65514,N,02849.49243,E,1,12,0.78,176.5,M,23.9,M,,*54
543: $GPGGA,150353.00,5347.65893,N,02849.51184,E,1,12,0.78,176.2,M,23.9,M,,*51
544: $GPGGA,150354.00,5347.66264,N,02849.53080,E,1,12,0.78,176.1,M,23.9,M,,*53
545: $GPGGA,150355.00,5347.66628,N,02849.54941,E,1,12,0.78,176.0,M,23.9,M,,*5C
546: $GPGGA,150356.00,5347.66994,N,02849.56804,E,1,12,0.78,175.9,M,23.9,M,,*5F
547: $GPGGA,150357.00,5347.67362,N,02849.58684,E,1,12,0.78,175.8,M,23.9,M,,*55
548: $GPGGA,150358.00,5347.67735,N,02849.60591,E,1,12,0.78,175.7,M,23.9,M,,*5F
549: $GPGGA,150359.00,5347.68119,N,02849.62535,E,1,12,0.80,175.6,M,23.9,M,,*53
550: $GPGGA,150400.00,5347.68510,N,02849.64514,E,1,12,0.80,175.5,M,23.9,M,,*53
551: $GPGGA,150401.00,5347.68910,N,02849.66529,E,1,12,0.80,175.4,M,23.9,M,,*53
552: $GPGGA,150402.00,5347.69321,N,02849.68579,E,1,12,0.80,175.3,M,23.9,M,,*55
553: $GPGGA,150403.00,5347.69741,N,02849.70662,E,1,12,0.78,175.4,M,23.9,M,,*56
554: $GPGGA,150404.00,5347.70163,N,02849.72781,E,1,12,0.78,175.5,M,23.9,M,,*50
555: $GPGGA,150405.00,5347.70590,N,02849.74933,E,1,12,0.78,175.6,M,23.9,M,,*5B
556: $GPGGA,150406.00,5347.71019,N,02849.77118,E,1,12,0.78,175.8,M,23.9,M,,*51
557: $GPGGA,150407.00,5347.71456,N,02849.79332,E,1,12,0.78,175.8,M,23.9,M,,*5B
558: $GPGGA,150408.00,5347.71894,N,02849.81574,E,1,12,0.82,175.9,M,23.9,M,,*51
559: $GPGGA,150409.00,5347.72338,N,02849.83839,E,1,12,0.78,176.0,M,23.9,M,,*57
560: $GPGGA,150410.00,5347.72792,N,02849.86130,E,1,12,0.78,176.0,M,23.9,M,,*5E
561: $GPGGA,150411.00,5347.73255,N,02849.88444,E,1,12,0.78,176.1,M,23.9,M,,*59
562: $GPGGA,150412.00,5347.73716,N,02849.90781,E,1,12,0.80,176.2,M,23.9,M,,*5F
563: $GPGGA,150413.00,5347.74184,N,02849.93141,E,1,12,0.80,176.1,M,23.9,M,,*5E
564: $GPGGA,150414.00,5347.74659,N,02849.95523,E,1,12,0.80,176.0,M,23.9,M,,*59
565: $GPGGA,150415.00,5347.75136,N,02849.97927,E,1,12,0.80,175.9,M,23.9,M,,*57
566: $GPGGA,150416.00,5347.75620,N,02850.00349,E,1,12,0.80,176.1,M,23.9,M,,*5B
567: $GPGGA,150417.00,5347.76105,N,02850.02791,E,1,12,0.80,176.2,M,23.9,M,,*59
568: $GPGGA,150418.00,5347.76594,N,02850.05255,E,1,12,0.80,176.2,M,23.9,M,,*50
569: $GPGGA,150419.00,5347.77087,N,02850.07735,E,1,12,0.80,176.2,M,23.9,M,,*56
570: $GPGGA,150420.00,5347.77583,N,02850.10234,E,1,12,0.80,176.0,M,23.9,M,,*5D
571: $GPGGA,150421.00,5347.78087,N,02850.12753,E,1,12,0.80,175.9,M,23.9,M,,*5E
572: $GPGGA,150422.00,5347.78594,N,02850.15292,E,1,12,0.80,175.9,M,23.9,M,,*55
573: $GPGGA,150423.00,5347.79098,N,02850.17849,E,1,12,0.80,175.7,M,23.9,M,,*5C
574: $GPGGA,150424.00,5347.79604,N,02850.20424,E,1,12,0.80,175.4,M,23.9,M,,*58
575: $GPGGA,150425.00,5347.80117,N,02850.23021,E,1,12,0.80,175.0,M,23.9,M,,*5C
576: $GPGGA,150426.00,5347.80644,N,02850.25634,E,1,12,0.83,174.8,M,23.9,M,,*50
577: $GPGGA,150427.00,5347.81168,N,02850.28268,E,1,12,0.83,174.6,M,23.9,M,,*57
578: $GPGGA,150428.00,5347.81694,N,02850.30922,E,1,12,0.80,174.3,M,23.9,M,,*56
579: $GPGGA,150429.00,5347.82222,N,02850.33592,E,1,12,0.81,174.3,M,23.9,M,,*58
580: $GPGGA,150430.00,5347.82756,N,02850.36282,E,1,12,0.78,174.3,M,23.9,M,,*53
581: $GPGGA,150431.00,5347.83290,N,02850.38989,E,1,12,0.78,174.4,M,23.9,M,,*55
582: $GPGGA,150432.00,5347.83825,N,02850.41713,E,1,12,0.80,174.3,M,23.9,M,,*51
583: $GPGGA,150433.00,5347.84365,N,02850.44449,E,1,12,0.80,174.5,M,23.9,M,,*57
584: $GPGGA,150434.00,5347.84913,N,02850.47196,E,1,12,0.80,174.8,M,23.9,M,,*52
585: $GPGGA,150435.00,5347.85467,N,02850.49954,E,1,12,0.80,175.0,M,23.9,M,,*5D
586: $GPGGA,150436.00,5347.86023,N,02850.52716,E,1,12,0.80,175.5,M,23.9,M,,*5E
587: $GPGGA,150437.00,5347.86577,N,02850.55486,E,1,12,0.78,175.8,M,23.9,M,,*5C
588: $GPGGA,150438.00,5347.87130,N,02850.58264,E,1,12,0.78,176.1,M,23.9,M,,*58
589: $GPGGA,150439.00,5347.87681,N,02850.61045,E,1,12,0.78,176.7,M,23.9,M,,*59
590: $GPGGA,150440.00,5347.88232,N,02850.63828,E,1,12,0.80,176.9,M,23.9,M,,*5C
591: $GPGGA,150441.00,5347.88786,N,02850.66614,E,1,12,0.80,177.1,M,23.9,M,,*5A
592: $GPGGA,150442.00,5347.89343,N,02850.69405,E,1,12,0.80,177.3,M,23.9,M,,*5A
593: $GPGGA,150443.00,5347.89901,N,02850.72205,E,1,12,0.80,177.7,M,23.9,M,,*5F
594: $GPGGA,150444.00,5347.90456,N,02850.75003,E,1,12,0.80,178.0,M,23.9,M,,*54
595: $GPGGA,150445.00,5347.91014,N,02850.77794,E,1,12,0.80,178.2,M,23.9,M,,*5F
596: $GPGGA,150446.00,5347.91565,N,02850.80575,E,1,12,0.80,178.3,M,23.9,M,,*5B
597: $GPGGA,150447.00,5347.92111,N,02850.83340,E,1,12,0.80,178.5,M,23.9,M,,*5B
598: $GPGGA,150448.00,5347.92648,N,02850.86092,E,1,12,0.80,178.6,M,23.9,M,,*55
599: $GPGGA,150449.00,5347.93183,N,02850.88832,E,1,12,0.80,178.6,M,23.9,M,,*59
