0: $GPRMC,145450.00,A,5344.80324,N,02835.18360,E,62.133,70.31,241015,,,A*67
1: $GPRMC,145451.00,A,5344.80900,N,02835.21114,E,62.495,70.69,241015,,,A*65
2: $GPRMC,145452.00,A,5344.81460,N,02835.23863,E,62.136,71.19,241015,,,A*6D
3: $GPRMC,145453.00,A,5344.82018,N,02835.26620,E,62.281,71.14,241015,,,A*6A
4: $GPRMC,145454.00,A,5344.82580,N,02835.29383,E,62.509,71.02,241015,,,A*6A
5: $GPRMC,145455.00,A,5344.83150,N,02835.32156,E,62.878,70.92,241015,,,A*60
6: $GPRMC,145456.00,A,5344.83719,N,02835.34951,E,63.243,71.17,241015,,,A*6E
7: $GPRMC,145457.00,A,5344.84291,N,02835.37744,E,62.990,71.06,241015,,,A*60
8: $GPRMC,145458.00,A,5344.84858,N,02835.40545,E,63.209,71.16,241015,,,A*68
9: $GPRMC,145459.00,A,5344.85424,N,02835.43357,E,63.544,71.29,241015,,,A*6B
10: $GPRMC,145500.00,A,5344.85985,N,02835.46183,E,63.755,71.55,241015,,,A*67
11: $GPRMC,145501.00,A,5344.86547,N,02835.49015,E,63.735,71.43,241015,,,A*67
12: $GPRMC,145502.00,A,5344.87112,N,02835.51849,E,63.821,71.37,241015,,,A*60
13: $GPRMC,145503.00,A,5344.87678,N,02835.54686,E,63.969,71.37,241015,,,A*6F
14: $GPRMC,145504.00,A,5344.88247,N,02835.57556,E,64.602,71.47,241015,,,A*60
15: $GPRMC,145505.00,A,5344.88810,N,02835.60445,E,64.858,71.82,241015,,,A*66
16: $GPRMC,145506.00,A,5344.89380,N,02835.63329,E,64.892,71.47,241015,,,A*67
17: $GPRMC,145507.00,A,5344.89964,N,02835.66219,E,65.311,71.09,241015,,,A*6A
18: $GPRMC,145508.00,A,5344.90550,N,02835.69127,E,65.841,71.25,241015,,,A*67
19: $GPRMC,145509.00,A,5344.91135,N,02835.72053,E,66.163,71.35,241015,,,A*63
20: $GPRMC,145510.00,A,5344.91725,N,02835.74992,E,66.265,71.29,241015,,,A*66
21: $GPRMC,145511.00,A,5344.92318,N,02835.77930,E,66.232,71.20,241015,,,A*6E
22: $GPRMC,145512.00,A,5344.92910,N,02835.80870,E,66.310,71.26,241015,,,A*65
23: $GPRMC,145513.00,A,5344.93496,N,02835.83811,E,66.513,71.47,241015,,,A*60
24: $GPRMC,145514.00,A,5344.94090,N,02835.86787,E,66.991,71.37,241015,,,A*66
25: $GPRMC,145515.00,A,5344.94681,N,02835.89742,E,66.607,71.41,241015,,,A*66
26: $GPRMC,145516.00,A,5344.95255,N,02835.92705,E,66.488,72.03,241015,,,A*60
27: $GPRMC,145517.00,A,5344.95806,N,02835.95678,E,66.812,72.66,241015,,,A*6D
28: $GPRMC,145518.00,A,5344.96350,N,02835.98647,E,66.606,72.71,241015,,,A*65
29: $GPRMC,145519.00,A,5344.96906,N,02836.01610,E,66.158,72.22,241015,,,A*66
30: $GPRMC,145520.00,A,5344.97467,N,02836.04547,E,65.475,72.02,241015,,,A*68
31: $GPRMC,145521.00,A,5344.98048,N,02836.07500,E,66.495,71.33,241015,,,A*63
32: $GPRMC,145522.00,A,5344.98638,N,02836.10430,E,66.590,71.16,241015,,,A*66
33: $GPRMC,145523.00,A,5344.99228,N,02836.13366,E,66.214,71.14,241015,,,A*6D
34: $GPRMC,145524.00,A,5344.99817,N,02836.16321,E,66.406,71.41,241015,,,A*6F
35: $GPRMC,145525.00,A,5345.00408,N,02836.19278,E,66.779,71.22,241015,,,A*61
36: $GPRMC,145526.00,A,5345.01003,N,02836.22238,E,67.085,71.25,241015,,,A*62
37: $GPRMC,145527.00,A,5345.01598,N,02836.25188,E,66.789,71.20,241015,,,A*64
38: $GPRMC,145528.00,A,5345.02197,N,02836.28131,E,66.332,71.10,241015,,,A*6B
39: $GPRMC,145529.00,A,5345.02797,N,02836.31103,E,66.845,71.15,241015,,,A*6B
40: $GPRMC,145530.00,A,5345.03391,N,02836.34056,E,66.979,71.30,241015,,,A*6D
41: $GPRMC,145531.00,A,5345.03985,N,02836.37017,E,67.071,71.24,241015,,,A*60
42: $GPRMC,145532.00,A,5345.04575,N,02836.39957,E,66.086,71.31,241015,,,A*69
43: $GPRMC,145533.00,A,5345.05167,N,02836.42908,E,65.828,71.30,241015,,,A*66
44: $GPRMC,145534.00,A,5345.05763,N,02836.45886,E,66.748,71.29,241015,,,A*61
45: $GPRMC,145535.00,A,5345.06355,N,02836.48866,E,67.267,71.51,241015,,,A*67
46: $GPRMC,145536.00,A,5345.06944,N,02836.51853,E,67.044,71.64,241015,,,A*65
47: $GPRMC,145537.00,A,5345.07533,N,02836.54827,E,66.638,71.51,241015,,,A*65
48: $GPRMC,145538.00,A,5345.08122,N,02836.57771,E,66.488,71.38,241015,,,A*68
49: $GPRMC,145539.00,A,5345.08709,N,02836.60699,E,66.348,71.45,241015,,,A*64
50: $GPRMC,145540.00,A,5345.09297,N,02836.63622,E,66.173,71.38,241015,,,A*6A
51: $GPRMC,145541.00,A,5345.09885,N,02836.66537,E,65.825,71.30,241015,,,A*61
52: $GPRMC,145542.00,A,5345.10474,N,02836.69453,E,65.788,71.29,241015,,,A*64
53: $GPRMC,145543.00,A,5345.11058,N,02836.72346,E,65.644,71.49,241015,,,A*60
54: $GPRMC,145544.00,A,5345.11642,N,02836.75258,E,65.939,71.31,241015,,,A*69
55: $GPRMC,145545.00,A,5345.12236,N,02836.78158,E,65.528,71.01,241015,,,A*6D
56: $GPRMC,145546.00,A,5345.12830,N,02836.81079,E,65.704,71.24,241015,,,A*6D
57: $GPRMC,145547.00,A,5345.13415,N,02836.83985,E,65.734,71.32,241015,,,A*6A
58: $GPRMC,145548.00,A,5345.14000,N,02836.86911,E,66.174,71.37,241015,,,A*6E
59: $GPRMC,145549.00,A,5345.14588,N,02836.89830,E,66.145,71.27,241015,,,A*64
60: $GPRMC,145550.00,A,5345.15181,N,02836.92772,E,66.065,71.30,241015,,,A*66
61: $GPRMC,145551.00,A,5345.15773,N,02836.95713,E,66.154,71.23,241015,,,A*6D
62: $GPRMC,145552.00,A,5345.16364,N,02836.98652,E,66.286,71.23,241015,,,A*6A
63: $GPRMC,145553.00,A,5345.16949,N,02837.01603,E,66.607,71.57,241015,,,A*65
64: $GPRMC,145554.00,A,5345.17529,N,02837.04535,E,66.287,71.63,241015,,,A*61
65: $GPRMC,145555.00,A,5345.18105,N,02837.07459,E,65.973,71.62,241015,,,A*6F
66: $GPRMC,145556.00,A,5345.18696,N,02837.10418,E,66.641,71.33,241015,,,A*6B
67: $GPRMC,145557.00,A,5345.19287,N,02837.13352,E,66.469,71.28,241015,,,A*67
68: $GPRMC,145558.00,A,5345.19872,N,02837.16265,E,65.514,71.29,241015,,,A*61
69: $GPRMC,145559.00,A,5345.20440,N,02837.19114,E,64.091,71.42,241015,,,A*69
70: $GPRMC,145600.00,A,5345.21002,N,02837.21925,E,63.253,71.25,241015,,,A*6E
71: $GPRMC,145601.00,A,5345.21558,N,02837.24691,E,62.265,71.23,241015,,,A*62
72: $GPRMC,145602.00,A,5345.22101,N,02837.27392,E,60.873,71.29,241015,,,A*6A
73: $GPRMC,145603.00,A,5345.22636,N,02837.30074,E,60.072,71.41,241015,,,A*62
74: $GPRMC,145604.00,A,5345.23159,N,02837.32734,E,59.583,71.63,241015,,,A*6A
75: $GPRMC,145605.00,A,5345.23679,N,02837.35365,E,59.306,71.49,241015,,,A*6A
76: $GPRMC,145606.00,A,5345.24196,N,02837.37980,E,58.840,71.43,241015,,,A*69
77: $GPRMC,145607.00,A,5345.24707,N,02837.40538,E,57.193,71.41,241015,,,A*63
78: $GPRMC,145608.00,A,5345.25207,N,02837.43064,E,56.180,71.59,241015,,,A*6D
79: $GPRMC,145609.00,A,5345.25700,N,02837.45575,E,56.161,71.65,241015,,,A*6D
80: $GPRMC,145610.00,A,5345.26193,N,02837.48060,E,56.056,71.34,241015,,,A*67
81: $GPRMC,145611.00,A,5345.26690,N,02837.50551,E,56.051,71.37,241015,,,A*68
82: $GPRMC,145612.00,A,5345.27190,N,02837.53027,E,55.583,71.03,241015,,,A*64
83: $GPRMC,145613.00,A,5345.27692,N,02837.55503,E,55.877,71.00,241015,,,A*60
84: $GPRMC,145614.00,A,5345.28193,N,02837.57974,E,56.053,71.09,241015,,,A*64
85: $GPRMC,145615.00,A,5345.28696,N,02837.60464,E,56.503,71.12,241015,,,A*65
86: $GPRMC,145616.00,A,5345.29200,N,02837.62960,E,56.235,71.17,241015,,,A*60
87: $GPRMC,145617.00,A,5345.29699,N,02837.65461,E,56.202,71.37,241015,,,A*68
88: $GPRMC,145618.00,A,5345.30198,N,02837.67976,E,56.792,71.41,241015,,,A*6D
89: $GPRMC,145619.00,A,5345.30701,N,02837.70531,E,57.669,71.51,241015,,,A*66
90: $GPRMC,145620.00,A,5345.31211,N,02837.73075,E,57.423,71.26,241015,,,A*63
91: $GPRMC,145621.00,A,5345.31727,N,02837.75632,E,57.513,71.13,241015,,,A*65
92: $GPRMC,145622.00,A,5345.32250,N,02837.78203,E,58.168,71.05,241015,,,A*6B
93: $GPRMC,145623.00,A,5345.32774,N,02837.80829,E,59.235,71.30,241015,,,A*60
94: $GPRMC,145624.00,A,5345.33299,N,02837.83471,E,59.752,71.39,241015,,,A*6F
95: $GPRMC,145625.00,A,5345.33833,N,02837.86139,E,59.822,71.32,241015,,,A*6B
96: $GPRMC,145626.00,A,5345.34368,N,02837.88823,E,60.054,71.41,241015,,,A*61
97: $GPRMC,145627.00,A,5345.34906,N,02837.91512,E,60.933,71.21,241015,,,A*6B
98: $GPRMC,145628.00,A,5345.35444,N,02837.94211,E,61.387,71.38,241015,,,A*63
99: $GPRMC,145629.00,A,5345.35991,N,02837.96940,E,61.272,71.24,241015,,,A*6C
100: $GPRMC,145630.00,A,5345.36540,N,02837.99670,E,60.930,71.17,241015,,,A*68
101: $GPRMC,145631.00,A,5345.37088,N,02838.02390,E,61.246,71.18,241015,,,A*6B
102: $GPRMC,145632.00,A,5345.37636,N,02838.05107,E,61.561,71.14,241015,,,A*6E
103: $GPRMC,145633.00,A,5345.38181,N,02838.07833,E,61.415,71.38,241015,,,A*6B
104: $GPRMC,145634.00,A,5345.38725,N,02838.10577,E,61.104,71.52,241015,,,A*66
105: $GPRMC,145635.00,A,5345.39259,N,02838.13314,E,60.984,71.71,241015,,,A*68
106: $GPRMC,145636.00,A,5345.39798,N,02838.16034,E,61.066,71.39,241015,,,A*6F
107: $GPRMC,145637.00,A,5345.40334,N,02838.18741,E,60.913,71.45,241015,,,A*68
108: $GPRMC,145638.00,A,5345.40873,N,02838.21464,E,60.441,71.45,241015,,,A*6B
109: $GPRMC,145639.00,A,5345.41411,N,02838.24166,E,60.289,71.34,241015,,,A*65
110: $GPRMC,145640.00,A,5345.41950,N,02838.26848,E,60.347,71.21,241015,,,A*63
111: $GPRMC,145641.00,A,5345.42486,N,02838.29518,E,60.154,71.26,241015,,,A*67
112: $GPRMC,145642.00,A,5345.43022,N,02838.32198,E,60.205,71.36,241015,,,A*6F
113: $GPRMC,145643.00,A,5345.43556,N,02838.34866,E,60.037,71.22,241015,,,A*60
114: $GPRMC,145644.00,A,5345.44083,N,02838.37504,E,59.568,71.37,241015,,,A*66
115: $GPRMC,145645.00,A,5345.44616,N,02838.40161,E,60.164,71.28,241015,,,A*66
116: $GPRMC,145646.00,A,5345.45146,N,02838.42827,E,60.272,71.51,241015,,,A*65
117: $GPRMC,145647.00,A,5345.45681,N,02838.45508,E,60.227,71.29,241015,,,A*60
118: $GPRMC,145648.00,A,5345.46219,N,02838.48187,E,60.089,71.19,241015,,,A*62
119: $GPRMC,145649.00,A,5345.46755,N,02838.50872,E,60.512,71.31,241015,,,A*69
120: $GPRMC,145650.00,A,5345.47294,N,02838.53540,E,60.558,71.13,241015,,,A*69
121: $GPRMC,145651.00,A,5345.47827,N,02838.56218,E,60.259,71.46,241015,,,A*63
122: $GPRMC,145652.00,A,5345.48360,N,02838.58901,E,60.151,71.37,241015,,,A*67
123: $GPRMC,145653.00,A,5345.48896,N,02838.61591,E,60.516,71.31,241015,,,A*6A
124: $GPRMC,145654.00,A,5345.49430,N,02838.64302,E,61.049,71.48,241015,,,A*65
125: $GPRMC,145655.00,A,5345.49965,N,02838.67035,E,61.101,71.58,241015,,,A*61
126: $GPRMC,145656.00,A,5345.50500,N,02838.69759,E,60.691,71.54,241015,,,A*65
127: $GPRMC,145657.00,A,5345.51037,N,02838.72484,E,60.630,71.41,241015,,,A*62
128: $GPRMC,145658.00,A,5345.51576,N,02838.75171,E,60.553,71.11,241015,,,A*66
129: $GPRMC,145659.00,A,5345.52116,N,02838.77842,E,60.498,71.14,241015,,,A*6E
130: $GPRMC,145700.00,A,5345.52650,N,02838.80523,E,60.030,71.41,241015,,,A*62
131: $GPRMC,145701.00,A,5345.53176,N,02838.83178,E,59.409,71.53,241015,,,A*6F
132: $GPRMC,145702.00,A,5345.53706,N,02838.85829,E,59.858,71.31,241015,,,A*6A
133: $GPRMC,145703.00,A,5345.54228,N,02838.88479,E,59.875,71.69,241015,,,A*63
134: $GPRMC,145704.00,A,5345.54741,N,02838.91086,E,58.294,71.61,241015,,,A*6E
135: $GPRMC,145705.00,A,5345.55243,N,02838.93655,E,57.170,71.65,241015,,,A*61
136: $GPRMC,145706.00,A,5345.55732,N,02838.96156,E,55.854,71.62,241015,,,A*6A
137: $GPRMC,145707.00,A,5345.56209,N,02838.98599,E,54.781,71.60,241015,,,A*68
138: $GPRMC,145708.00,A,5345.56675,N,02839.00957,E,53.237,71.56,241015,,,A*6C
139: $GPRMC,145709.00,A,5345.57132,N,02839.03270,E,51.789,71.50,241015,,,A*61
140: $GPRMC,145710.00,A,5345.57579,N,02839.05533,E,50.546,71.44,241015,,,A*61
141: $GPRMC,145711.00,A,5345.58024,N,02839.07742,E,49.905,71.21,241015,,,A*64
142: $GPRMC,145712.00,A,5345.58469,N,02839.09934,E,49.594,70.97,241015,,,A*63
143: $GPRMC,145713.00,A,5345.58909,N,02839.12103,E,48.764,71.06,241015,,,A*6A
144: $GPRMC,145714.00,A,5345.59338,N,02839.14244,E,47.970,71.29,241015,,,A*6B
145: $GPRMC,145715.00,A,5345.59761,N,02839.16364,E,47.730,71.34,241015,,,A*65
146: $GPRMC,145716.00,A,5345.60182,N,02839.18468,E,47.275,71.41,241015,,,A*64
147: $GPRMC,145717.00,A,5345.60596,N,02839.20564,E,46.716,71.68,241015,,,A*68
148: $GPRMC,145718.00,A,5345.61009,N,02839.22626,E,46.057,71.39,241015,,,A*64
149: $GPRMC,145719.00,A,5345.61417,N,02839.24665,E,45.569,71.54,241015,,,A*6F
150: $GPRMC,145720.00,A,5345.61821,N,02839.26683,E,45.291,71.57,241015,,,A*65
151: $GPRMC,145721.00,A,5345.62221,N,02839.28687,E,45.033,71.67,241015,,,A*6E
152: $GPRMC,145722.00,A,5345.62616,N,02839.30677,E,44.612,71.73,241015,,,A*6A
153: $GPRMC,145723.00,A,5345.63008,N,02839.32658,E,44.513,71.69,241015,,,A*65
154: $GPRMC,145724.00,A,5345.63407,N,02839.34656,E,45.066,71.43,241015,,,A*6F
155: $GPRMC,145725.00,A,5345.63815,N,02839.36670,E,45.677,71.22,241015,,,A*66
156: $GPRMC,145726.00,A,5345.64229,N,02839.38714,E,46.179,71.35,241015,,,A*66
157: $GPRMC,145727.00,A,5345.64641,N,02839.40788,E,46.705,71.61,241015,,,A*6B
158: $GPRMC,145728.00,A,5345.65057,N,02839.42894,E,47.440,71.62,241015,,,A*64
159: $GPRMC,145729.00,A,5345.65484,N,02839.45025,E,48.155,71.49,241015,,,A*6D
160: $GPRMC,145730.00,A,5345.65921,N,02839.47181,E,48.668,71.24,241015,,,A*68
161: $GPRMC,145731.00,A,5345.66365,N,02839.49367,E,49.332,71.30,241015,,,A*6A
162: $GPRMC,145732.00,A,5345.66813,N,02839.51578,E,50.035,71.21,241015,,,A*6E
163: $GPRMC,145733.00,A,5345.67268,N,02839.53816,E,50.628,71.23,241015,,,A*67
164: $GPRMC,145734.00,A,5345.67728,N,02839.56069,E,50.973,71.14,241015,,,A*61
165: $GPRMC,145735.00,A,5345.68189,N,02839.58333,E,51.153,71.19,241015,,,A*66
166: $GPRMC,145736.00,A,5345.68652,N,02839.60611,E,51.404,71.29,241015,,,A*6E
167: $GPRMC,145737.00,A,5345.69113,N,02839.62897,E,51.647,71.30,241015,,,A*63
168: $GPRMC,145738.00,A,5345.69582,N,02839.65193,E,51.896,71.16,241015,,,A*6C
169: $GPRMC,145739.00,A,5345.70054,N,02839.67500,E,52.099,71.13,241015,,,A*66
170: $GPRMC,145740.00,A,5345.70519,N,02839.69829,E,52.561,71.58,241015,,,A*61
171: $GPRMC,145741.00,A,5345.70982,N,02839.72179,E,53.060,71.78,241015,,,A*6F
172: $GPRMC,145742.00,A,5345.71449,N,02839.74547,E,53.453,71.76,241015,,,A*62
173: $GPRMC,145743.00,A,5345.71919,N,02839.76924,E,53.539,71.61,241015,,,A*6B
174: $GPRMC,145744.00,A,5345.72389,N,02839.79305,E,53.677,71.65,241015,,,A*67
175: $GPRMC,145745.00,A,5345.72857,N,02839.81693,E,53.956,71.77,241015,,,A*6C
176: $GPRMC,145746.00,A,5345.73324,N,02839.84092,E,54.140,71.95,241015,,,A*67
177: $GPRMC,145747.00,A,5345.73799,N,02839.86496,E,54.173,71.58,241015,,,A*67
178: $GPRMC,145748.00,A,5345.74282,N,02839.88906,E,54.403,71.33,241015,,,A*65
179: $GPRMC,145749.00,A,5345.74764,N,02839.91326,E,54.561,71.52,241015,,,A*6B
180: $GPRMC,145750.00,A,5345.75247,N,02839.93751,E,54.761,71.43,241015,,,A*62
181: $GPRMC,145751.00,A,5345.75719,N,02839.96188,E,54.852,72.15,241015,,,A*65
182: $GPRMC,145752.00,A,5345.76174,N,02839.98630,E,54.912,72.77,241015,,,A*63
183: $GPRMC,145753.00,A,5345.76617,N,02840.01091,E,55.149,73.20,241015,,,A*67
184: $GPRMC,145754.00,A,5345.77050,N,02840.03573,E,55.534,73.62,241015,,,A*67
185: $GPRMC,145755.00,A,5345.77477,N,02840.06086,E,55.999,74.04,241015,,,A*61
186: $GPRMC,145756.00,A,5345.77894,N,02840.08617,E,56.193,74.49,241015,,,A*6B
187: $GPRMC,145757.00,A,5345.78308,N,02840.11168,E,56.635,74.70,241015,,,A*6D
188: $GPRMC,145758.00,A,5345.78716,N,02840.13736,E,56.855,74.95,241015,,,A*65
189: $GPRMC,145759.00,A,5345.79121,N,02840.16302,E,56.740,75.04,241015,,,A*63
190: $GPRMC,145800.00,A,5345.79523,N,02840.18852,E,56.248,75.15,241015,,,A*6B
191: $GPRMC,145801.00,A,5345.79912,N,02840.21373,E,55.398,75.41,241015,,,A*68
192: $GPRMC,145802.00,A,5345.80288,N,02840.23859,E,54.562,75.82,241015,,,A*69
193: $GPRMC,145803.00,A,5345.80645,N,02840.26317,E,53.856,76.37,241015,,,A*69
194: $GPRMC,145804.00,A,5345.80993,N,02840.28761,E,53.653,76.54,241015,,,A*6F
195: $GPRMC,145805.00,A,5345.81336,N,02840.31195,E,53.335,76.58,241015,,,A*66
196: $GPRMC,145806.00,A,5345.81675,N,02840.33622,E,53.188,76.71,241015,,,A*61
197: $GPRMC,145807.00,A,5345.82020,N,02840.36048,E,53.299,76.41,241015,,,A*6A
198: $GPRMC,145808.00,A,5345.82375,N,02840.38469,E,53.262,75.97,241015,,,A*63
199: $GPRMC,145809.00,A,5345.82746,N,02840.40885,E,53.342,75.23,241015,,,A*6B
200: $GPRMC,145810.00,A,5345.83131,N,02840.43295,E,53.326,74.63,241015,,,A*6B
201: $GPRMC,145811.00,A,5345.83535,N,02840.45700,E,53.520,73.93,241015,,,A*6D
202: $GPRMC,145812.00,A,5345.83949,N,02840.48107,E,53.694,73.62,241015,,,A*67
203: $GPRMC,145813.00,A,5345.84375,N,02840.50520,E,53.891,73.23,241015,,,A*62
204: $GPRMC,145814.00,A,5345.84808,N,02840.52934,E,54.003,72.96,241015,,,A*64
205: $GPRMC,145815.00,A,5345.85251,N,02840.55351,E,54.216,72.58,241015,,,A*68
206: $GPRMC,145816.00,A,5345.85710,N,02840.57768,E,54.323,72.18,241015,,,A*64
207: $GPRMC,145817.00,A,5345.86171,N,02840.60184,E,54.273,72.03,241015,,,A*69
208: $GPRMC,145818.00,A,5345.86637,N,02840.62598,E,54.144,71.93,241015,,,A*65
209: $GPRMC,145819.00,A,5345.87102,N,02840.65010,E,54.135,71.95,241015,,,A*66
210: $GPRMC,145820.00,A,5345.87583,N,02840.67404,E,54.021,71.07,241015,,,A*6D
211: $GPRMC,145821.00,A,5345.88080,N,02840.69771,E,53.564,70.41,241015,,,A*6A
212: $GPRMC,145822.00,A,5345.88587,N,02840.72087,E,52.450,69.73,241015,,,A*61
213: $GPRMC,145823.00,A,5345.89097,N,02840.74359,E,51.487,69.10,241015,,,A*6F
214: $GPRMC,145824.00,A,5345.89606,N,02840.76588,E,51.052,68.82,241015,,,A*68
215: $GPRMC,145825.00,A,5345.90119,N,02840.78809,E,51.351,68.51,241015,,,A*6C
216: $GPRMC,145826.00,A,5345.90642,N,02840.81050,E,51.747,68.10,241015,,,A*62
217: $GPRMC,145827.00,A,5345.91195,N,02840.83302,E,52.289,67.21,241015,,,A*60
218: $GPRMC,145828.00,A,5345.91760,N,02840.85559,E,52.631,66.82,241015,,,A*62
219: $GPRMC,145829.00,A,5345.92329,N,02840.87852,E,53.465,67.20,241015,,,A*66
220: $GPRMC,145830.00,A,5345.92895,N,02840.90186,E,54.036,67.70,241015,,,A*64
221: $GPRMC,145831.00,A,5345.93464,N,02840.92551,E,54.734,67.79,241015,,,A*66
222: $GPRMC,145832.00,A,5345.94037,N,02840.94940,E,55.147,67.89,241015,,,A*66
223: $GPRMC,145833.00,A,5345.94613,N,02840.97361,E,55.973,68.15,241015,,,A*68
224: $GPRMC,145834.00,A,5345.95189,N,02840.99815,E,56.618,68.42,241015,,,A*6F
225: $GPRMC,145835.00,A,5345.95767,N,02841.02292,E,56.890,68.65,241015,,,A*65
226: $GPRMC,145836.00,A,5345.96349,N,02841.04778,E,57.127,68.41,241015,,,A*68
227: $GPRMC,145837.00,A,5345.96937,N,02841.07275,E,57.603,68.34,241015,,,A*62
228: $GPRMC,145838.00,A,5345.97531,N,02841.09787,E,57.845,68.29,241015,,,A*60
229: $GPRMC,145839.00,A,5345.98130,N,02841.12313,E,57.988,68.25,241015,,,A*64
230: $GPRMC,145840.00,A,5345.98730,N,02841.14848,E,58.161,68.29,241015,,,A*63
231: $GPRMC,145841.00,A,5345.99327,N,02841.17390,E,58.395,68.48,241015,,,A*62
232: $GPRMC,145842.00,A,5345.99923,N,02841.19944,E,58.731,68.65,241015,,,A*67
233: $GPRMC,145843.00,A,5346.00514,N,02841.22513,E,59.036,68.88,241015,,,A*69
234: $GPRMC,145844.00,A,5346.01105,N,02841.25090,E,59.110,68.83,241015,,,A*6C
235: $GPRMC,145845.00,A,5346.01703,N,02841.27676,E,59.415,68.64,241015,,,A*68
236: $GPRMC,145846.00,A,5346.02308,N,02841.30271,E,59.971,68.50,241015,,,A*6A
237: $GPRMC,145847.00,A,5346.02918,N,02841.32873,E,60.040,68.52,241015,,,A*69
238: $GPRMC,145848.00,A,5346.03524,N,02841.35495,E,60.133,68.90,241015,,,A*6C
239: $GPRMC,145849.00,A,5346.04115,N,02841.38141,E,60.540,69.55,241015,,,A*65
240: $GPRMC,145850.00,A,5346.04688,N,02841.40804,E,60.691,70.23,241015,,,A*6F
241: $GPRMC,145851.00,A,5346.05245,N,02841.43483,E,60.751,70.90,241015,,,A*6F
242: $GPRMC,145852.00,A,5346.05791,N,02841.46171,E,60.708,71.21,241015,,,A*6A
243: $GPRMC,145853.00,A,5346.06331,N,02841.48855,E,60.543,71.33,241015,,,A*69
244: $GPRMC,145854.00,A,5346.06867,N,02841.51530,E,60.334,71.34,241015,,,A*61
245: $GPRMC,145855.00,A,5346.07402,N,02841.54183,E,59.884,71.31,241015,,,A*68
246: $GPRMC,145856.00,A,5346.07933,N,02841.56824,E,59.473,71.39,241015,,,A*6E
247: $GPRMC,145857.00,A,5346.08459,N,02841.59450,E,59.099,71.39,241015,,,A*61
248: $GPRMC,145858.00,A,5346.08980,N,02841.62058,E,58.815,71.46,241015,,,A*66
249: $GPRMC,145859.00,A,5346.09501,N,02841.64663,E,58.649,71.46,241015,,,A*6C
250: $GPRMC,145900.00,A,5346.10017,N,02841.67249,E,58.296,71.40,241015,,,A*64
251: $GPRMC,145901.00,A,5346.10532,N,02841.69822,E,58.199,71.38,241015,,,A*6D
252: $GPRMC,145902.00,A,5346.11048,N,02841.72403,E,58.257,71.49,241015,,,A*65
253: $GPRMC,145903.00,A,5346.11565,N,02841.74987,E,58.316,71.48,241015,,,A*6C
254: $GPRMC,145904.00,A,5346.12083,N,02841.77571,E,58.253,71.37,241015,,,A*6B
255: $GPRMC,145905.00,A,5346.12600,N,02841.80153,E,58.175,71.39,241015,,,A*62
256: $GPRMC,145906.00,A,5346.13118,N,02841.82730,E,58.101,71.37,241015,,,A*62
257: $GPRMC,145907.00,A,5346.13635,N,02841.85303,E,58.036,71.42,241015,,,A*6F
258: $GPRMC,145908.00,A,5346.14154,N,02841.87868,E,57.907,71.24,241015,,,A*67
259: $GPRMC,145909.00,A,5346.14676,N,02841.90435,E,58.033,71.16,241015,,,A*63
260: $GPRMC,145910.00,A,5346.15200,N,02841.93006,E,58.144,71.14,241015,,,A*6B
261: $GPRMC,145911.00,A,5346.15722,N,02841.95585,E,58.257,71.22,241015,,,A*63
262: $GPRMC,145912.00,A,5346.16242,N,02841.98174,E,58.510,71.44,241015,,,A*63
263: $GPRMC,145913.00,A,5346.16750,N,02842.00782,E,58.666,71.97,241015,,,A*65
264: $GPRMC,145914.00,A,5346.17247,N,02842.03403,E,58.881,72.42,241015,,,A*65
265: $GPRMC,145915.00,A,5346.17727,N,02842.06043,E,59.049,73.07,241015,,,A*6F
266: $GPRMC,145916.00,A,5346.18204,N,02842.08694,E,59.181,73.17,241015,,,A*61
267: $GPRMC,145917.00,A,5346.18700,N,02842.11336,E,59.266,72.23,241015,,,A*68
268: $GPRMC,145918.00,A,5346.19211,N,02842.13976,E,59.394,71.87,241015,,,A*6E
269: $GPRMC,145919.00,A,5346.19732,N,02842.16616,E,59.514,71.45,241015,,,A*67
270: $GPRMC,145920.00,A,5346.20264,N,02842.19261,E,59.768,71.38,241015,,,A*69
271: $GPRMC,145921.00,A,5346.20793,N,02842.21913,E,59.836,71.54,241015,,,A*6E
272: $GPRMC,145922.00,A,5346.21321,N,02842.24576,E,60.016,71.62,241015,,,A*6E
273: $GPRMC,145923.00,A,5346.21850,N,02842.27250,E,60.370,71.52,241015,,,A*62
274: $GPRMC,145924.00,A,5346.22383,N,02842.29936,E,60.662,71.57,241015,,,A*65
275: $GPRMC,145925.00,A,5346.22919,N,02842.32637,E,61.021,71.61,241015,,,A*6C
276: $GPRMC,145926.00,A,5346.23462,N,02842.35356,E,61.388,71.36,241015,,,A*68
277: $GPRMC,145927.00,A,5346.24018,N,02842.38090,E,61.805,70.98,241015,,,A*68
278: $GPRMC,145928.00,A,5346.24575,N,02842.40842,E,62.259,71.12,241015,,,A*62
279: $GPRMC,145929.00,A,5346.25133,N,02842.43618,E,62.616,71.27,241015,,,A*6F
280: $GPRMC,145930.00,A,5346.25694,N,02842.46405,E,62.980,71.16,241015,,,A*64
281: $GPRMC,145931.00,A,5346.26262,N,02842.49206,E,63.371,71.01,241015,,,A*62
282: $GPRMC,145932.00,A,5346.26828,N,02842.52025,E,63.687,71.37,241015,,,A*65
283: $GPRMC,145933.00,A,5346.27389,N,02842.54865,E,64.018,71.62,241015,,,A*68
284: $GPRMC,145934.00,A,5346.27950,N,02842.57718,E,64.252,71.66,241015,,,A*6F
285: $GPRMC,145935.00,A,5346.28513,N,02842.60582,E,64.411,71.68,241015,,,A*60
286: $GPRMC,145936.00,A,5346.29078,N,02842.63445,E,64.429,71.57,241015,,,A*64
287: $GPRMC,145937.00,A,5346.29648,N,02842.66312,E,64.715,71.35,241015,,,A*68
288: $GPRMC,145938.00,A,5346.30232,N,02842.69190,E,65.148,70.99,241015,,,A*69
289: $GPRMC,145939.00,A,5346.30816,N,02842.72076,E,65.191,71.18,241015,,,A*6B
290: $GPRMC,145940.00,A,5346.31396,N,02842.74973,E,65.452,71.36,241015,,,A*6B
291: $GPRMC,145941.00,A,5346.31969,N,02842.77880,E,65.628,71.68,241015,,,A*6A
292: $GPRMC,145942.00,A,5346.32545,N,02842.80797,E,65.859,71.57,241015,,,A*6D
293: $GPRMC,145943.00,A,5346.33126,N,02842.83720,E,65.909,71.46,241015,,,A*67
294: $GPRMC,145944.00,A,5346.33707,N,02842.86647,E,66.010,71.50,241015,,,A*65
295: $GPRMC,145945.00,A,5346.34295,N,02842.89576,E,66.202,71.23,241015,,,A*66
296: $GPRMC,145946.00,A,5346.34887,N,02842.92509,E,66.261,71.19,241015,,,A*62
297: $GPRMC,145947.00,A,5346.35477,N,02842.95451,E,66.413,71.31,241015,,,A*63
298: $GPRMC,145948.00,A,5346.36064,N,02842.98405,E,66.509,71.49,241015,,,A*60
299: $GPRMC,145949.00,A,5346.36647,N,02843.01363,E,66.639,71.56,241015,,,A*6E
300: $GPRMC,145950.00,A,5346.37229,N,02843.04329,E,66.784,71.63,241015,,,A*61
301: $GPRMC,145951.00,A,5346.37811,N,02843.07303,E,66.923,71.72,241015,,,A*69
302: $GPRMC,145952.00,A,5346.38390,N,02843.10281,E,67.037,71.85,241015,,,A*6F
303: $GPRMC,145953.00,A,5346.38978,N,02843.13261,E,67.220,71.45,241015,,,A*67
304: $GPRMC,145954.00,A,5346.39580,N,02843.16240,E,67.310,71.02,241015,,,A*6D
305: $GPRMC,145955.00,A,5346.40183,N,02843.19226,E,67.431,71.16,241015,,,A*6B
306: $GPRMC,145956.00,A,5346.40781,N,02843.22221,E,67.516,71.39,241015,,,A*6A
307: $GPRMC,145957.00,A,5346.41382,N,02843.25210,E,67.442,71.27,241015,,,A*67
308: $GPRMC,145958.00,A,5346.41983,N,02843.28213,E,67.762,71.29,241015,,,A*62
309: $GPRMC,145959.00,A,5346.42586,N,02843.31229,E,68.108,71.41,241015,,,A*63
310: $GPRMC,150000.00,A,5346.43181,N,02843.34256,E,68.193,71.74,241015,,,A*69
311: $GPRMC,150001.00,A,5346.43774,N,02843.37297,E,68.462,71.83,241015,,,A*69
312: $GPRMC,150002.00,A,5346.44372,N,02843.40347,E,68.684,71.61,241015,,,A*65
313: $GPRMC,150003.00,A,5346.44981,N,02843.43405,E,69.045,71.34,241015,,,A*6A
314: $GPRMC,150004.00,A,5346.45596,N,02843.46474,E,69.288,71.25,241015,,,A*66
315: $GPRMC,150005.00,A,5346.46206,N,02843.49560,E,69.472,71.58,241015,,,A*68
316: $GPRMC,150006.00,A,5346.46817,N,02843.52648,E,69.549,71.51,241015,,,A*62
317: $GPRMC,150007.00,A,5346.47436,N,02843.55745,E,69.897,71.30,241015,,,A*6F
318: $GPRMC,150008.00,A,5346.48059,N,02843.58854,E,70.199,71.25,241015,,,A*6B
319: $GPRMC,150009.00,A,5346.48685,N,02843.61969,E,70.368,71.20,241015,,,A*61
320: $GPRMC,150010.00,A,5346.49311,N,02843.65092,E,70.402,71.36,241015,,,A*65
321: $GPRMC,150011.00,A,5346.49935,N,02843.68221,E,70.558,71.41,241015,,,A*61
322: $GPRMC,150012.00,A,5346.50558,N,02843.71353,E,70.711,71.47,241015,,,A*68
323: $GPRMC,150013.00,A,5346.51175,N,02843.74463,E,70.041,71.59,241015,,,A*6F
324: $GPRMC,150014.00,A,5346.51787,N,02843.77543,E,69.109,71.42,241015,,,A*6C
325: $GPRMC,150015.00,A,5346.52396,N,02843.80577,E,68.018,71.37,241015,,,A*67
326: $GPRMC,150016.00,A,5346.52990,N,02843.83564,E,67.091,71.53,241015,,,A*65
327: $GPRMC,150017.00,A,5346.53574,N,02843.86528,E,66.667,71.72,241015,,,A*63
328: $GPRMC,150018.00,A,5346.54156,N,02843.89486,E,66.523,71.62,241015,,,A*67
329: $GPRMC,150019.00,A,5346.54748,N,02843.92434,E,66.431,71.15,241015,,,A*6E
330: $GPRMC,150020.00,A,5346.55336,N,02843.95382,E,66.299,71.48,241015,,,A*69
331: $GPRMC,150021.00,A,5346.55919,N,02843.98312,E,65.870,71.41,241015,,,A*6C
332: $GPRMC,150022.00,A,5346.56503,N,02844.01214,E,65.325,71.29,241015,,,A*6E
333: $GPRMC,150023.00,A,5346.57087,N,02844.04090,E,64.743,71.11,241015,,,A*62
334: $GPRMC,150024.00,A,5346.57666,N,02844.06954,E,64.487,71.20,241015,,,A*66
335: $GPRMC,150025.00,A,5346.58239,N,02844.09820,E,64.617,71.46,241015,,,A*60
336: $GPRMC,150026.00,A,5346.58810,N,02844.12694,E,64.737,71.54,241015,,,A*69
337: $GPRMC,150027.00,A,5346.59379,N,02844.15577,E,64.827,71.64,241015,,,A*69
338: $GPRMC,150028.00,A,5346.59942,N,02844.18466,E,64.959,71.75,241015,,,A*60
339: $GPRMC,150029.00,A,5346.60505,N,02844.21357,E,65.121,71.81,241015,,,A*66
340: $GPRMC,150030.00,A,5346.61076,N,02844.24257,E,65.368,71.55,241015,,,A*6C
341: $GPRMC,150031.00,A,5346.61660,N,02844.27160,E,65.521,71.24,241015,,,A*65
342: $GPRMC,150032.00,A,5346.62245,N,02844.30067,E,65.602,71.24,241015,,,A*64
343: $GPRMC,150033.00,A,5346.62835,N,02844.32980,E,65.787,71.23,241015,,,A*61
344: $GPRMC,150034.00,A,5346.63421,N,02844.35902,E,65.876,71.34,241015,,,A*64
345: $GPRMC,150035.00,A,5346.64006,N,02844.38830,E,66.087,71.38,241015,,,A*67
346: $GPRMC,150036.00,A,5346.64591,N,02844.41771,E,66.264,71.47,241015,,,A*6C
347: $GPRMC,150037.00,A,5346.65175,N,02844.44721,E,66.435,71.54,241015,,,A*62
348: $GPRMC,150038.00,A,5346.65759,N,02844.47676,E,66.491,71.56,241015,,,A*69
349: $GPRMC,150039.00,A,5346.66343,N,02844.50634,E,66.573,71.57,241015,,,A*68
350: $GPRMC,150040.00,A,5346.66933,N,02844.53595,E,66.698,71.37,241015,,,A*60
351: $GPRMC,150041.00,A,5346.67532,N,02844.56560,E,66.876,71.11,241015,,,A*68
352: $GPRMC,150042.00,A,5346.68137,N,02844.59533,E,67.089,71.08,241015,,,A*6D
353: $GPRMC,150043.00,A,5346.68741,N,02844.62512,E,67.248,71.16,241015,,,A*60
354: $GPRMC,150044.00,A,5346.69343,N,02844.65488,E,67.117,71.19,241015,,,A*63
355: $GPRMC,150045.00,A,5346.69938,N,02844.68474,E,67.293,71.56,241015,,,A*6E
356: $GPRMC,150046.00,A,5346.70524,N,02844.71471,E,67.401,71.79,241015,,,A*69
357: $GPRMC,150047.00,A,5346.71106,N,02844.74475,E,67.511,71.84,241015,,,A*6E
358: $GPRMC,150048.00,A,5346.71689,N,02844.77484,E,67.666,71.86,241015,,,A*6D
359: $GPRMC,150049.00,A,5346.72281,N,02844.80499,E,67.851,71.50,241015,,,A*66
360: $GPRMC,150050.00,A,5346.72878,N,02844.83501,E,67.563,71.28,241015,,,A*62
361: $GPRMC,150051.00,A,5346.73468,N,02844.86451,E,66.458,71.34,241015,,,A*6B
362: $GPRMC,150052.00,A,5346.74047,N,02844.89360,E,65.422,71.37,241015,,,A*61
363: $GPRMC,150053.00,A,5346.74615,N,02844.92265,E,65.050,71.67,241015,,,A*6B
364: $GPRMC,150054.00,A,5346.75184,N,02844.95146,E,64.805,71.43,241015,,,A*68
365: $GPRMC,150055.00,A,5346.75765,N,02844.98018,E,64.830,71.05,241015,,,A*63
366: $GPRMC,150056.00,A,5346.76347,N,02845.00892,E,64.929,71.04,241015,,,A*65
367: $GPRMC,150057.00,A,5346.76935,N,02845.03764,E,64.937,70.82,241015,,,A*6E
368: $GPRMC,150058.00,A,5346.77515,N,02845.06644,E,64.916,71.32,241015,,,A*61
369: $GPRMC,150059.00,A,5346.78082,N,02845.09536,E,64.991,71.60,241015,,,A*65
370: $GPRMC,150100.00,A,5346.78642,N,02845.12433,E,65.131,71.73,241015,,,A*6D
371: $GPRMC,150101.00,A,5346.79208,N,02845.15332,E,65.282,71.58,241015,,,A*64
372: $GPRMC,150102.00,A,5346.79775,N,02845.18244,E,65.214,71.64,241015,,,A*65
373: $GPRMC,150103.00,A,5346.80347,N,02845.21141,E,65.143,71.34,241015,,,A*6F
374: $GPRMC,150104.00,A,5346.80925,N,02845.24035,E,65.258,71.22,241015,,,A*6F
375: $GPRMC,150105.00,A,5346.81505,N,02845.26925,E,65.459,71.24,241015,,,A*6A
376: $GPRMC,150106.00,A,5346.82083,N,02845.29827,E,65.434,71.37,241015,,,A*64
377: $GPRMC,150107.00,A,5346.82666,N,02845.32715,E,65.254,71.26,241015,,,A*6C
378: $GPRMC,150108.00,A,5346.83249,N,02845.35626,E,65.826,71.35,241015,,,A*60
379: $GPRMC,150109.00,A,5346.83824,N,02845.38542,E,65.742,71.62,241015,,,A*63
380: $GPRMC,150110.00,A,5346.84405,N,02845.41450,E,65.765,71.34,241015,,,A*69
381: $GPRMC,150111.00,A,5346.84991,N,02845.44375,E,65.982,71.22,241015,,,A*6D
382: $GPRMC,150112.00,A,5346.85596,N,02845.47251,E,65.380,70.43,241015,,,A*6E
383: $GPRMC,150113.00,A,5346.86186,N,02845.50152,E,65.663,71.13,241015,,,A*63
384: $GPRMC,150114.00,A,5346.86770,N,02845.53072,E,65.849,71.29,241015,,,A*64
385: $GPRMC,150115.00,A,5346.87347,N,02845.55992,E,65.702,71.53,241015,,,A*68
386: $GPRMC,150116.00,A,5346.87926,N,02845.58903,E,65.557,71.32,241015,,,A*66
387: $GPRMC,150117.00,A,5346.88504,N,02845.61804,E,65.361,71.40,241015,,,A*6E
388: $GPRMC,150118.00,A,5346.89082,N,02845.64697,E,65.324,71.29,241015,,,A*64
389: $GPRMC,150119.00,A,5346.89656,N,02845.67587,E,65.125,71.35,241015,,,A*65
390: $GPRMC,150120.00,A,5346.90224,N,02845.70468,E,64.572,71.58,241015,,,A*6C
391: $GPRMC,150121.00,A,5346.90788,N,02845.73344,E,64.406,71.61,241015,,,A*6C
392: $GPRMC,150122.00,A,5346.91347,N,02845.76193,E,64.041,71.64,241015,,,A*66
393: $GPRMC,150123.00,A,5346.91905,N,02845.79037,E,63.952,71.64,241015,,,A*67
394: $GPRMC,150124.00,A,5346.92455,N,02845.81850,E,63.063,71.68,241015,,,A*62
395: $GPRMC,150125.00,A,5346.93013,N,02845.84615,E,62.208,71.10,241015,,,A*6F
396: $GPRMC,150126.00,A,5346.93555,N,02845.87357,E,61.360,71.50,241015,,,A*63
397: $GPRMC,150127.00,A,5346.94088,N,02845.90073,E,60.999,71.55,241015,,,A*6B
398: $GPRMC,150128.00,A,5346.94615,N,02845.92774,E,60.848,71.58,241015,,,A*64
399: $GPRMC,150129.00,A,5346.95141,N,02845.95477,E,60.696,71.59,241015,,,A*69
400: $GPRMC,150130.00,A,5346.95667,N,02845.98174,E,60.596,71.66,241015,,,A*66
401: $GPRMC,150131.00,A,5346.96195,N,02846.00867,E,60.573,71.58,241015,,,A*61
402: $GPRMC,150132.00,A,5346.96729,N,02846.03556,E,60.582,71.26,241015,,,A*68
403: $GPRMC,150133.00,A,5346.97267,N,02846.06239,E,60.385,71.08,241015,,,A*61
404: $GPRMC,150134.00,A,5346.97809,N,02846.08929,E,60.387,71.11,241015,,,A*6A
405: $GPRMC,150135.00,A,5346.98351,N,02846.11611,E,60.497,71.09,241015,,,A*61
406: $GPRMC,150136.00,A,5346.98889,N,02846.14293,E,60.310,71.22,241015,,,A*66
407: $GPRMC,150137.00,A,5346.99424,N,02846.16969,E,60.225,71.29,241015,,,A*6D
408: $GPRMC,150138.00,A,5346.99956,N,02846.19648,E,60.245,71.36,241015,,,A*61
409: $GPRMC,150139.00,A,5347.00486,N,02846.22335,E,60.435,71.43,241015,,,A*65
410: $GPRMC,150140.00,A,5347.01015,N,02846.25029,E,60.683,71.43,241015,,,A*62
411: $GPRMC,150141.00,A,5347.01550,N,02846.27730,E,60.924,71.25,241015,,,A*68
412: $GPRMC,150142.00,A,5347.02087,N,02846.30426,E,60.619,71.41,241015,,,A*66
413: $GPRMC,150143.00,A,5347.02623,N,02846.33113,E,60.561,71.37,241015,,,A*62
414: $GPRMC,150144.00,A,5347.03155,N,02846.35793,E,60.411,71.58,241015,,,A*65
415: $GPRMC,150145.00,A,5347.03682,N,02846.38472,E,60.373,71.62,241015,,,A*62
416: $GPRMC,150146.00,A,5347.04212,N,02846.41143,E,60.227,71.51,241015,,,A*62
417: $GPRMC,150147.00,A,5347.04740,N,02846.43811,E,60.016,71.46,241015,,,A*6B
418: $GPRMC,150148.00,A,5347.05263,N,02846.46474,E,59.811,71.54,241015,,,A*6D
419: $GPRMC,150149.00,A,5347.05780,N,02846.49120,E,59.542,71.63,241015,,,A*60
420: $GPRMC,150150.00,A,5347.06295,N,02846.51753,E,59.124,71.52,241015,,,A*67
421: $GPRMC,150151.00,A,5347.06810,N,02846.54366,E,58.682,71.55,241015,,,A*6B
422: $GPRMC,150152.00,A,5347.07326,N,02846.56964,E,58.495,71.49,241015,,,A*64
423: $GPRMC,150153.00,A,5347.07839,N,02846.59549,E,58.163,71.47,241015,,,A*6E
424: $GPRMC,150154.00,A,5347.08345,N,02846.62127,E,57.945,71.60,241015,,,A*64
425: $GPRMC,150155.00,A,5347.08843,N,02846.64689,E,57.512,71.80,241015,,,A*6D
426: $GPRMC,150156.00,A,5347.09345,N,02846.67236,E,57.193,71.48,241015,,,A*68
427: $GPRMC,150157.00,A,5347.09856,N,02846.69774,E,57.151,71.12,241015,,,A*6C
428: $GPRMC,150158.00,A,5347.10365,N,02846.72295,E,56.814,71.14,241015,,,A*6F
429: $GPRMC,150159.00,A,5347.10868,N,02846.74799,E,56.331,71.40,241015,,,A*6A
430: $GPRMC,150200.00,A,5347.11361,N,02846.77289,E,55.924,71.59,241015,,,A*64
431: $GPRMC,150201.00,A,5347.11852,N,02846.79784,E,55.960,71.66,241015,,,A*64
432: $GPRMC,150202.00,A,5347.12339,N,02846.82274,E,55.942,71.66,241015,,,A*6C
433: $GPRMC,150203.00,A,5347.12822,N,02846.84757,E,55.681,71.70,241015,,,A*69
434: $GPRMC,150204.00,A,5347.13310,N,02846.87234,E,55.669,71.47,241015,,,A*64
435: $GPRMC,150205.00,A,5347.13802,N,02846.89706,E,55.703,71.38,241015,,,A*62
436: $GPRMC,150206.00,A,5347.14292,N,02846.92180,E,55.724,71.55,241015,,,A*69
437: $GPRMC,150207.00,A,5347.14785,N,02846.94653,E,55.848,71.39,241015,,,A*6B
438: $GPRMC,150208.00,A,5347.15288,N,02846.97135,E,56.103,71.00,241015,,,A*66
439: $GPRMC,150209.00,A,5347.15789,N,02846.99623,E,55.836,71.24,241015,,,A*67
440: $GPRMC,150210.00,A,5347.16280,N,02847.02105,E,55.830,71.55,241015,,,A*60
441: $GPRMC,150211.00,A,5347.16772,N,02847.04594,E,56.069,71.52,241015,,,A*63
442: $GPRMC,150212.00,A,5347.17265,N,02847.07088,E,56.071,71.57,241015,,,A*65
443: $GPRMC,150213.00,A,5347.17761,N,02847.09576,E,56.007,71.39,241015,,,A*66
444: $GPRMC,150214.00,A,5347.18260,N,02847.12060,E,55.823,71.34,241015,,,A*62
445: $GPRMC,150215.00,A,5347.18767,N,02847.14561,E,56.442,71.20,241015,,,A*6E
446: $GPRMC,150216.00,A,5347.19277,N,02847.17075,E,56.794,71.20,241015,,,A*63
447: $GPRMC,150217.00,A,5347.19786,N,02847.19608,E,57.099,71.36,241015,,,A*67
448: $GPRMC,150218.00,A,5347.20298,N,02847.22153,E,57.354,71.26,241015,,,A*6A
449: $GPRMC,150219.00,A,5347.20810,N,02847.24706,E,57.460,71.45,241015,,,A*64
450: $GPRMC,150220.00,A,5347.21319,N,02847.27266,E,57.658,71.45,241015,,,A*64
451: $GPRMC,150221.00,A,5347.21831,N,02847.29835,E,57.965,71.43,241015,,,A*61
452: $GPRMC,150222.00,A,5347.22350,N,02847.32418,E,57.977,71.30,241015,,,A*63
453: $GPRMC,150223.00,A,5347.22872,N,02847.35004,E,58.373,71.26,241015,,,A*61
454: $GPRMC,150224.00,A,5347.23391,N,02847.37597,E,58.660,71.38,241015,,,A*64
455: $GPRMC,150225.00,A,5347.23911,N,02847.40203,E,58.727,71.44,241015,,,A*64
456: $GPRMC,150226.00,A,5347.24430,N,02847.42819,E,58.599,71.49,241015,,,A*67
457: $GPRMC,150227.00,A,5347.24954,N,02847.45430,E,58.629,71.23,241015,,,A*6D
458: $GPRMC,150228.00,A,5347.25481,N,02847.48046,E,58.945,71.33,241015,,,A*6A
459: $GPRMC,150229.00,A,5347.26005,N,02847.50671,E,59.065,71.50,241015,,,A*64
460: $GPRMC,150230.00,A,5347.26525,N,02847.53296,E,59.018,71.49,241015,,,A*67
461: $GPRMC,150231.00,A,5347.27040,N,02847.55921,E,58.962,71.66,241015,,,A*68
462: $GPRMC,150232.00,A,5347.27557,N,02847.58540,E,58.872,71.55,241015,,,A*6E
463: $GPRMC,150233.00,A,5347.28075,N,02847.61150,E,58.782,71.48,241015,,,A*66
464: $GPRMC,150234.00,A,5347.28593,N,02847.63749,E,58.519,71.57,241015,,,A*6E
465: $GPRMC,150235.00,A,5347.29104,N,02847.66335,E,58.081,71.55,241015,,,A*68
466: $GPRMC,150236.00,A,5347.29610,N,02847.68902,E,57.568,71.78,241015,,,A*6B
467: $GPRMC,150237.00,A,5347.30109,N,02847.71444,E,57.101,71.74,241015,,,A*6D
468: $GPRMC,150238.00,A,5347.30603,N,02847.73969,E,56.679,71.78,241015,,,A*6A
469: $GPRMC,150239.00,A,5347.31100,N,02847.76481,E,56.441,71.45,241015,,,A*67
470: $GPRMC,150240.00,A,5347.31599,N,02847.78984,E,56.339,71.36,241015,,,A*67
471: $GPRMC,150241.00,A,5347.32095,N,02847.81471,E,55.873,71.43,241015,,,A*69
472: $GPRMC,150242.00,A,5347.32584,N,02847.83918,E,54.875,71.43,241015,,,A*68
473: $GPRMC,150243.00,A,5347.33065,N,02847.86324,E,53.932,71.35,241015,,,A*66
474: $GPRMC,150244.00,A,5347.33543,N,02847.88697,E,53.297,71.28,241015,,,A*6B
475: $GPRMC,150245.00,A,5347.34019,N,02847.91053,E,53.074,71.23,241015,,,A*65
476: $GPRMC,150246.00,A,5347.34491,N,02847.93395,E,52.822,71.34,241015,,,A*65
477: $GPRMC,150247.00,A,5347.34959,N,02847.95723,E,52.448,71.38,241015,,,A*6E
478: $GPRMC,150248.00,A,5347.35429,N,02847.98050,E,52.601,71.10,241015,,,A*61
479: $GPRMC,150249.00,A,5347.35891,N,02848.00389,E,53.112,71.63,241015,,,A*66
480: $GPRMC,150250.00,A,5347.36337,N,02848.02730,E,52.951,71.72,241015,,,A*60
481: $GPRMC,150251.00,A,5347.36793,N,02848.05081,E,53.118,71.77,241015,,,A*60
482: $GPRMC,150252.00,A,5347.37257,N,02848.07441,E,53.196,71.67,241015,,,A*62
483: $GPRMC,150253.00,A,5347.37710,N,02848.09812,E,53.193,72.06,241015,,,A*60
484: $GPRMC,150254.00,A,5347.38168,N,02848.12171,E,53.312,71.69,241015,,,A*66
485: $GPRMC,150255.00,A,5347.38642,N,02848.14536,E,53.570,71.43,241015,,,A*63
486: $GPRMC,150256.00,A,5347.39125,N,02848.16923,E,53.984,71.08,241015,,,A*65
487: $GPRMC,150257.00,A,5347.39594,N,02848.19330,E,54.010,71.64,241015,,,A*64
488: $GPRMC,150258.00,A,5347.40071,N,02848.21734,E,54.287,71.28,241015,,,A*64
489: $GPRMC,150259.00,A,5347.40551,N,02848.24156,E,54.766,71.44,241015,,,A*65
490: $GPRMC,150300.00,A,5347.41035,N,02848.26589,E,54.901,71.40,241015,,,A*61
491: $GPRMC,150301.00,A,5347.41523,N,02848.29045,E,55.197,71.37,241015,,,A*6E
492: $GPRMC,150302.00,A,5347.42008,N,02848.31502,E,55.275,71.59,241015,,,A*6A
493: $GPRMC,150303.00,A,5347.42494,N,02848.33967,E,55.524,71.49,241015,,,A*65
494: $GPRMC,150304.00,A,5347.42972,N,02848.36436,E,55.378,71.76,241015,,,A*68
495: $GPRMC,150305.00,A,5347.43465,N,02848.38885,E,55.243,71.34,241015,,,A*66
496: $GPRMC,150306.00,A,5347.43945,N,02848.41330,E,54.852,71.57,241015,,,A*6F
497: $GPRMC,150307.00,A,5347.44435,N,02848.43763,E,55.111,71.36,241015,,,A*6B
498: $GPRMC,150308.00,A,5347.44924,N,02848.46204,E,55.122,71.47,241015,,,A*6E
499: $GPRMC,150309.00,A,5347.45422,N,02848.48637,E,55.017,71.05,241015,,,A*6E
500: $GPRMC,150310.00,A,5347.45904,N,02848.51074,E,54.777,71.47,241015,,,A*60
501: $GPRMC,150311.00,A,5347.46392,N,02848.53499,E,54.670,71.21,241015,,,A*64
502: $GPRMC,150312.00,A,5347.46883,N,02848.55925,E,54.867,71.18,241015,,,A*62
503: $GPRMC,150313.00,A,5347.47370,N,02848.58361,E,54.924,71.46,241015,,,A*6F
504: $GPRMC,150314.00,A,5347.47854,N,02848.60803,E,54.905,71.49,241015,,,A*6D
505: $GPRMC,150315.00,A,5347.48337,N,02848.63257,E,55.142,71.46,241015,,,A*60
506: $GPRMC,150316.00,A,5347.48824,N,02848.65720,E,55.401,71.35,241015,,,A*6F
507: $GPRMC,150317.00,A,5347.49315,N,02848.68190,E,55.601,71.45,241015,,,A*63
508: $GPRMC,150318.00,A,5347.49805,N,02848.70676,E,55.797,71.50,241015,,,A*6A
509: $GPRMC,150319.00,A,5347.50308,N,02848.73161,E,55.966,71.13,241015,,,A*60
510: $GPRMC,150320.00,A,5347.50813,N,02848.75656,E,56.285,71.14,241015,,,A*6C
511: $GPRMC,150321.00,A,5347.51322,N,02848.78163,E,56.572,71.23,241015,,,A*62
512: $GPRMC,150322.00,A,5347.51829,N,02848.80680,E,56.743,71.42,241015,,,A*6B
513: $GPRMC,150323.00,A,5347.52325,N,02848.83203,E,56.594,71.67,241015,,,A*6D
514: $GPRMC,150324.00,A,5347.52818,N,02848.85724,E,56.586,71.73,241015,,,A*6F
515: $GPRMC,150325.00,A,5347.53315,N,02848.88237,E,56.442,71.51,241015,,,A*6A
516: $GPRMC,150326.00,A,5347.53813,N,02848.90739,E,56.110,71.48,241015,,,A*6C
517: $GPRMC,150327.00,A,5347.54307,N,02848.93215,E,55.476,71.30,241015,,,A*65
518: $GPRMC,150328.00,A,5347.54795,N,02848.95658,E,54.690,71.37,241015,,,A*62
519: $GPRMC,150329.00,A,5347.55278,N,02848.98068,E,53.924,71.38,241015,,,A*64
520: $GPRMC,150330.00,A,5347.55756,N,02849.00448,E,53.323,71.46,241015,,,A*67
521: $GPRMC,150331.00,A,5347.56225,N,02849.02812,E,53.070,71.53,241015,,,A*64
522: $GPRMC,150332.00,A,5347.56692,N,02849.05167,E,52.933,71.52,241015,,,A*6D
523: $GPRMC,150333.00,A,5347.57162,N,02849.07511,E,52.679,71.43,241015,,,A*63
524: $GPRMC,150334.00,A,5347.57632,N,02849.09835,E,52.250,71.35,241015,,,A*6D
525: $GPRMC,150335.00,A,5347.58099,N,02849.12144,E,51.813,71.33,241015,,,A*69
526: $GPRMC,150336.00,A,5347.58562,N,02849.14433,E,51.339,71.39,241015,,,A*61
527: $GPRMC,150337.00,A,5347.59019,N,02849.16703,E,50.932,71.50,241015,,,A*65
528: $GPRMC,150338.00,A,5347.59470,N,02849.18961,E,50.752,71.48,241015,,,A*64
529: $GPRMC,150339.00,A,5347.59921,N,02849.21211,E,50.553,71.44,241015,,,A*65
530: $GPRMC,150340.00,A,5347.60370,N,02849.23448,E,50.287,71.43,241015,,,A*6E
531: $GPRMC,150341.00,A,5347.60817,N,02849.25675,E,50.127,71.37,241015,,,A*65
532: $GPRMC,150342.00,A,5347.61258,N,02849.27889,E,49.683,71.44,241015,,,A*6C
533: $GPRMC,150343.00,A,5347.61695,N,02849.30080,E,49.104,71.41,241015,,,A*62
534: $GPRMC,150344.00,A,5347.62130,N,02849.32250,E,48.674,71.37,241015,,,A*63
535: $GPRMC,150345.00,A,5347.62561,N,02849.34406,E,48.494,71.41,241015,,,A*6C
536: $GPRMC,150346.00,A,5347.62992,N,02849.36561,E,48.534,71.36,241015,,,A*66
537: $GPRMC,150347.00,A,5347.63421,N,02849.38718,E,48.576,71.43,241015,,,A*65
538: $GPRMC,150348.00,A,5347.63850,N,02849.40878,E,48.654,71.41,241015,,,A*67
539: $GPRMC,150349.00,A,5347.64279,N,02849.43032,E,48.473,71.40,241015,,,A*63
540: $GPRMC,150350.00,A,5347.64702,N,02849.45153,E,47.515,71.39,241015,,,A*62
541: $GPRMC,150351.00,A,5347.65117,N,02849.47227,E,46.453,71.34,241015,,,A*6D
542: $GPRMC,150352.00,A,5347.65514,N,02849.49243,E,44.893,71.71,241015,,,A*66
543: $GPRMC,150353.00,A,5347.65893,N,02849.51184,E,43.134,71.87,241015,,,A*6E
544: $GPRMC,150354.00,A,5347.66264,N,02849.53080,E,42.478,71.77,241015,,,A*6C
545: $GPRMC,150355.00,A,5347.66628,N,02849.54941,E,41.791,71.76,241015,,,A*64
546: $GPRMC,150356.00,A,5347.66994,N,02849.56804,E,41.895,71.74,241015,,,A*64
547: $GPRMC,150357.00,A,5347.67362,N,02849.58684,E,42.448,71.73,241015,,,A*67
548: $GPRMC,150358.00,A,5347.67735,N,02849.60591,E,43.245,71.64,241015,,,A*6E
549: $GPRMC,150359.00,A,5347.68119,N,02849.62535,E,44.050,71.50,241015,,,A*62
550: $GPRMC,150400.00,A,5347.68510,N,02849.64514,E,44.772,71.53,241015,,,A*65
551: $GPRMC,150401.00,A,5347.68910,N,02849.66529,E,45.600,71.41,241015,,,A*62
552: $GPRMC,150402.00,A,5347.69321,N,02849.68579,E,46.424,71.26,241015,,,A*65
553: $GPRMC,150403.00,A,5347.69741,N,02849.70662,E,47.292,71.22,241015,,,A*68
554: $GPRMC,150404.00,A,5347.70163,N,02849.72781,E,48.008,71.49,241015,,,A*6C
555: $GPRMC,150405.00,A,5347.70590,N,02849.74933,E,48.709,71.48,241015,,,A*63
556: $GPRMC,150406.00,A,5347.71019,N,02849.77118,E,49.476,71.76,241015,,,A*60
557: $GPRMC,150407.00,A,5347.71456,N,02849.79332,E,50.240,71.53,241015,,,A*66
558: $GPRMC,150408.00,A,5347.71894,N,02849.81574,E,50.668,71.72,241015,,,A*65
559: $GPRMC,150409.00,A,5347.72338,N,02849.83839,E,51.177,71.62,241015,,,A*65
560: $GPRMC,150410.00,A,5347.72792,N,02849.86130,E,51.759,71.47,241015,,,A*61
561: $GPRMC,150411.00,A,5347.73255,N,02849.88444,E,52.358,71.44,241015,,,A*62
562: $GPRMC,150412.00,A,5347.73716,N,02849.90781,E,52.727,71.74,241015,,,A*6F
563: $GPRMC,150413.00,A,5347.74184,N,02849.93141,E,53.286,71.43,241015,,,A*66
564: $GPRMC,150414.00,A,5347.74659,N,02849.95523,E,53.721,71.46,241015,,,A*6D
565: $GPRMC,150415.00,A,5347.75136,N,02849.97927,E,54.229,71.48,241015,,,A*6D
566: $GPRMC,150416.00,A,5347.75620,N,02850.00349,E,54.715,71.47,241015,,,A*6F
567: $GPRMC,150417.00,A,5347.76105,N,02850.02791,E,55.087,71.61,241015,,,A*67
568: $GPRMC,150418.00,A,5347.76594,N,02850.05255,E,55.534,71.51,241015,,,A*60
569: $GPRMC,150419.00,A,5347.77087,N,02850.07735,E,55.930,71.48,241015,,,A*66
570: $GPRMC,150420.00,A,5347.77583,N,02850.10234,E,56.313,71.49,241015,,,A*66
571: $GPRMC,150421.00,A,5347.78087,N,02850.12753,E,56.812,71.42,241015,,,A*6E
572: $GPRMC,150422.00,A,5347.78594,N,02850.15292,E,57.293,71.42,241015,,,A*67
573: $GPRMC,150423.00,A,5347.79098,N,02850.17849,E,57.590,71.64,241015,,,A*60
574: $GPRMC,150424.00,A,5347.79604,N,02850.20424,E,58.109,71.62,241015,,,A*6A
575: $GPRMC,150425.00,A,5347.80117,N,02850.23021,E,58.597,71.47,241015,,,A*6E
576: $GPRMC,150426.00,A,5347.80644,N,02850.25634,E,59.031,71.17,241015,,,A*65
577: $GPRMC,150427.00,A,5347.81168,N,02850.28268,E,59.418,71.46,241015,,,A*67
578: $GPRMC,150428.00,A,5347.81694,N,02850.30922,E,59.898,71.60,241015,,,A*60
579: $GPRMC,150429.00,A,5347.82222,N,02850.33592,E,60.236,71.60,241015,,,A*6B
580: $GPRMC,150430.00,A,5347.82756,N,02850.36282,E,60.705,71.53,241015,,,A*63
581: $GPRMC,150431.00,A,5347.83290,N,02850.38989,E,60.986,71.72,241015,,,A*64
582: $GPRMC,150432.00,A,5347.83825,N,02850.41713,E,61.418,71.62,241015,,,A*6A
583: $GPRMC,150433.00,A,5347.84365,N,02850.44449,E,61.741,71.74,241015,,,A*62
584: $GPRMC,150434.00,A,5347.84913,N,02850.47196,E,61.971,71.48,241015,,,A*68
585: $GPRMC,150435.00,A,5347.85467,N,02850.49954,E,62.098,71.48,241015,,,A*63
586: $GPRMC,150436.00,A,5347.86023,N,02850.52716,E,62.306,71.33,241015,,,A*6D
587: $GPRMC,150437.00,A,5347.86577,N,02850.55486,E,62.525,71.49,241015,,,A*6F
588: $GPRMC,150438.00,A,5347.87130,N,02850.58264,E,62.624,71.53,241015,,,A*68
589: $GPRMC,150439.00,A,5347.87681,N,02850.61045,E,62.627,71.56,241015,,,A*69
590: $GPRMC,150440.00,A,5347.88232,N,02850.63828,E,62.682,71.40,241015,,,A*6D
591: $GPRMC,150441.00,A,5347.88786,N,02850.66614,E,62.811,71.28,241015,,,A*68
592: $GPRMC,150442.00,A,5347.89343,N,02850.69405,E,62.997,71.28,241015,,,A*65
593: $GPRMC,150443.00,A,5347.89901,N,02850.72205,E,63.040,71.38,241015,,,A*67
594: $GPRMC,150444.00,A,5347.90456,N,02850.75003,E,62.880,71.41,241015,,,A*6F
595: $GPRMC,150445.00,A,5347.91014,N,02850.77794,E,62.801,71.34,241015,,,A*6D
596: $GPRMC,150446.00,A,5347.91565,N,02850.80575,E,62.478,71.52,241015,,,A*6A
597: $GPRMC,150447.00,A,5347.92111,N,02850.83340,E,62.128,71.52,241015,,,A*6C
598: $GPRMC,150448.00,A,5347.92648,N,02850.86092,E,61.683,71.71,241015,,,A*65
599: $GPRMC,150449.00,A,5347.93183,N,02850.88832,E,61.396,71.65,241015,,,A*6D
