0: $GPGSV,4,2,14,09,01,228,34,11,32,188,31,12,07,003,13,14,11,051,24*7D
0: $GPGSV,4,3,14,17,29,289,34,19,16,219,34,23,38,219,35,25,06,039,15*79
0: $GPGSV,4,4,14,31,39,086,33,32,64,092,34*75
0: $GPGLL,5344.20702,N,02830.80099,E,145209.00,A,A*62
0: $GPRMC,145210.00,A,5344.21031,N,02830.83160,E,66.564,79.79,241015,,,A*6B
0: $GPVTG,79.79,T,,M,66.564,N,123.276,K,A*39
0: $GPGGA,145210.00,5344.21031,N,02830.83160,E,1,12,0.83,172.8,M,24.3,M,,*5C
0: $GPGSA,A,3,32,01,03,04,11,19,17,14,23,31,12,25,1.41,0.83,1.14*02
0: $GPGSV,4,1,14,01,57,183,28,03,74,282,32,04,31,161,27,06,03,318,08*71
1: $GPGSV,4,2,14,09,01,228,29,11,32,188,31,12,07,003,13,14,11,051,25*70
1: $GPGSV,4,3,14,17,29,289,34,19,16,219,34,23,38,219,35,25,06,039,12*7E
1: $GPGSV,4,4,14,31,39,086,33,32,64,092,34*75
1: $GPGLL,5344.21031,N,02830.83160,E,145210.00,A,A*68
1: $GPRMC,145211.00,A,5344.21359,N,02830.86228,E,66.711,79.75,241015,,,A*61
1: $GPVTG,79.75,T,,M,66.711,N,123.549,K,A*3E
1: $GPGGA,145211.00,5344.21359,N,02830.86228,E,1,12,0.89,172.9,M,24.3,M,,*51
1: $GPGSA,A,3,32,01,03,04,11,19,17,14,23,31,12,25,1.48,0.89,1.18*0D
1: $GPGSV,4,1,14,01,57,183,29,03,74,282,32,04,31,161,28,06,03,318,08*7F
2: $GPGSV,4,2,14,09,01,228,28,11,32,188,32,12,07,003,13,14,11,051,23*74
2: $GPGSV,4,3,14,17,29,289,34,19,16,219,35,23,38,219,35,25,06,039,11*7C
2: $GPGSV,4,4,14,31,39,086,33,32,64,092,34*75
2: $GPGLL,5344.21359,N,02830.86228,E,145211.00,A,A*6E
2: $GPRMC,145212.00,A,5344.21690,N,02830.89300,E,66.788,79.71,241015,,,A*62
2: $GPVTG,79.71,T,,M,66.788,N,123.691,K,A*3C
2: $GPGGA,145212.00,5344.21690,N,02830.89300,E,1,12,0.89,173.1,M,24.3,M,,*5F
2: $GPGSA,A,3,32,01,03,04,11,19,17,14,23,31,12,25,1.48,0.89,1.18*0D
2: $GPGSV,4,1,14,01,57,183,29,03,74,282,32,04,31,161,28,06,03,318,07*70
3: $GPGSV,4,2,14,09,01,228,25,11,32,188,32,12,07,003,12,14,11,051,23*78
3: $GPGSV,4,3,14,17,29,289,34,19,16,219,34,23,38,219,35,25,06,039,14*78
3: $GPGSV,4,4,14,31,39,086,33,32,64,092,33*72
3: $GPGLL,5344.21690,N,02830.89300,E,145212.00,A,A*69
3: $GPRMC,145213.00,A,5344.22024,N,02830.92377,E,66.947,79.60,241015,,,A*6E
3: $GPVTG,79.60,T,,M,66.947,N,123.986,K,A*38
3: $GPGGA,145213.00,5344.22024,N,02830.92377,E,1,12,0.89,173.4,M,24.3,M,,*5B
3: $GPGSA,A,3,32,01,03,04,11,19,17,14,23,31,12,25,1.48,0.89,1.18*0D
4: $GPGSV,4,1,14,01,57,183,28,03,74,282,32,04,31,161,27,06,03,318,08*71
4: $GPGSV,4,2,14,09,01,228,35,11,32,188,31,12,07,003,11,14,11,051,22*78
4: $GPGSV,4,3,14,17,29,289,34,19,16,219,34,23,38,219,35,25,06,039,16*7A
4: $GPGSV,4,4,14,31,39,086,33,32,64,092,33*72
4: $GPGLL,5344.22024,N,02830.92377,E,145213.00,A,A*68
4: $GPRMC,145214.00,A,5344.22360,N,02830.95457,E,67.013,79.52,241015,,,A*60
4: $GPVTG,79.52,T,,M,67.013,N,124.108,K,A*39
4: $GPGGA,145214.00,5344.22360,N,02830.95457,E,1,12,0.89,173.7,M,24.3,M,,*5E
4: $GPGSA,A,3,32,01,03,04,11,19,17,14,23,31,12,25,1.48,0.89,1.18*0D
4: $GPGSV,4,1,14,01,57,183,28,03,74,282,31,04,31,161,28,06,03,318,08*7D
5: $GPGSV,4,2,14,09,01,228,35,11,32,188,31,12,07,003,13,14,11,051,21*79
5: $GPGSV,4,3,14,17,29,289,34,19,16,219,34,23,38,219,35,25,06,039,16*7A
5: $GPGSV,4,4,14,31,39,086,33,32,64,092,34*75
5: $GPGLL,5344.22360,N,02830.95457,E,145214.00,A,A*6E
5: $GPRMC,145215.00,A,5344.22696,N,02830.98539,E,67.061,79.52,241015,,,A*6C
5: $GPVTG,79.52,T,,M,67.061,N,124.196,K,A*3B
5: $GPGGA,145215.00,5344.22696,N,02830.98539,E,1,12,0.89,174.2,M,24.3,M,,*55
5: $GPGSA,A,3,32,01,03,04,11,19,17,14,23,31,12,25,1.48,0.89,1.18*0D
5: $GPGSV,4,1,14,01,57,183,27,03,74,282,31,04,31,161,28,06,03,318,07*7D
6: $GPGSV,4,2,14,09,01,228,26,11,32,188,31,12,07,003,14,14,11,051,20*7D
6: $GPGSV,4,3,14,17,29,289,34,19,16,219,35,23,38,219,35,25,06,039,16*7B
6: $GPGSV,4,4,14,31,39,086,33,32,63,093,34*73
6: $GPGLL,5344.22696,N,02830.98539,E,145215.00,A,A*67
6: $GPRMC,145216.00,A,5344.23029,N,02831.01623,E,67.049,79.64,241015,,,A*6A
6: $GPVTG,79.64,T,,M,67.049,N,124.175,K,A*39
6: $GPGGA,145216.00,5344.23029,N,02831.01623,E,1,12,0.89,174.8,M,24.3,M,,*56
6: $GPGSA,A,3,32,01,03,04,11,19,17,14,23,31,12,25,1.48,0.89,1.18*0D
6: $GPGSV,4,1,14,01,57,183,25,03,74,282,32,04,31,161,28,06,03,318,07*7C
7: $GPGSV,4,2,14,09,01,228,31,11,32,188,31,12,07,003,14,14,11,051,21*7A
7: $GPGSV,4,3,14,17,29,289,34,19,16,219,35,23,38,219,35,25,06,039,16*7B
7: $GPGSV,4,4,14,31,39,086,32,32,63,093,33*75
7: $GPGLL,5344.23029,N,02831.01623,E,145216.00,A,A*6E
7: $GPRMC,145217.00,A,5344.23363,N,02831.04707,E,67.009,79.61,241015,,,A*65
7: $GPVTG,79.61,T,,M,67.009,N,124.100,K,A*3A
7: $GPGGA,145217.00,5344.23363,N,02831.04707,E,1,12,0.89,175.3,M,24.3,M,,*52
7: $GPGSA,A,3,32,01,03,04,11,19,17,14,23,31,12,25,1.48,0.89,1.18*0D
7: $GPGSV,4,1,14,01,57,183,24,03,74,282,32,04,31,161,29,06,03,318,*7B
8: $GPGSV,4,2,14,09,01,228,37,11,32,188,31,12,07,003,13,14,11,051,20*7A
8: $GPGSV,4,3,14,17,29,289,34,19,16,219,35,23,38,219,35,25,06,039,17*7A
8: $GPGSV,4,4,14,31,39,086,31,32,63,093,33*76
8: $GPGLL,5344.23363,N,02831.04707,E,145217.00,A,A*60
8: $GPRMC,145218.00,A,5344.23695,N,02831.07790,E,67.020,79.72,241015,,,A*62
8: $GPVTG,79.72,T,,M,67.020,N,124.121,K,A*30
8: $GPGGA,145218.00,5344.23695,N,02831.07790,E,1,12,0.89,176.0,M,24.3,M,,*5C
8: $GPGSA,A,3,32,01,03,04,11,19,17,14,23,31,12,25,1.48,0.89,1.18*0D
8: $GPGSV,4,1,14,01,57,183,24,03,74,282,32,04,31,161,29,06,03,318,*7B
9: $GPGSV,4,2,14,09,01,228,34,11,32,188,31,12,07,003,11,14,11,051,17*7F
9: $GPGSV,4,3,14,17,29,289,34,19,16,219,35,23,38,219,35,25,06,039,17*7A
9: $GPGSV,4,4,14,31,39,086,31,32,63,093,33*76
9: $GPGLL,5344.23695,N,02831.07790,E,145218.00,A,A*6E
9: $GPRMC,145219.00,A,5344.24029,N,02831.10872,E,66.969,79.60,241015,,,A*66
9: $GPVTG,79.60,T,,M,66.969,N,124.026,K,A*30
9: $GPGGA,145219.00,5344.24029,N,02831.10872,E,1,11,0.89,176.6,M,24.3,M,,*5B
9: $GPGSA,A,3,32,01,03,04,11,19,17,14,23,31,25,,1.48,0.89,1.18*0E
9: $GPGSV,4,1,14,01,57,183,24,03,74,282,31,04,31,161,29,06,03,318,*78
10: $GPGSV,4,2,14,09,01,228,34,11,32,188,30,12,07,003,09,14,11,051,16*76
10: $GPGSV,4,3,14,17,29,289,34,19,16,219,35,23,38,219,35,25,06,039,17*7A
10: $GPGSV,4,4,14,31,39,086,32,32,63,093,33*75
10: $GPGLL,5344.24029,N,02831.10872,E,145219.00,A,A*6C
10: $GPRMC,145220.00,A,5344.24371,N,02831.13955,E,66.978,79.56,241015,,,A*60
10: $GPVTG,79.56,T,,M,66.978,N,124.043,K,A*36
10: $GPGGA,145220.00,5344.24371,N,02831.13955,E,1,12,0.83,177.0,M,24.3,M,,*56
10: $GPGSA,A,3,32,01,03,04,11,19,17,14,23,31,12,25,1.41,0.83,1.14*02
11: $GPGSV,4,1,14,01,57,183,24,03,74,282,31,04,31,161,28,06,03,318,*79
11: $GPGSV,4,2,14,09,01,228,32,11,32,188,30,12,07,003,13,14,11,051,17*7A
11: $GPGSV,4,3,14,17,29,289,34,19,16,219,34,23,38,219,35,25,06,039,17*7B
11: $GPGSV,4,4,14,31,39,086,32,32,63,093,33*75
11: $GPGLL,5344.24371,N,02831.13955,E,145220.00,A,A*6F
11: $GPRMC,145221.00,A,5344.24709,N,02831.17040,E,66.958,79.83,241015,,,A*69
11: $GPVTG,79.83,T,,M,66.958,N,124.007,K,A*3C
11: $GPGGA,145221.00,5344.24709,N,02831.17040,E,1,12,0.83,177.4,M,24.3,M,,*51
11: $GPGSA,A,3,32,01,03,04,11,19,17,14,23,31,12,25,1.41,0.83,1.14*02
11: $GPGSV,4,1,14,01,57,183,25,03,74,282,31,04,31,161,28,06,03,318,*78
12: $GPGSV,4,2,14,09,01,228,33,11,32,188,30,12,07,003,15,14,11,051,18*72
12: $GPGSV,4,3,14,17,29,289,34,19,16,219,34,23,38,219,35,25,06,039,18*74
12: $GPGSV,4,4,14,31,39,086,31,32,63,093,33*76
12: $GPGLL,5344.24709,N,02831.17040,E,145221.00,A,A*6C
12: $GPRMC,145222.00,A,5344.25036,N,02831.20125,E,66.950,80.04,241015,,,A*67
12: $GPVTG,80.04,T,,M,66.950,N,123.991,K,A*3C
12: $GPGGA,145222.00,5344.25036,N,02831.20125,E,1,12,0.83,177.9,M,24.3,M,,*53
12: $GPGSA,A,3,32,01,03,04,11,19,17,14,23,31,12,25,1.41,0.83,1.14*02
12: $GPGSV,4,1,14,01,57,183,26,03,74,282,32,04,31,161,27,06,03,318,*77
13: $GPGSV,4,2,14,09,01,228,32,11,32,188,29,12,07,003,15,14,11,051,17*74
13: $GPGSV,4,3,14,17,29,289,33,19,16,219,35,23,38,219,35,25,06,039,18*72
13: $GPGSV,4,4,14,31,39,086,31,32,63,093,33*76
13: $GPGLL,5344.25036,N,02831.20125,E,145222.00,A,A*63
13: $GPRMC,145223.00,A,5344.25359,N,02831.23209,E,66.926,79.98,241015,,,A*60
13: $GPVTG,79.98,T,,M,66.926,N,123.948,K,A*3A
13: $GPGGA,145223.00,5344.25359,N,02831.23209,E,1,12,0.89,178.5,M,24.3,M,,*5F
13: $GPGSA,A,3,32,01,03,04,11,19,17,14,23,31,12,25,1.48,0.89,1.18*0D
13: $GPGSV,4,1,14,01,57,183,26,03,74,282,31,04,31,161,26,06,03,318,*75
14: $GPGSV,4,2,14,09,01,228,32,11,32,188,31,12,07,003,11,14,11,051,16*78
14: $GPGSV,4,3,14,17,29,289,33,19,16,219,35,23,38,219,35,25,06,039,17*7D
14: $GPGSV,4,4,14,31,39,086,31,32,63,093,33*76
14: $GPGLL,5344.25359,N,02831.23209,E,145223.00,A,A*66
14: $GPRMC,145224.00,A,5344.25681,N,02831.26285,E,66.737,79.94,241015,,,A*64
14: $GPVTG,79.94,T,,M,66.737,N,123.596,K,A*37
14: $GPGGA,145224.00,5344.25681,N,02831.26285,E,1,11,0.89,179.2,M,24.3,M,,*5C
14: $GPGSA,A,3,32,01,03,04,11,19,17,14,23,31,25,,1.48,0.89,1.18*0E
14: $GPGSV,4,1,14,01,57,183,25,03,74,282,31,04,31,161,26,06,03,318,*76
15: $GPGSV,4,2,14,09,01,228,31,11,32,188,32,12,07,003,09,14,11,051,16*71
15: $GPGSV,4,3,14,17,29,289,33,19,16,219,34,23,38,219,35,25,06,039,14*7F
15: $GPGSV,4,4,14,31,39,086,31,32,63,093,33*76
15: $GPGLL,5344.25681,N,02831.26285,E,145224.00,A,A*60
15: $GPRMC,145225.00,A,5344.26004,N,02831.29345,E,66.222,79.99,241015,,,A*63
15: $GPVTG,79.99,T,,M,66.222,N,122.643,K,A*31
15: $GPGGA,145225.00,5344.26004,N,02831.29345,E,1,11,0.89,179.6,M,24.3,M,,*53
15: $GPGSA,A,3,32,01,03,04,11,19,17,14,23,31,25,,1.48,0.89,1.18*0E
15: $GPGSV,4,1,14,01,57,183,26,03,74,282,31,04,31,161,25,06,03,318,*76
16: $GPGSV,4,2,14,09,01,228,31,11,32,188,33,12,07,003,,14,11,051,17*78
16: $GPGSV,4,3,14,17,29,289,33,19,16,219,34,23,38,219,35,25,06,039,14*7F
16: $GPGSV,4,4,14,31,39,086,32,32,63,093,33*75
16: $GPGLL,5344.26004,N,02831.29345,E,145225.00,A,A*6B
16: $GPRMC,145226.00,A,5344.26329,N,02831.32399,E,66.254,79.94,241015,,,A*6B
16: $GPVTG,79.94,T,,M,66.254,N,122.703,K,A*38
16: $GPGGA,145226.00,5344.26329,N,02831.32399,E,1,11,0.89,180.0,M,24.3,M,,*57
16: $GPGSA,A,3,32,01,03,04,11,19,17,14,23,31,25,,1.48,0.89,1.18*0E
16: $GPGSV,4,1,14,01,57,183,27,03,74,282,31,04,31,161,25,06,03,318,*77
17: $GPGSV,4,2,14,09,01,228,32,11,32,188,32,12,07,003,,14,11,051,17*7A
17: $GPGSV,4,3,14,17,29,289,33,19,16,219,34,23,38,219,35,25,06,039,14*7F
17: $GPGSV,4,4,14,31,39,086,31,32,63,093,33*76
17: $GPGLL,5344.26329,N,02831.32399,E,145226.00,A,A*6F
17: $GPRMC,145227.00,A,5344.26658,N,02831.35453,E,66.290,79.77,241015,,,A*6A
17: $GPVTG,79.77,T,,M,66.290,N,122.770,K,A*39
17: $GPGGA,145227.00,5344.26658,N,02831.35453,E,1,12,0.89,180.4,M,24.3,M,,*54
17: $GPGSA,A,3,32,01,03,04,11,19,17,14,23,31,12,25,1.48,0.89,1.18*0D
17: $GPGSV,4,1,14,01,57,183,28,03,74,282,32,04,31,161,24,06,03,318,*7A
18: $GPGSV,4,2,14,09,01,228,32,11,32,188,32,12,07,003,14,14,11,051,17*7F
18: $GPGSV,4,3,14,17,29,289,33,19,16,219,34,23,38,219,35,25,06,039,13*78
18: $GPGSV,4,4,14,31,39,086,31,32,63,093,33*76
18: $GPGLL,5344.26658,N,02831.35453,E,145227.00,A,A*6B
18: $GPRMC,145228.00,A,5344.26992,N,02831.38506,E,66.353,79.56,241015,,,A*6D
18: $GPVTG,79.56,T,,M,66.353,N,122.885,K,A*31
18: $GPGGA,145228.00,5344.26992,N,02831.38506,E,1,12,0.89,180.7,M,24.3,M,,*5D
18: $GPGSA,A,3,32,01,03,04,11,19,17,14,23,31,12,25,1.48,0.89,1.18*0D
18: $GPGSV,4,1,14,01,57,183,29,03,74,282,32,04,31,161,23,06,03,318,*7C
19: $GPGSV,4,2,14,09,01,228,31,11,32,188,32,12,07,003,16,14,11,051,18*71
19: $GPGSV,4,3,14,17,29,289,33,19,16,219,34,23,38,219,35,25,06,039,12*79
19: $GPGSV,4,4,14,31,39,086,32,32,63,093,33*75
19: $GPGLL,5344.26992,N,02831.38506,E,145228.00,A,A*61
19: $GPRMC,145229.00,A,5344.27329,N,02831.41572,E,66.532,79.75,241015,,,A*6A
19: $GPVTG,79.75,T,,M,66.532,N,123.217,K,A*31
19: $GPGGA,145229.00,5344.27329,N,02831.41572,E,1,12,0.89,180.8,M,24.3,M,,*55
19: $GPGSA,A,3,32,01,03,04,11,19,17,14,23,31,12,25,1.48,0.89,1.18*0D
19: $GPGSV,4,1,14,01,57,183,30,03,74,282,32,04,31,161,23,06,03,318,*74
20: $GPGSV,4,2,14,09,01,228,31,11,32,188,32,12,07,003,16,14,11,051,20*7A
20: $GPGSV,4,3,14,17,29,289,33,19,16,219,34,23,38,219,35,25,06,039,11*7A
20: $GPGSV,4,4,14,31,39,086,32,32,63,093,34*72
20: $GPGLL,5344.27329,N,02831.41572,E,145229.00,A,A*66
20: $GPRMC,145230.00,A,5344.27659,N,02831.44644,E,66.668,79.93,241015,,,A*67
20: $GPVTG,79.93,T,,M,66.668,N,123.469,K,A*3A
20: $GPGGA,145230.00,5344.27659,N,02831.44644,E,1,12,0.89,180.8,M,24.3,M,,*5C
20: $GPGSA,A,3,32,01,03,04,11,19,17,14,23,31,12,25,1.48,0.89,1.18*0D
20: $GPGSV,4,1,14,01,57,183,29,03,74,282,32,04,31,161,24,06,03,318,20*79
21: $GPGSV,4,2,14,09,01,228,28,11,32,188,33,12,07,003,15,14,11,051,20*70
21: $GPGSV,4,3,14,17,29,289,33,19,16,219,34,23,38,219,35,25,06,039,13*78
21: $GPGSV,4,4,14,31,39,086,32,32,63,093,34*72
21: $GPGLL,5344.27659,N,02831.44644,E,145230.00,A,A*6F
21: $GPRMC,145231.00,A,5344.27987,N,02831.47720,E,66.776,79.93,241015,,,A*64
21: $GPVTG,79.93,T,,M,66.776,N,123.669,K,A*36
21: $GPGGA,145231.00,5344.27987,N,02831.47720,E,1,12,0.89,181.0,M,24.3,M,,*58
21: $GPGSA,A,3,32,01,03,04,11,19,17,14,23,31,12,25,1.48,0.89,1.18*0D
22: $GPGSV,4,1,14,01,57,183,29,03,74,282,32,04,31,161,25,06,03,318,20*78
22: $GPGSV,4,2,14,09,01,228,25,11,32,188,33,12,07,003,13,14,11,051,21*7A
22: $GPGSV,4,3,14,17,29,289,33,19,16,219,35,23,38,219,35,25,06,039,14*7E
22: $GPGSV,4,4,14,31,39,086,32,32,63,093,34*72
22: $GPGLL,5344.27987,N,02831.47720,E,145231.00,A,A*62
22: $GPRMC,145232.00,A,5344.28317,N,02831.50799,E,66.974,79.77,241015,,,A*69
22: $GPVTG,79.77,T,,M,66.974,N,124.035,K,A*38
22: $GPGGA,145232.00,5344.28317,N,02831.50799,E,1,12,0.83,181.2,M,24.3,M,,*5B
22: $GPGSA,A,3,32,01,03,04,11,19,17,14,23,31,12,25,1.41,0.83,1.14*02
23: $GPGSV,4,1,14,01,57,183,30,03,74,282,32,04,31,161,24,06,03,318,21*70
23: $GPGSV,4,2,14,09,01,228,21,11,32,188,33,12,07,003,13,14,11,051,22*7D
23: $GPGSV,4,3,14,17,29,289,33,19,16,219,35,23,38,219,35,25,06,039,15*7F
23: $GPGSV,4,4,14,31,39,086,32,32,63,093,34*72
23: $GPGLL,5344.28317,N,02831.50799,E,145232.00,A,A*69
23: $GPRMC,145233.00,A,5344.28654,N,02831.53890,E,67.263,79.59,241015,,,A*6F
23: $GPVTG,79.59,T,,M,67.263,N,124.570,K,A*3C
23: $GPGGA,145233.00,5344.28654,N,02831.53890,E,1,12,0.83,181.3,M,24.3,M,,*5C
23: $GPGSA,A,3,32,01,03,04,11,19,17,14,23,31,12,25,1.41,0.83,1.14*02
23: $GPGSV,4,1,14,01,57,183,29,03,74,282,32,04,31,161,23,06,03,318,22*7C
24: $GPGSV,4,2,14,09,01,228,18,11,32,188,33,12,07,003,14,14,11,051,23*71
24: $GPGSV,4,3,14,17,29,289,33,19,16,219,34,23,38,219,35,25,06,039,15*7E
24: $GPGSV,4,4,14,31,39,086,32,32,63,093,34*72
24: $GPGLL,5344.28654,N,02831.53890,E,145233.00,A,A*6F
24: $GPRMC,145234.00,A,5344.28989,N,02831.56992,E,67.433,79.75,241015,,,A*6C
24: $GPVTG,79.75,T,,M,67.433,N,124.887,K,A*34
24: $GPGGA,145234.00,5344.28989,N,02831.56992,E,1,12,0.83,181.4,M,24.3,M,,*55
24: $GPGSA,A,3,32,01,03,04,11,19,17,14,23,31,12,25,1.41,0.83,1.14*02
24: $GPGSV,4,1,14,01,57,183,30,03,74,282,31,04,31,161,24,06,03,318,22*70
25: $GPGSV,4,2,14,09,01,228,20,11,32,188,33,12,07,003,13,14,11,051,23*7D
25: $GPGSV,4,3,14,17,29,289,33,19,16,219,34,23,38,219,35,25,06,039,15*7E
25: $GPGSV,4,4,14,31,39,086,32,32,63,093,33*75
25: $GPGLL,5344.28989,N,02831.56992,E,145234.00,A,A*61
25: $GPRMC,145235.00,A,5344.29323,N,02831.60104,E,67.718,79.79,241015,,,A*62
25: $GPVTG,79.79,T,,M,67.718,N,125.414,K,A*35
25: $GPGGA,145235.00,5344.29323,N,02831.60104,E,1,12,0.83,181.4,M,24.3,M,,*5D
25: $GPGSA,A,3,32,01,03,04,11,19,17,14,23,31,12,25,1.41,0.83,1.14*02
25: $GPGSV,4,1,14,01,57,183,30,03,74,282,32,04,31,161,26,06,03,318,23*70
26: $GPGSV,4,2,14,09,01,228,23,11,32,188,34,12,07,003,10,14,11,051,23*7A
26: $GPGSV,4,3,14,17,29,289,33,19,16,219,34,23,38,219,35,25,06,039,15*7E
26: $GPGSV,4,4,14,31,39,086,32,32,63,093,33*75
26: $GPGLL,5344.29323,N,02831.60104,E,145235.00,A,A*69
26: $GPRMC,145236.00,A,5344.29662,N,02831.63234,E,68.010,79.69,241015,,,A*63
26: $GPVTG,79.69,T,,M,68.010,N,125.954,K,A*3D
26: $GPGGA,145236.00,5344.29662,N,02831.63234,E,1,11,0.89,181.1,M,24.3,M,,*51
26: $GPGSA,A,3,32,01,03,04,11,19,17,14,23,31,25,,1.47,0.89,1.18*01
26: $GPGSV,4,1,14,01,57,183,30,03,74,282,32,04,31,161,26,06,03,318,23*70
27: $GPGSV,4,2,14,09,01,228,26,11,32,188,33,12,07,003,,14,11,051,24*7E
27: $GPGSV,4,3,14,17,29,289,33,19,16,219,34,23,38,219,35,25,06,039,16*7D
27: $GPGSV,4,4,14,31,39,086,32,32,63,093,33*75
27: $GPGLL,5344.29662,N,02831.63234,E,145236.00,A,A*69
27: $GPRMC,145237.00,A,5344.30003,N,02831.66372,E,68.217,79.68,241015,,,A*69
27: $GPVTG,79.68,T,,M,68.217,N,126.339,K,A*3B
27: $GPGGA,145237.00,5344.30003,N,02831.66372,E,1,11,0.89,180.9,M,24.3,M,,*56
27: $GPGSA,A,3,32,01,03,04,11,19,17,14,23,31,25,,1.47,0.89,1.18*01
27: $GPGSV,4,1,14,01,57,183,30,03,74,282,32,04,31,161,26,06,03,318,22*71
28: $GPGSV,4,2,14,09,01,228,33,11,32,188,34,12,07,003,,14,11,051,23*7A
28: $GPGSV,4,3,14,17,29,289,33,19,16,219,34,23,38,219,35,25,06,039,18*73
28: $GPGSV,4,4,14,31,39,086,33,32,63,093,34*73
28: $GPGLL,5344.30003,N,02831.66372,E,145237.00,A,A*67
28: $GPRMC,145238.00,A,5344.30347,N,02831.69516,E,68.354,79.67,241015,,,A*67
28: $GPVTG,79.67,T,,M,68.354,N,126.592,K,A*35
28: $GPGGA,145238.00,5344.30347,N,02831.69516,E,1,11,0.89,180.7,M,24.3,M,,*5F
28: $GPGSA,A,3,32,01,03,04,11,19,17,14,23,31,25,,1.47,0.89,1.18*01
28: $GPGSV,4,1,14,01,57,183,30,03,74,282,33,04,31,161,27,06,03,318,21*72
29: $GPGSV,4,2,14,09,01,228,33,11,32,188,34,12,07,003,,14,11,051,23*7A
29: $GPGSV,4,3,14,17,29,289,33,19,16,219,34,23,38,219,35,25,06,039,19*72
29: $GPGSV,4,4,14,31,39,086,33,32,63,093,34*73
29: $GPGLL,5344.30347,N,02831.69516,E,145238.00,A,A*60
29: $GPRMC,145239.00,A,5344.30693,N,02831.72672,E,68.534,79.65,241015,,,A*63
29: $GPVTG,79.65,T,,M,68.534,N,126.924,K,A*36
29: $GPGGA,145239.00,5344.30693,N,02831.72672,E,1,11,0.89,180.4,M,24.3,M,,*5A
29: $GPGSA,A,3,32,01,03,04,11,19,17,14,23,31,25,,1.47,0.89,1.18*01
29: $GPGSV,4,1,14,01,57,183,30,03,74,282,32,04,31,161,27,06,03,318,20*72
30: $GPGSV,4,2,14,09,01,228,37,11,32,188,34,12,07,003,,14,11,051,24*79
30: $GPGSV,4,3,14,17,29,289,33,19,16,219,33,23,38,219,35,25,06,039,18*74
30: $GPGSV,4,4,14,31,39,086,33,32,63,093,33*74
30: $GPGLL,5344.30693,N,02831.72672,E,145239.00,A,A*66
30: $GPRMC,145240.00,A,5344.31040,N,02831.75834,E,68.752,79.62,241015,,,A*6A
30: $GPVTG,79.62,T,,M,68.752,N,127.328,K,A*34
30: $GPGGA,145240.00,5344.31040,N,02831.75834,E,1,11,0.89,180.1,M,24.2,M,,*52
30: $GPGSA,A,3,32,01,03,04,11,19,17,14,23,31,25,,1.47,0.89,1.18*01
30: $GPGSV,4,1,14,01,57,183,30,03,74,282,32,04,31,161,27,06,03,318,21*73
31: $GPGSV,4,2,14,09,01,228,36,11,32,188,34,12,07,003,,14,11,051,25*79
31: $GPGSV,4,3,14,17,29,289,33,19,16,219,33,23,38,219,35,25,06,039,19*75
31: $GPGSV,4,4,14,31,39,086,33,32,63,093,33*74
31: $GPGLL,5344.31040,N,02831.75834,E,145240.00,A,A*6A
31: $GPRMC,145241.00,A,5344.31387,N,02831.79005,E,68.922,79.59,241015,,,A*64
31: $GPVTG,79.59,T,,M,68.922,N,127.644,K,A*3A
31: $GPGGA,145241.00,5344.31387,N,02831.79005,E,1,11,0.89,179.7,M,24.2,M,,*5D
31: $GPGSA,A,3,32,01,03,04,11,19,17,14,23,31,25,,1.47,0.89,1.18*01
31: $GPGSV,4,1,14,01,57,183,30,03,74,282,32,04,31,161,27,06,03,318,21*73
32: $GPGSV,4,2,14,09,01,228,36,11,32,188,34,12,07,003,,14,11,051,25*79
32: $GPGSV,4,3,14,17,29,289,33,19,16,219,33,23,38,219,35,25,06,039,18*74
32: $GPGSV,4,4,14,31,39,086,33,32,63,093,33*74
32: $GPGLL,5344.31387,N,02831.79005,E,145241.00,A,A*65
32: $GPRMC,145242.00,A,5344.31732,N,02831.82184,E,69.030,79.82,241015,,,A*6C
32: $GPVTG,79.82,T,,M,69.030,N,127.843,K,A*3E
32: $GPGGA,145242.00,5344.31732,N,02831.82184,E,1,11,0.89,179.2,M,24.2,M,,*5D
32: $GPGSA,A,3,32,01,03,04,11,19,17,14,23,31,25,,1.47,0.89,1.18*01
33: $GPGSV,4,1,14,01,57,183,31,03,74,282,32,04,31,161,27,06,03,318,22*71
33: $GPGSV,4,2,14,09,01,228,36,11,32,188,34,12,07,003,,14,11,051,25*79
33: $GPGSV,4,3,14,17,29,289,33,19,16,219,33,23,38,219,35,25,06,039,17*7B
33: $GPGSV,4,4,14,31,39,086,32,32,63,093,33*75
33: $GPGLL,5344.31732,N,02831.82184,E,145242.00,A,A*60
33: $GPRMC,145243.00,A,5344.32072,N,02831.85367,E,69.179,79.90,241015,,,A*6A
33: $GPVTG,79.90,T,,M,69.179,N,128.120,K,A*32
33: $GPGGA,145243.00,5344.32072,N,02831.85367,E,1,11,0.89,178.8,M,24.2,M,,*5F
33: $GPGSA,A,3,32,01,03,04,11,19,17,14,23,31,25,,1.47,0.89,1.18*01
34: $GPGSV,4,1,14,01,57,183,31,03,74,282,33,04,31,161,27,06,03,318,23*71
34: $GPGSV,4,2,14,09,01,228,35,11,32,188,34,12,07,003,,14,11,051,25*7A
34: $GPGSV,4,3,14,17,29,289,33,19,16,219,33,23,38,219,36,25,06,039,16*79
34: $GPGSV,4,4,14,31,39,086,32,32,63,093,32*74
34: $GPGLL,5344.32072,N,02831.85367,E,145243.00,A,A*69
34: $GPRMC,145244.00,A,5344.32413,N,02831.88556,E,69.274,79.89,241015,,,A*61
34: $GPVTG,79.89,T,,M,69.274,N,128.296,K,A*3A
34: $GPGGA,145244.00,5344.32413,N,02831.88556,E,1,11,0.89,178.3,M,24.2,M,,*59
34: $GPGSA,A,3,32,01,03,04,11,19,17,14,23,31,25,,1.47,0.89,1.18*01
34: $GPGSV,4,1,14,01,57,183,30,03,74,282,33,04,31,161,27,06,03,318,23*70
35: $GPGSV,4,2,14,09,01,228,34,11,32,188,34,12,07,003,,14,11,051,25*7B
35: $GPGSV,4,3,14,17,29,289,33,19,16,219,33,23,38,219,35,25,06,039,16*7A
35: $GPGSV,4,4,14,31,39,086,32,32,63,093,32*74
35: $GPGLL,5344.32413,N,02831.88556,E,145244.00,A,A*64
35: $GPRMC,145245.00,A,5344.32754,N,02831.91749,E,69.382,79.79,241015,,,A*63
35: $GPVTG,79.79,T,,M,69.382,N,128.495,K,A*38
35: $GPGGA,145245.00,5344.32754,N,02831.91749,E,1,12,0.89,177.9,M,24.2,M,,*5A
35: $GPGSA,A,3,32,01,03,04,11,19,17,14,23,31,12,25,1.47,0.89,1.18*02
35: $GPGSV,4,1,14,01,57,183,30,03,74,282,32,04,31,161,25,06,03,318,22*72
36: $GPGSV,4,2,14,09,01,228,27,11,32,188,30,12,07,003,16,14,11,051,26*79
36: $GPGSV,4,3,14,17,29,289,33,19,16,219,34,23,38,219,35,25,06,039,18*73
36: $GPGSV,4,4,14,31,39,086,32,32,63,093,32*74
36: $GPGLL,5344.32754,N,02831.91749,E,145245.00,A,A*61
36: $GPRMC,145246.00,A,5344.33097,N,02831.94946,E,69.469,79.80,241015,,,A*69
36: $GPVTG,79.80,T,,M,69.469,N,128.657,K,A*30
36: $GPGGA,145246.00,5344.33097,N,02831.94946,E,1,12,0.89,177.4,M,24.2,M,,*59
36: $GPGSA,A,3,32,01,03,04,11,19,17,14,23,31,12,25,1.47,0.89,1.18*02
36: $GPGSV,4,1,14,01,57,183,30,03,74,282,32,04,31,161,21,06,03,318,23*77
37: $GPGSV,4,2,14,09,01,228,26,11,32,188,32,12,07,003,16,14,11,051,26*7A
37: $GPGSV,4,3,14,17,29,289,33,19,16,219,33,23,38,219,34,25,06,039,20*7E
37: $GPGSV,4,4,14,31,39,086,32,32,63,093,32*74
37: $GPGLL,5344.33097,N,02831.94946,E,145246.00,A,A*6F
37: $GPRMC,145247.00,A,5344.33440,N,02831.98143,E,69.422,79.81,241015,,,A*69
37: $GPVTG,79.81,T,,M,69.422,N,128.569,K,A*30
37: $GPGGA,145247.00,5344.33440,N,02831.98143,E,1,12,0.89,176.9,M,24.2,M,,*5B
37: $GPGSA,A,3,32,01,03,04,11,19,17,14,23,31,12,25,1.47,0.89,1.18*02
37: $GPGSV,4,1,14,01,57,183,29,03,74,282,31,04,31,161,19,06,03,318,23*77
38: $GPGSV,4,2,14,09,01,228,25,11,32,188,32,12,07,003,14,14,11,051,24*79
38: $GPGSV,4,3,14,17,29,289,33,19,16,219,34,23,38,219,34,25,06,039,22*7B
38: $GPGSV,4,4,14,31,39,086,32,32,63,093,32*74
38: $GPGLL,5344.33440,N,02831.98143,E,145247.00,A,A*61
38: $GPRMC,145248.00,A,5344.33780,N,02832.01335,E,69.263,79.88,241015,,,A*63
38: $GPVTG,79.88,T,,M,69.263,N,128.276,K,A*33
38: $GPGGA,145248.00,5344.33780,N,02832.01335,E,1,12,0.89,176.4,M,24.2,M,,*56
38: $GPGSA,A,3,32,01,03,04,11,19,17,14,23,31,12,25,1.47,0.89,1.18*02
38: $GPGSV,4,1,14,01,57,183,29,03,74,282,32,04,31,161,20,06,03,318,25*78
39: $GPGSV,4,2,14,09,01,228,26,11,32,188,32,12,07,003,15,14,11,051,23*7C
39: $GPGSV,4,3,14,17,29,289,33,19,16,219,34,23,38,219,34,25,06,039,23*7A
39: $GPGSV,4,4,14,31,39,086,31,32,63,093,31*74
39: $GPGLL,5344.33780,N,02832.01335,E,145248.00,A,A*61
39: $GPRMC,145249.00,A,5344.34121,N,02832.04528,E,69.347,79.83,241015,,,A*6B
39: $GPVTG,79.83,T,,M,69.347,N,128.431,K,A*3A
39: $GPGGA,145249.00,5344.34121,N,02832.04528,E,1,12,0.83,175.8,M,24.2,M,,*57
39: $GPGSA,A,3,32,01,03,04,11,19,17,14,23,31,12,25,1.41,0.83,1.14*02
40: $GPGSV,4,1,14,01,57,183,29,03,74,282,32,04,31,161,22,06,03,318,25*7A
40: $GPGSV,4,2,14,09,01,228,24,11,32,188,33,12,07,003,16,14,11,051,25*7A
40: $GPGSV,4,3,14,17,29,289,33,19,16,219,33,23,38,219,34,25,06,039,21*7F
40: $GPGSV,4,4,14,31,39,086,32,32,63,093,31*77
40: $GPGLL,5344.34121,N,02832.04528,E,145249.00,A,A*65
40: $GPRMC,145250.00,A,5344.34464,N,02832.07710,E,69.150,79.64,241015,,,A*60
40: $GPVTG,79.64,T,,M,69.150,N,128.067,K,A*30
40: $GPGGA,145250.00,5344.34464,N,02832.07710,E,1,12,0.83,175.4,M,24.2,M,,*5D
40: $GPGSA,A,3,32,01,03,04,11,19,17,14,23,31,12,25,1.41,0.83,1.14*02
40: $GPGSV,4,1,14,01,57,183,30,03,74,282,31,04,31,161,23,06,03,318,24*71
41: $GPGSV,4,2,14,09,01,228,31,11,32,188,33,12,07,003,16,14,11,051,25*7E
41: $GPGSV,4,3,14,17,29,289,33,19,16,219,33,23,38,219,35,25,06,039,20*7F
41: $GPGSV,4,4,14,31,39,086,32,32,63,093,32*74
41: $GPGLL,5344.34464,N,02832.07710,E,145250.00,A,A*63
41: $GPRMC,145251.00,A,5344.34812,N,02832.10885,E,68.979,79.58,241015,,,A*64
41: $GPVTG,79.58,T,,M,68.979,N,127.748,K,A*38
41: $GPGGA,145251.00,5344.34812,N,02832.10885,E,1,12,0.83,175.0,M,24.2,M,,*50
41: $GPGSA,A,3,32,01,03,04,11,19,17,14,23,31,12,25,1.41,0.83,1.14*02
41: $GPGSV,4,1,14,01,57,183,30,03,74,282,32,04,31,161,23,06,03,318,23*75
42: $GPGSV,4,2,14,09,01,228,32,11,32,188,33,12,07,003,16,14,11,051,25*7D
42: $GPGSV,4,3,14,17,29,289,33,19,16,219,33,23,38,219,35,25,06,039,19*75
42: $GPGSV,4,4,14,31,39,086,32,32,63,093,32*74
42: $GPGLL,5344.34812,N,02832.10885,E,145251.00,A,A*6A
42: $GPRMC,145252.00,A,5344.35158,N,02832.14053,E,68.806,79.60,241015,,,A*64
42: $GPVTG,79.60,T,,M,68.806,N,127.428,K,A*3F
42: $GPGGA,145252.00,5344.35158,N,02832.14053,E,1,12,0.83,174.7,M,24.2,M,,*54
42: $GPGSA,A,3,32,01,03,04,11,19,17,14,23,31,12,25,1.41,0.83,1.14*02
42: $GPGSV,4,1,14,01,57,183,30,03,74,282,31,04,31,161,23,06,03,318,22*77
43: $GPGSV,4,2,14,09,01,228,33,11,32,188,32,12,07,003,18,14,11,051,24*72
43: $GPGSV,4,3,14,17,29,289,34,19,16,219,33,23,38,219,35,25,06,039,18*73
43: $GPGSV,4,4,14,31,39,086,32,32,63,093,32*74
43: $GPGLL,5344.35158,N,02832.14053,E,145252.00,A,A*68
43: $GPRMC,145253.00,A,5344.35500,N,02832.17211,E,68.637,79.71,241015,,,A*67
43: $GPVTG,79.71,T,,M,68.637,N,127.115,K,A*38
43: $GPGGA,145253.00,5344.35500,N,02832.17211,E,1,12,0.83,174.6,M,24.2,M,,*5A
43: $GPGSA,A,3,32,01,03,04,11,19,17,14,23,31,12,25,1.41,0.83,1.14*02
43: $GPGSV,4,1,14,01,57,183,29,03,74,282,31,04,31,161,22,06,03,318,23*7F
44: $GPGSV,4,2,14,09,01,228,33,11,32,188,33,12,07,003,19,14,11,051,23*75
44: $GPGSV,4,3,14,17,29,289,33,19,16,219,34,23,38,219,34,25,06,039,18*72
44: $GPGSV,4,4,14,31,39,086,31,32,63,093,33*76
44: $GPGLL,5344.35500,N,02832.17211,E,145253.00,A,A*67
44: $GPRMC,145254.00,A,5344.35837,N,02832.20354,E,68.285,79.73,241015,,,A*62
44: $GPVTG,79.73,T,,M,68.285,N,126.464,K,A*35
44: $GPGGA,145254.00,5344.35837,N,02832.20354,E,1,12,0.83,174.6,M,24.2,M,,*50
44: $GPGSA,A,3,32,01,03,04,11,19,17,14,23,31,12,25,1.41,0.83,1.14*02
44: $GPGSV,4,1,14,01,57,183,28,03,74,282,31,04,31,161,20,06,03,318,23*7C
45: $GPGSV,4,2,14,09,01,228,34,11,32,188,31,12,07,003,17,14,11,051,22*7F
45: $GPGSV,4,3,14,17,29,289,33,19,16,219,34,23,38,219,34,25,06,039,19*73
45: $GPGSV,4,4,14,31,39,086,31,32,63,093,33*76
45: $GPGLL,5344.35837,N,02832.20354,E,145254.00,A,A*6D
45: $GPRMC,145255.00,A,5344.36174,N,02832.23487,E,68.029,79.73,241015,,,A*60
45: $GPVTG,79.73,T,,M,68.029,N,125.990,K,A*34
45: $GPGGA,145255.00,5344.36174,N,02832.23487,E,1,12,0.83,174.7,M,24.2,M,,*57
45: $GPGSA,A,3,32,01,03,04,11,19,17,14,23,31,12,25,1.41,0.83,1.14*02
46: $GPGSV,4,1,14,01,57,182,27,03,74,282,30,04,31,161,18,06,03,318,24*7F
46: $GPGSV,4,2,14,09,01,228,34,11,32,188,30,12,07,003,15,14,11,051,20*7E
46: $GPGSV,4,3,14,17,29,289,32,19,16,219,34,23,38,219,33,25,06,039,17*7B
46: $GPGSV,4,4,14,31,39,086,31,32,63,093,33*76
46: $GPGLL,5344.36174,N,02832.23487,E,145255.00,A,A*6B
46: $GPRMC,145256.00,A,5344.36508,N,02832.26597,E,67.469,79.74,241015,,,A*61
46: $GPVTG,79.74,T,,M,67.469,N,124.952,K,A*33
46: $GPGGA,145256.00,5344.36508,N,02832.26597,E,1,12,0.83,175.0,M,24.2,M,,*58
46: $GPGSA,A,3,32,01,03,04,11,19,17,14,23,31,12,25,1.41,0.83,1.14*02
46: $GPGSV,4,1,14,01,57,182,28,03,74,282,31,04,31,161,20,06,03,318,24*7A
47: $GPGSV,4,2,14,09,01,228,34,11,32,188,32,12,07,003,18,14,11,051,20*71
47: $GPGSV,4,3,14,17,29,289,33,19,16,219,34,23,38,219,34,25,06,039,19*73
47: $GPGSV,4,4,14,31,39,086,32,32,63,093,33*75
47: $GPGLL,5344.36508,N,02832.26597,E,145256.00,A,A*62
47: $GPRMC,145257.00,A,5344.36840,N,02832.29680,E,66.828,79.78,241015,,,A*6F
47: $GPVTG,79.78,T,,M,66.828,N,123.765,K,A*3A
47: $GPGGA,145257.00,5344.36840,N,02832.29680,E,1,12,0.83,175.2,M,24.2,M,,*50
47: $GPGSA,A,3,32,01,03,04,11,19,17,14,23,31,12,25,1.41,0.83,1.14*02
47: $GPGSV,4,1,14,01,57,182,28,03,75,282,31,04,31,161,22,06,03,318,22*7F
48: $GPGSV,4,2,14,09,01,228,19,11,32,188,32,12,07,003,19,14,11,051,19*75
48: $GPGSV,4,3,14,17,29,289,33,19,16,219,34,23,38,219,34,25,06,039,16*7C
48: $GPGSV,4,4,14,31,39,086,31,32,63,093,33*76
48: $GPGLL,5344.36840,N,02832.29680,E,145257.00,A,A*68
48: $GPRMC,145258.00,A,5344.37165,N,02832.32710,E,65.537,79.69,241015,,,A*6D
48: $GPVTG,79.69,T,,M,65.537,N,121.374,K,A*3C
48: $GPGGA,145258.00,5344.37165,N,02832.32710,E,1,12,0.83,175.6,M,24.2,M,,*56
48: $GPGSA,A,3,32,01,03,04,11,19,17,14,23,31,12,25,1.41,0.83,1.14*02
49: $GPGSV,4,1,14,01,57,182,28,03,75,282,30,04,31,162,22,06,03,318,19*75
49: $GPGSV,4,2,14,09,01,228,29,11,32,188,32,12,07,003,19,14,11,051,18*77
49: $GPGSV,4,3,14,17,29,289,34,19,16,219,35,23,38,219,34,25,06,039,16*7A
49: $GPGSV,4,4,14,31,39,086,31,32,63,093,34*71
49: $GPGLL,5344.37165,N,02832.32710,E,145258.00,A,A*6A
49: $GPRMC,145259.00,A,5344.37485,N,02832.35676,E,64.170,79.70,241015,,,A*6F
49: $GPVTG,79.70,T,,M,64.170,N,118.843,K,A*37
49: $GPGGA,145259.00,5344.37485,N,02832.35676,E,1,12,0.83,176.2,M,24.2,M,,*5D
49: $GPGSA,A,3,32,01,03,04,11,19,17,14,23,31,12,25,1.41,0.83,1.14*02
50: $GPGSV,4,1,14,01,57,182,28,03,75,282,31,04,31,162,23,06,03,318,18*74
50: $GPGSV,4,2,14,09,01,228,34,11,32,188,32,12,07,003,19,14,11,051,16*75
50: $GPGSV,4,3,14,17,29,289,33,19,16,219,35,23,38,219,34,25,06,039,15*7E
50: $GPGSV,4,4,14,31,39,086,30,32,63,093,33*77
50: $GPGLL,5344.37485,N,02832.35676,E,145259.00,A,A*66
50: $GPRMC,145300.00,A,5344.37802,N,02832.38576,E,62.684,79.58,241015,,,A*6F
50: $GPVTG,79.58,T,,M,62.684,N,116.090,K,A*3F
50: $GPGGA,145300.00,5344.37802,N,02832.38576,E,1,12,0.83,176.9,M,24.2,M,,*56
50: $GPGSA,A,3,32,01,03,04,11,19,17,14,23,31,12,25,1.41,0.83,1.14*02
50: $GPGSV,4,1,14,01,57,182,28,03,75,282,32,04,31,162,23,06,03,318,21*7D
51: $GPGSV,4,2,14,09,01,228,29,11,32,188,32,12,07,003,19,14,11,051,14*7B
51: $GPGSV,4,3,14,17,29,289,33,19,16,219,35,23,38,219,35,25,06,039,17*7D
51: $GPGSV,4,4,14,31,39,086,31,32,63,093,34*71
51: $GPGLL,5344.37802,N,02832.38576,E,145300.00,A,A*66
51: $GPRMC,145301.00,A,5344.38114,N,02832.41421,E,61.480,79.63,241015,,,A*6F
51: $GPVTG,79.63,T,,M,61.480,N,113.861,K,A*31
51: $GPGGA,145301.00,5344.38114,N,02832.41421,E,1,12,0.83,177.3,M,24.2,M,,*50
51: $GPGSA,A,3,32,01,03,04,11,19,17,14,23,31,12,25,1.41,0.83,1.14*02
52: $GPGSV,4,1,14,01,57,182,29,03,75,282,31,04,31,162,22,06,03,318,23*7C
52: $GPGSV,4,2,14,09,01,228,27,11,32,188,32,12,07,003,18,14,11,051,15*75
52: $GPGSV,4,3,14,17,29,289,33,19,16,219,35,23,38,219,35,25,06,039,18*72
52: $GPGSV,4,4,14,31,39,086,31,32,63,093,34*71
52: $GPGLL,5344.38114,N,02832.41421,E,145301.00,A,A*6B
52: $GPRMC,145302.00,A,5344.38418,N,02832.44217,E,60.542,79.67,241015,,,A*69
52: $GPVTG,79.67,T,,M,60.542,N,112.123,K,A*35
52: $GPGGA,145302.00,5344.38418,N,02832.44217,E,1,12,0.83,177.7,M,24.2,M,,*58
52: $GPGSA,A,3,32,01,03,04,11,19,17,14,23,31,12,25,1.41,0.83,1.14*02
52: $GPGSV,4,1,14,01,57,182,28,03,75,282,31,04,31,162,21,06,03,318,24*79
53: $GPGSV,4,2,14,09,01,228,33,11,32,188,31,12,07,003,17,14,11,051,16*7F
53: $GPGSV,4,3,14,17,29,289,32,19,16,219,34,23,38,219,35,25,06,039,18*72
53: $GPGSV,4,4,14,31,39,086,30,32,63,093,33*77
53: $GPGLL,5344.38418,N,02832.44217,E,145302.00,A,A*67
53: $GPRMC,145303.00,A,5344.38718,N,02832.46986,E,59.955,79.80,241015,,,A*63
53: $GPVTG,79.80,T,,M,59.955,N,111.037,K,A*3B
53: $GPGGA,145303.00,5344.38718,N,02832.46986,E,1,12,0.83,178.0,M,24.2,M,,*53
53: $GPGSA,A,3,32,01,03,04,11,19,17,14,23,31,12,25,1.41,0.83,1.14*02
53: $GPGSV,4,1,14,01,57,182,28,03,75,282,32,04,31,162,21,06,03,318,24*7A
54: $GPGSV,4,2,14,09,02,228,34,11,32,188,31,12,07,003,17,14,11,051,16*7B
54: $GPGSV,4,3,14,17,29,289,32,19,16,219,34,23,38,219,35,25,06,039,17*7D
54: $GPGSV,4,4,14,31,39,086,30,32,63,093,33*77
54: $GPGLL,5344.38718,N,02832.46986,E,145303.00,A,A*64
54: $GPRMC,145304.00,A,5344.39012,N,02832.49736,E,59.614,79.94,241015,,,A*6D
54: $GPVTG,79.94,T,,M,59.614,N,110.405,K,A*30
54: $GPGGA,145304.00,5344.39012,N,02832.49736,E,1,12,0.82,178.4,M,24.2,M,,*57
54: $GPGSA,A,3,32,01,03,04,11,19,17,14,23,31,12,25,1.41,0.82,1.14*03
54: $GPGSV,4,1,14,01,57,182,27,03,75,282,31,04,31,162,21,06,03,318,25*77
55: $GPGSV,4,2,14,09,02,228,32,11,32,188,30,12,07,003,16,14,11,051,14*7F
55: $GPGSV,4,3,14,17,29,289,32,19,16,219,35,23,38,219,35,25,06,039,15*7E
55: $GPGSV,4,4,14,31,39,086,30,32,63,093,33*77
55: $GPGLL,5344.39012,N,02832.49736,E,145304.00,A,A*65
55: $GPRMC,145305.00,A,5344.39303,N,02832.52480,E,59.627,79.88,241015,,,A*66
55: $GPVTG,79.88,T,,M,59.627,N,110.430,K,A*3B
55: $GPGGA,145305.00,5344.39303,N,02832.52480,E,1,12,0.82,178.9,M,24.2,M,,*5C
55: $GPGSA,A,3,32,01,03,04,11,19,17,14,23,31,12,25,1.41,0.82,1.14*03
55: $GPGSV,4,1,14,01,57,182,27,03,75,282,32,04,31,162,22,06,03,318,24*76
56: $GPGSV,4,2,14,09,02,228,33,11,31,188,31,12,07,003,15,14,11,051,11*7A
56: $GPGSV,4,3,14,17,29,289,33,19,16,219,35,23,38,219,35,25,06,039,16*7C
56: $GPGSV,4,4,14,31,39,086,30,32,63,093,34*70
56: $GPGLL,5344.39303,N,02832.52480,E,145305.00,A,A*63
56: $GPRMC,145306.00,A,5344.39603,N,02832.55207,E,59.144,79.41,241015,,,A*69
56: $GPVTG,79.41,T,,M,59.144,N,109.535,K,A*30
56: $GPGGA,145306.00,5344.39603,N,02832.55207,E,1,12,0.82,179.2,M,24.2,M,,*5E
56: $GPGSA,A,3,32,01,03,04,11,19,17,14,23,31,12,25,1.41,0.82,1.14*03
56: $GPGSV,4,1,14,01,57,182,28,03,75,282,31,04,31,162,22,06,03,318,24*7A
57: $GPGSV,4,2,14,09,02,228,35,11,31,188,32,12,07,003,15,14,11,051,10*7E
57: $GPGSV,4,3,14,17,29,289,33,19,16,219,34,23,38,219,32,25,06,039,19*75
57: $GPGSV,4,4,14,31,39,086,31,32,63,093,34*71
57: $GPGLL,5344.39603,N,02832.55207,E,145306.00,A,A*6B
57: $GPRMC,145307.00,A,5344.39900,N,02832.57885,E,57.829,79.49,241015,,,A*62
57: $GPVTG,79.49,T,,M,57.829,N,107.100,K,A*38
57: $GPGGA,145307.00,5344.39900,N,02832.57885,E,1,11,0.86,179.4,M,24.2,M,,*50
57: $GPGSA,A,3,32,01,03,04,11,19,17,23,31,12,25,,1.46,0.86,1.18*09
57: $GPGSV,4,1,14,01,57,182,29,03,75,282,31,04,31,162,22,06,03,318,23*7C
58: $GPGSV,4,2,14,09,02,228,35,11,31,188,33,12,07,003,16,14,11,051,08*75
58: $GPGSV,4,3,14,17,29,289,34,19,16,219,34,23,38,219,35,25,06,039,18*74
58: $GPGSV,4,4,14,31,39,086,32,32,63,093,34*72
58: $GPGLL,5344.39900,N,02832.57885,E,145307.00,A,A*64
58: $GPRMC,145308.00,A,5344.40185,N,02832.60489,E,56.217,79.57,241015,,,A*6B
58: $GPVTG,79.57,T,,M,56.217,N,104.114,K,A*37
58: $GPGGA,145308.00,5344.40185,N,02832.60489,E,1,11,0.86,179.8,M,24.2,M,,*5C
58: $GPGSA,A,3,32,01,03,04,11,19,17,23,31,12,25,,1.46,0.86,1.18*09
58: $GPGSV,4,1,14,01,57,182,29,03,75,282,31,04,31,162,21,06,03,318,23*7F
59: $GPGSV,4,2,14,09,02,228,30,11,31,188,32,12,07,003,16,14,10,051,07*7F
59: $GPGSV,4,3,14,17,29,289,34,19,16,219,34,23,38,219,35,25,06,039,19*75
59: $GPGSV,4,4,14,31,39,086,31,32,63,093,34*71
59: $GPGLL,5344.40185,N,02832.60489,E,145308.00,A,A*64
59: $GPRMC,145309.00,A,5344.40462,N,02832.63031,E,54.823,79.71,241015,,,A*69
59: $GPVTG,79.71,T,,M,54.823,N,101.533,K,A*38
59: $GPGGA,145309.00,5344.40462,N,02832.63031,E,1,11,0.86,180.1,M,24.2,M,,*5A
59: $GPGSA,A,3,32,01,03,04,11,19,17,23,31,12,25,,1.46,0.86,1.18*09
59: $GPGSV,4,1,14,01,57,182,30,03,75,282,31,04,31,162,21,06,03,318,21*75
60: $GPGSV,4,2,14,09,02,228,27,11,31,188,32,12,07,003,15,14,10,051,*7D
60: $GPGSV,4,3,14,17,29,289,33,19,16,219,34,23,38,219,35,25,06,039,19*72
60: $GPGSV,4,4,14,31,39,086,31,32,63,093,34*71
60: $GPGLL,5344.40462,N,02832.63031,E,145309.00,A,A*6D
60: $GPRMC,145310.00,A,5344.40725,N,02832.65508,E,53.390,79.91,241015,,,A*62
60: $GPVTG,79.91,T,,M,53.390,N,98.878,K,A*01
60: $GPGGA,145310.00,5344.40725,N,02832.65508,E,1,12,0.86,180.3,M,24.2,M,,*5A
60: $GPGSA,A,3,32,01,03,04,11,19,17,14,23,31,12,25,1.46,0.86,1.18*0C
60: $GPGSV,4,1,14,01,57,182,30,03,75,282,32,04,31,162,22,06,03,318,20*74
61: $GPGSV,4,2,14,09,02,228,25,11,31,188,33,12,07,003,14,14,10,051,16*78
61: $GPGSV,4,3,14,17,29,289,33,19,16,219,35,23,38,219,35,25,06,039,17*7D
61: $GPGSV,4,4,14,31,39,086,32,32,63,093,34*72
61: $GPGLL,5344.40725,N,02832.65508,E,145310.00,A,A*6C
61: $GPRMC,145311.00,A,5344.40982,N,02832.67932,E,52.159,80.02,241015,,,A*6D
61: $GPVTG,80.02,T,,M,52.159,N,96.599,K,A*07
61: $GPGGA,145311.00,5344.40982,N,02832.67932,E,1,12,0.86,180.2,M,24.2,M,,*5E
61: $GPGSA,A,3,32,01,03,04,11,19,17,14,23,31,12,25,1.46,0.86,1.18*0C
61: $GPGSV,4,1,14,01,57,182,29,03,75,282,32,04,31,162,23,06,03,318,18*76
62: $GPGSV,4,2,14,09,02,228,25,11,31,188,32,12,07,003,14,14,10,051,16*79
62: $GPGSV,4,3,14,17,29,288,33,19,16,219,35,23,38,219,35,25,06,039,15*7E
62: $GPGSV,4,4,14,31,39,086,31,32,63,093,34*71
62: $GPGLL,5344.40982,N,02832.67932,E,145311.00,A,A*69
62: $GPRMC,145312.00,A,5344.41233,N,02832.70323,E,51.710,80.20,241015,,,A*6A
62: $GPVTG,80.20,T,,M,51.710,N,95.766,K,A*0E
62: $GPGGA,145312.00,5344.41233,N,02832.70323,E,1,12,0.86,180.4,M,24.2,M,,*57
62: $GPGSA,A,3,32,01,03,04,11,19,17,14,23,31,12,25,1.46,0.86,1.18*0C
62: $GPGSV,4,1,14,01,57,182,29,03,75,282,32,04,31,162,23,06,03,318,18*76
63: $GPGSV,4,2,14,09,02,228,23,11,31,188,32,12,07,003,14,14,10,051,16*7F
63: $GPGSV,4,3,14,17,29,288,33,19,16,219,35,23,38,219,35,25,06,039,10*7B
63: $GPGSV,4,4,14,31,39,086,31,32,63,093,34*71
63: $GPGLL,5344.41233,N,02832.70323,E,145312.00,A,A*66
63: $GPRMC,145313.00,A,5344.41481,N,02832.72692,E,51.033,80.15,241015,,,A*69
63: $GPVTG,80.15,T,,M,51.033,N,94.513,K,A*0F
63: $GPGGA,145313.00,5344.41481,N,02832.72692,E,1,12,0.86,180.7,M,24.2,M,,*57
63: $GPGSA,A,3,32,01,03,04,11,19,17,14,23,31,12,25,1.50,0.86,1.23*03
63: $GPGSV,4,1,14,01,57,182,29,03,75,282,32,04,31,162,23,06,03,318,19*77
64: $GPGSV,4,2,14,09,02,228,26,11,31,188,32,12,07,003,15,14,10,051,17*7A
64: $GPGSV,4,3,14,17,29,288,33,19,15,219,35,23,38,219,35,25,06,039,13*7B
64: $GPGSV,4,4,14,31,39,086,31,32,63,093,34*71
64: $GPGLL,5344.41481,N,02832.72692,E,145313.00,A,A*65
64: $GPRMC,145314.00,A,5344.41723,N,02832.75011,E,49.825,80.21,241015,,,A*6E
64: $GPVTG,80.21,T,,M,49.825,N,92.275,K,A*0F
64: $GPGGA,145314.00,5344.41723,N,02832.75011,E,1,12,0.82,180.7,M,24.2,M,,*55
64: $GPGSA,A,3,32,01,03,04,11,19,17,14,23,31,12,25,1.41,0.82,1.14*03
64: $GPGSV,4,1,14,01,57,182,29,03,75,282,32,04,31,162,23,06,03,318,19*77
65: $GPGSV,4,2,14,09,02,228,32,11,31,188,32,12,07,003,17,14,10,051,18*72
65: $GPGSV,4,3,14,17,29,288,33,19,15,219,35,23,38,219,35,25,06,039,14*7C
65: $GPGSV,4,4,14,31,39,086,31,32,63,093,34*71
65: $GPGLL,5344.41723,N,02832.75011,E,145314.00,A,A*63
65: $GPRMC,145315.00,A,5344.41958,N,02832.77278,E,48.738,80.15,241015,,,A*67
65: $GPVTG,80.15,T,,M,48.738,N,90.262,K,A*0E
65: $GPGGA,145315.00,5344.41958,N,02832.77278,E,1,12,0.82,180.7,M,24.2,M,,*59
65: $GPGSA,A,3,32,01,03,04,11,19,17,14,23,31,12,25,1.41,0.82,1.14*03
65: $GPGSV,4,1,14,01,57,182,29,03,75,282,32,04,31,162,22,06,03,318,20*7C
66: $GPGSV,4,2,14,09,02,228,32,11,31,188,32,12,07,003,18,14,10,051,18*7D
66: $GPGSV,4,3,14,17,29,288,33,19,15,219,35,23,38,219,35,25,06,039,14*7C
66: $GPGSV,4,4,14,31,39,086,31,32,63,093,34*71
66: $GPGLL,5344.41958,N,02832.77278,E,145315.00,A,A*6F
66: $GPRMC,145316.00,A,5344.42197,N,02832.79491,E,47.677,79.74,241015,,,A*67
66: $GPVTG,79.74,T,,M,47.677,N,88.299,K,A*07
66: $GPGGA,145316.00,5344.42197,N,02832.79491,E,1,12,0.82,180.5,M,24.2,M,,*5F
66: $GPGSA,A,3,32,01,03,04,11,19,17,14,23,31,12,25,1.41,0.82,1.14*03
67: $GPGSV,4,1,14,01,57,182,30,03,75,282,32,04,31,162,21,06,03,318,20*77
67: $GPGSV,4,2,14,09,02,228,32,11,31,188,32,12,07,003,18,14,10,051,19*7C
67: $GPGSV,4,3,14,17,29,288,33,19,15,219,35,23,38,219,35,25,06,039,14*7C
67: $GPGSV,4,4,14,31,39,086,31,32,63,093,34*71
67: $GPGLL,5344.42197,N,02832.79491,E,145316.00,A,A*6B
67: $GPRMC,145317.00,A,5344.42431,N,02832.81645,E,46.526,79.65,241015,,,A*65
67: $GPVTG,79.65,T,,M,46.526,N,86.166,K,A*0C
67: $GPGGA,145317.00,5344.42431,N,02832.81645,E,1,12,0.82,180.4,M,24.2,M,,*5A
67: $GPGSA,A,3,32,01,03,04,11,19,17,14,23,31,12,25,1.41,0.82,1.14*03
67: $GPGSV,4,1,14,01,57,182,29,03,75,282,31,04,31,162,21,06,03,318,21*7D
68: $GPGSV,4,2,14,09,02,228,34,11,31,188,32,12,07,003,17,14,10,051,19*75
68: $GPGSV,4,3,14,17,29,288,33,19,15,219,35,23,38,220,35,25,06,039,13*71
68: $GPGSV,4,4,14,31,39,086,32,32,63,093,35*73
68: $GPGLL,5344.42431,N,02832.81645,E,145317.00,A,A*6F
68: $GPRMC,145318.00,A,5344.42664,N,02832.83783,E,46.402,79.56,241015,,,A*66
68: $GPVTG,79.56,T,,M,46.402,N,85.936,K,A*05
68: $GPGGA,145318.00,5344.42664,N,02832.83783,E,1,12,0.82,180.3,M,24.2,M,,*59
68: $GPGSA,A,3,32,01,03,04,11,19,17,14,23,31,12,25,1.41,0.82,1.14*03
68: $GPGSV,4,1,14,01,57,182,28,03,75,282,31,04,31,162,22,06,03,318,22*7C
69: $GPGSV,4,2,14,09,02,228,34,11,31,188,32,12,07,003,18,14,10,051,18*7B
69: $GPGSV,4,3,14,17,29,288,34,19,15,219,35,23,38,220,36,25,06,039,14*72
69: $GPGSV,4,4,14,31,39,086,33,32,63,093,34*73
69: $GPGLL,5344.42664,N,02832.83783,E,145318.00,A,A*6B
69: $GPRMC,145319.00,A,5344.42891,N,02832.85910,E,46.277,79.71,241015,,,A*60
69: $GPVTG,79.71,T,,M,46.277,N,85.705,K,A*0A
69: $GPGGA,145319.00,5344.42891,N,02832.85910,E,1,12,0.83,180.5,M,24.2,M,,*59
69: $GPGSA,A,3,32,01,03,04,11,19,17,14,23,31,12,25,1.44,0.83,1.18*0B
69: $GPGSV,4,1,14,01,57,182,29,03,75,282,31,04,31,162,23,06,03,318,23*7D
70: $GPGSV,4,2,14,09,02,228,34,11,31,188,32,12,07,003,18,14,10,051,16*75
70: $GPGSV,4,3,14,17,29,288,33,19,15,219,35,23,38,220,35,25,07,039,14*77
70: $GPGSV,4,4,14,31,39,086,33,32,63,093,34*73
70: $GPGLL,5344.42891,N,02832.85910,E,145319.00,A,A*6C
70: $GPRMC,145320.00,A,5344.43120,N,02832.88050,E,46.590,79.73,241015,,,A*64
70: $GPVTG,79.73,T,,M,46.590,N,86.284,K,A*09
70: $GPGGA,145320.00,5344.43120,N,02832.88050,E,1,12,0.83,180.6,M,24.2,M,,*52
70: $GPGSA,A,3,32,01,03,04,11,19,17,14,23,31,12,25,1.44,0.83,1.18*0B
71: $GPGSV,4,1,14,01,57,182,29,03,75,282,31,04,31,162,22,06,03,318,24*7B
71: $GPGSV,4,2,14,09,02,228,34,11,31,188,32,12,07,003,18,14,10,051,14*77
71: $GPGSV,4,3,14,17,29,288,33,19,15,219,35,23,38,220,35,25,07,039,14*77
71: $GPGSV,4,4,14,31,39,086,34,32,63,093,34*74
71: $GPGLL,5344.43120,N,02832.88050,E,145320.00,A,A*64
71: $GPRMC,145321.00,A,5344.43350,N,02832.90205,E,46.969,79.80,241015,,,A*6D
71: $GPVTG,79.80,T,,M,46.969,N,86.987,K,A*07
71: $GPGGA,145321.00,5344.43350,N,02832.90205,E,1,12,0.83,180.7,M,24.2,M,,*5C
71: $GPGSA,A,3,32,01,03,04,11,19,17,14,23,31,12,25,1.44,0.83,1.18*0B
71: $GPGSV,4,1,14,01,57,182,29,03,75,282,32,04,31,162,20,06,03,318,25*7B
72: $GPGSV,4,2,14,09,02,228,34,11,31,188,32,12,07,003,17,14,10,051,15*79
72: $GPGSV,4,3,14,17,29,288,32,19,15,219,36,23,38,220,36,25,07,039,13*71
72: $GPGSV,4,4,14,31,39,086,33,32,63,093,34*73
72: $GPGLL,5344.43350,N,02832.90205,E,145321.00,A,A*6B
72: $GPRMC,145322.00,A,5344.43586,N,02832.92382,E,47.369,79.71,241015,,,A*6A
72: $GPVTG,79.71,T,,M,47.369,N,87.727,K,A*07
72: $GPGGA,145322.00,5344.43586,N,02832.92382,E,1,12,0.83,180.6,M,24.2,M,,*5F
72: $GPGSA,A,3,32,01,03,04,11,19,17,14,23,31,12,25,1.44,0.83,1.18*0B
72: $GPGSV,4,1,14,01,57,182,30,03,75,282,31,04,31,162,19,06,03,318,26*79
73: $GPGSV,4,2,14,09,02,228,34,11,31,188,33,12,07,003,17,14,10,051,16*7B
73: $GPGSV,4,3,14,17,29,288,32,19,15,219,35,23,38,220,36,25,07,039,14*75
73: $GPGSV,4,4,14,31,39,086,33,32,63,093,34*73
73: $GPGLL,5344.43586,N,02832.92382,E,145322.00,A,A*69
73: $GPRMC,145323.00,A,5344.43822,N,02832.94572,E,47.667,79.70,241015,,,A*6D
73: $GPVTG,79.70,T,,M,47.667,N,88.280,K,A*0A
73: $GPGGA,145323.00,5344.43822,N,02832.94572,E,1,12,0.83,180.5,M,24.2,M,,*51
73: $GPGSA,A,3,32,01,03,04,11,19,17,14,23,31,12,25,1.44,0.83,1.18*0B
73: $GPGSV,4,1,14,01,57,182,30,03,75,282,31,04,31,162,17,06,03,318,25*74
74: $GPGSV,4,2,14,09,02,228,34,11,31,188,33,12,07,003,17,14,10,051,16*7B
74: $GPGSV,4,3,14,17,29,288,33,19,15,219,36,23,38,220,36,25,07,039,14*77
74: $GPGSV,4,4,14,31,39,086,33,32,63,093,34*73
74: $GPGLL,5344.43822,N,02832.94572,E,145323.00,A,A*64
74: $GPRMC,145324.00,A,5344.44063,N,02832.96775,E,47.944,79.68,241015,,,A*60
74: $GPVTG,79.68,T,,M,47.944,N,88.792,K,A*0B
74: $GPGGA,145324.00,5344.44063,N,02832.96775,E,1,12,0.82,180.4,M,24.2,M,,*5B
74: $GPGSA,A,3,32,01,03,04,11,19,17,14,23,31,12,25,1.40,0.82,1.14*02
75: $GPGSV,4,1,14,01,57,182,30,03,75,282,31,04,31,162,18,06,03,318,25*7B
75: $GPGSV,4,2,14,09,02,228,34,11,31,188,33,12,07,003,18,14,10,051,20*71
75: $GPGSV,4,3,14,17,29,288,33,19,15,219,36,23,38,220,36,25,07,039,14*77
75: $GPGSV,4,4,14,31,39,086,32,32,63,093,34*72
75: $GPGLL,5344.44063,N,02832.96775,E,145324.00,A,A*6E
75: $GPRMC,145325.00,A,5344.44305,N,02832.98992,E,48.199,79.72,241015,,,A*67
75: $GPVTG,79.72,T,,M,48.199,N,89.265,K,A*0B
75: $GPGGA,145325.00,5344.44305,N,02832.98992,E,1,12,0.82,180.1,M,24.2,M,,*55
75: $GPGSA,A,3,32,01,03,04,11,19,17,14,23,31,12,25,1.40,0.82,1.14*02
76: $GPGSV,4,1,14,01,57,182,30,03,75,282,32,04,31,162,19,06,03,318,24*78
76: $GPGSV,4,2,14,09,02,228,33,11,31,188,32,12,07,003,18,14,10,051,21*76
76: $GPGSV,4,3,14,17,29,288,33,19,15,219,35,23,38,220,36,25,07,039,16*76
76: $GPGSV,4,4,14,31,39,085,32,32,63,093,34*71
76: $GPGLL,5344.44305,N,02832.98992,E,145325.00,A,A*65
76: $GPRMC,145326.00,A,5344.44547,N,02833.01218,E,48.434,79.69,241015,,,A*64
76: $GPVTG,79.69,T,,M,48.434,N,89.700,K,A*05
76: $GPGGA,145326.00,5344.44547,N,02833.01218,E,1,12,0.82,180.0,M,24.2,M,,*5F
76: $GPGSA,A,3,32,01,03,04,11,19,17,14,23,31,12,25,1.40,0.82,1.14*02
76: $GPGSV,4,1,14,01,57,182,29,03,75,282,31,04,31,162,21,06,03,318,23*7F
77: $GPGSV,4,2,14,09,02,228,33,11,31,188,33,12,07,003,18,14,10,051,21*77
77: $GPGSV,4,3,14,17,29,288,34,19,15,219,35,23,38,220,36,25,07,039,16*71
77: $GPGSV,4,4,14,31,39,085,32,32,63,093,35*70
77: $GPGLL,5344.44547,N,02833.01218,E,145326.00,A,A*6E
77: $GPRMC,145327.00,A,5344.44786,N,02833.03450,E,48.644,79.74,241015,,,A*6B
77: $GPVTG,79.74,T,,M,48.644,N,90.088,K,A*03
77: $GPGGA,145327.00,5344.44786,N,02833.03450,E,1,12,0.82,180.1,M,24.2,M,,*58
77: $GPGSA,A,3,32,01,03,04,11,19,17,14,23,31,12,25,1.40,0.82,1.14*02
77: $GPGSV,4,1,14,01,57,182,28,03,75,282,31,04,31,162,22,06,03,318,21*7F
78: $GPGSV,4,2,14,09,02,228,33,11,31,188,32,12,07,003,18,14,10,051,23*74
78: $GPGSV,4,3,14,17,29,288,33,19,15,219,34,23,38,220,36,25,07,039,16*77
78: $GPGSV,4,4,14,31,39,085,33,32,63,093,35*71
78: $GPGLL,5344.44786,N,02833.03450,E,145327.00,A,A*68
78: $GPRMC,145328.00,A,5344.45027,N,02833.05695,E,48.881,79.69,241015,,,A*6F
78: $GPVTG,79.69,T,,M,48.881,N,90.528,K,A*07
78: $GPGGA,145328.00,5344.45027,N,02833.05695,E,1,12,0.83,180.2,M,24.2,M,,*55
78: $GPGSA,A,3,32,01,03,04,11,19,17,14,23,31,12,25,1.44,0.83,1.18*0B
78: $GPGSV,4,1,14,01,57,182,29,03,75,282,32,04,31,162,21,06,03,318,24*7B
79: $GPGSV,4,2,14,09,02,228,32,11,31,188,32,12,07,003,18,14,10,051,24*72
79: $GPGSV,4,3,14,17,29,288,33,19,15,219,35,23,38,220,36,25,07,039,15*75
79: $GPGSV,4,4,14,31,39,085,33,32,63,093,35*71
79: $GPGLL,5344.45027,N,02833.05695,E,145328.00,A,A*67
79: $GPRMC,145329.00,A,5344.45269,N,02833.07948,E,49.062,79.83,241015,,,A*6B
79: $GPVTG,79.83,T,,M,49.062,N,90.863,K,A*05
79: $GPGGA,145329.00,5344.45269,N,02833.07948,E,1,12,0.82,180.1,M,24.2,M,,*53
79: $GPGSA,A,3,32,01,03,04,11,19,17,14,23,31,12,25,1.40,0.82,1.14*02
79: $GPGSV,4,1,14,01,57,182,30,03,75,282,31,04,31,162,21,06,03,318,26*72
80: $GPGSV,4,2,14,09,02,228,27,11,31,188,32,12,07,003,18,14,10,051,25*77
80: $GPGSV,4,3,14,17,29,288,34,19,15,219,35,23,38,220,36,25,07,039,14*73
80: $GPGSV,4,4,14,31,39,085,32,32,63,093,35*70
80: $GPGLL,5344.45269,N,02833.07948,E,145329.00,A,A*63
80: 330.00,A,5344.45509,N,02833.10212,E,49.232,80.04,241015,,,A*6E
80: $GPVTG,80.04,T,,M,49.232,N,91.179,K,A*08
80: $GPGGA,145330.00,5344.45509,N,02833.10212,E,1,12,0.82,180.2,M,24.2,M,,*5B
80: $GPGSA,A,3,32,01,03,04,11,19,17,14,23,31,12,25,1.40,0.82,1.14*02
80: $GPGSV,4,1,14,01,57,182,30,03,75,282,31,04,31,162,21,06,03,318,26*72
81: $GPGSV,4,2,14,09,02,228,27,11,31,188,32,12,07,003,16,14,10,051,25*79
81: $GPGSV,4,3,14,17,29,288,33,19,15,219,35,23,38,220,36,25,07,039,14*74
81: $GPGSV,4,4,14,31,39,085,32,32,63,093,33*76
81: $GPGLL,5344.45509,N,02833.10212,E,145330.00,A,A*68
81: $GPRMC,145331.00,A,5344.45755,N,02833.12489,E,49.559,79.70,241015,,,A*6D
81: $GPVTG,79.70,T,,M,49.559,N,91.784,K,A*03
81: $GPGGA,145331.00,5344.45755,N,02833.12489,E,1,12,0.82,180.1,M,24.2,M,,*54
81: $GPGSA,A,3,32,01,03,04,11,19,17,14,23,31,12,25,1.40,0.82,1.14*02
82: $GPGSV,4,1,14,01,57,182,30,03,75,282,32,04,31,162,22,06,03,318,26*72
82: $GPGSV,4,2,14,09,02,228,32,11,31,188,32,12,07,003,15,14,10,051,24*7F
82: $GPGSV,4,3,14,17,29,288,33,19,15,219,35,23,38,220,35,25,07,039,14*77
82: $GPGSV,4,4,14,31,39,085,31,32,63,093,33*75
82: $GPGLL,5344.45755,N,02833.12489,E,145331.00,A,A*64
82: $GPRMC,145332.00,A,5344.46006,N,02833.14775,E,49.809,79.46,241015,,,A*67
82: $GPVTG,79.46,T,,M,49.809,N,92.245,K,A*05
82: $GPGGA,145332.00,5344.46006,N,02833.14775,E,1,12,0.82,180.0,M,24.2,M,,*52
82: $GPGSA,A,3,32,01,03,04,11,19,17,14,23,31,12,25,1.40,0.82,1.14*02
82: $GPGSV,4,1,14,01,57,182,29,03,75,282,32,04,31,162,21,06,03,318,26*79
83: $GPGSV,4,2,14,09,02,228,26,11,31,188,32,12,07,003,15,14,10,051,23*7D
83: $GPGSV,4,3,14,17,29,288,33,19,15,219,34,23,38,220,35,25,07,039,13*71
83: $GPGSV,4,4,14,31,39,085,32,32,63,093,34*71
83: $GPGLL,5344.46006,N,02833.14775,E,145332.00,A,A*63
83: $GPRMC,145333.00,A,5344.46260,N,02833.17075,E,50.070,79.48,241015,,,A*60
83: $GPVTG,79.48,T,,M,50.070,N,92.730,K,A*02
83: $GPGGA,145333.00,5344.46260,N,02833.17075,E,1,12,0.82,179.8,M,24.2,M,,*5B
83: $GPGSA,A,3,32,01,03,04,11,19,17,14,23,31,12,25,1.40,0.82,1.14*02
83: $GPGSV,4,1,14,01,57,182,29,03,75,282,31,04,31,162,19,06,03,318,25*72
84: $GPGSV,4,2,14,09,02,228,31,11,31,188,32,12,07,003,14,14,10,051,21*78
84: $GPGSV,4,3,14,17,29,288,34,19,15,219,34,23,38,220,35,25,07,039,14*71
84: $GPGSV,4,4,14,31,39,085,33,32,63,093,34*70
84: $GPGLL,5344.46260,N,02833.17075,E,145333.00,A,A*64
84: $GPRMC,145334.00,A,5344.46512,N,02833.19385,E,50.355,79.65,241015,,,A*6C
84: $GPVTG,79.65,T,,M,50.355,N,93.258,K,A*03
84: $GPGGA,145334.00,5344.46512,N,02833.19385,E,1,12,0.82,179.8,M,24.2,M,,*5C
84: $GPGSA,A,3,32,01,03,04,11,19,17,14,23,31,12,25,1.40,0.82,1.14*02
84: $GPGSV,4,1,14,01,57,182,29,03,75,282,31,04,31,162,20,06,03,318,24*79
85: $GPGSV,4,2,14,09,02,228,32,11,31,188,32,12,07,003,13,14,10,051,21*7C
85: $GPGSV,4,3,14,17,29,288,34,19,15,219,35,23,38,220,36,25,07,039,14*73
85: $GPGSV,4,4,14,31,39,085,33,32,63,093,35*71
85: $GPGLL,5344.46512,N,02833.19385,E,145334.00,A,A*63
85: $GPRMC,145335.00,A,5344.46767,N,02833.21718,E,50.964,79.44,241015,,,A*6D
85: $GPVTG,79.44,T,,M,50.964,N,94.386,K,A*0D
85: $GPGGA,145335.00,5344.46767,N,02833.21718,E,1,12,0.82,179.8,M,24.2,M,,*56
85: $GPGSA,A,3,32,01,03,04,11,19,17,14,23,31,12,25,1.40,0.82,1.14*02
85: $GPGSV,4,1,14,01,57,182,29,03,75,282,31,04,31,162,20,06,03,318,23*7E
86: $GPGSV,4,2,14,09,02,228,34,11,31,188,33,12,07,003,13,14,10,051,20*7A
86: $GPGSV,4,3,14,17,29,288,34,19,15,219,34,23,38,220,36,25,07,039,13*75
86: $GPGSV,4,4,14,31,39,085,33,32,63,093,35*71
86: $GPGLL,5344.46767,N,02833.21718,E,145335.00,A,A*69
86: $GPRMC,145336.00,A,5344.47029,N,02833.24084,E,51.701,79.40,241015,,,A*6D
86: $GPVTG,79.40,T,,M,51.701,N,95.751,K,A*0A
86: $GPGGA,145336.00,5344.47029,N,02833.24084,E,1,12,0.82,179.7,M,24.2,M,,*51
86: $GPGSA,A,3,32,01,03,04,11,19,17,14,23,31,12,25,1.40,0.82,1.14*02
86: $GPGSV,4,1,14,01,57,182,29,03,75,282,31,04,31,162,19,06,03,318,23*74
87: $GPGSV,4,2,14,09,02,228,34,11,31,188,33,12,07,003,11,14,10,051,19*72
87: $GPGSV,4,3,14,17,29,288,34,19,15,219,35,23,38,220,35,25,07,039,10*74
87: $GPGSV,4,4,14,31,39,085,32,32,63,093,35*70
87: $GPGLL,5344.47029,N,02833.24084,E,145336.00,A,A*61
87: $GPRMC,145337.00,A,5344.47291,N,02833.26477,E,52.223,79.57,241015,,,A*67
87: $GPVTG,79.57,T,,M,52.223,N,96.716,K,A*0A
87: $GPGGA,145337.00,5344.47291,N,02833.26477,E,1,11,0.89,179.6,M,24.2,M,,*52
87: $GPGSA,A,3,32,01,03,04,11,19,17,14,23,31,25,,1.47,0.89,1.17*0E
87: $GPGSV,4,1,14,01,57,182,29,03,75,282,31,04,31,162,19,06,03,318,23*74
88: $GPGSV,4,2,14,09,02,228,28,11,31,188,33,12,07,003,09,14,10,051,19*76
88: $GPGSV,4,3,14,17,29,288,34,19,15,219,34,23,38,220,35,25,07,039,10*75
88: $GPGSV,4,4,14,31,39,085,32,32,63,093,35*70
88: $GPGLL,5344.47291,N,02833.26477,E,145337.00,A,A*6B
88: $GPRMC,145338.00,A,5344.47551,N,02833.28895,E,52.709,79.81,241015,,,A*6B
88: $GPVTG,79.81,T,,M,52.709,N,97.617,K,A*0D
88: $GPGGA,145338.00,5344.47551,N,02833.28895,E,1,11,0.89,179.6,M,24.2,M,,*58
88: $GPGSA,A,3,32,01,03,04,11,19,17,14,23,31,25,,1.47,0.89,1.17*0E
88: $GPGSV,4,1,14,01,57,182,28,03,75,282,31,04,31,162,19,06,03,318,23*75
89: $GPGSV,4,2,14,09,02,228,28,11,31,188,32,12,07,003,09,14,10,051,19*77
89: $GPGSV,4,3,14,17,29,288,33,19,15,219,34,23,38,220,35,25,07,039,12*70
89: $GPGSV,4,4,14,31,39,085,32,32,63,093,35*70
89: $GPGLL,5344.47551,N,02833.28895,E,145338.00,A,A*61
89: $GPRMC,145339.00,A,5344.47818,N,02833.31343,E,53.324,79.61,241015,,,A*66
89: $GPVTG,79.61,T,,M,53.324,N,98.755,K,A*01
89: $GPGGA,145339.00,5344.47818,N,02833.31343,E,1,12,0.82,179.5,M,24.2,M,,*5A
89: $GPGSA,A,3,32,01,03,04,11,19,17,14,23,31,12,25,1.40,0.82,1.14*02
89: $GPGSV,4,1,14,01,57,182,29,03,75,282,31,04,31,162,19,06,03,318,23*74
90: $GPGSV,4,2,14,09,02,228,28,11,31,188,32,12,07,003,12,14,10,051,20*77
90: $GPGSV,4,3,14,17,29,288,33,19,15,219,34,23,38,220,35,25,07,039,14*76
90: $GPGSV,4,4,14,31,39,085,32,32,63,093,35*70
90: $GPGLL,5344.47818,N,02833.31343,E,145339.00,A,A*68
90: $GPRMC,145340.00,A,5344.48087,N,02833.33812,E,53.823,79.49,241015,,,A*62
90: $GPVTG,79.49,T,,M,53.823,N,99.680,K,A*0F
90: $GPGGA,145340.00,5344.48087,N,02833.33812,E,1,12,0.83,179.5,M,24.2,M,,*59
90: $GPGSA,A,3,32,01,03,04,11,19,17,14,23,31,12,25,1.44,0.83,1.18*0B
90: $GPGSV,4,1,14,01,57,182,29,03,75,282,31,04,31,162,20,06,03,318,23*7E
91: $GPGSV,4,2,14,09,02,228,28,11,31,188,33,12,07,003,15,14,10,051,19*7B
91: $GPGSV,4,3,14,17,29,288,33,19,15,219,34,23,38,220,35,25,07,039,15*77
91: $GPGSV,4,4,14,31,39,085,32,32,63,093,34*71
91: $GPGLL,5344.48087,N,02833.33812,E,145340.00,A,A*6A
91: $GPRMC,145341.00,A,5344.48356,N,02833.36307,E,54.389,79.76,241015,,,A*66
91: $GPVTG,79.76,T,,M,54.389,N,100.728,K,A*3D
91: $GPGGA,145341.00,5344.48356,N,02833.36307,E,1,12,0.82,179.4,M,24.2,M,,*5D
91: $GPGSA,A,3,32,01,03,04,11,19,17,14,23,31,12,25,1.40,0.82,1.14*02
91: $GPGSV,4,1,14,01,57,182,30,03,75,282,32,04,31,162,20,06,03,318,25*73
92: $GPGSV,4,2,14,09,02,228,27,11,31,188,32,12,07,003,16,14,10,051,19*76
92: $GPGSV,4,3,14,17,29,288,33,19,15,219,34,23,38,220,36,25,07,039,15*74
92: $GPGSV,4,4,14,31,39,085,32,32,63,093,34*71
92: $GPGLL,5344.48356,N,02833.36307,E,145341.00,A,A*6E
92: $GPRMC,145342.00,A,5344.48628,N,02833.38825,E,54.788,79.70,241015,,,A*6F
92: $GPVTG,79.70,T,,M,54.788,N,101.467,K,A*37
92: $GPGGA,145342.00,5344.48628,N,02833.38825,E,1,12,0.82,179.2,M,24.2,M,,*51
92: $GPGSA,A,3,32,01,03,04,11,19,17,14,23,31,12,25,1.40,0.82,1.14*02
93: $GPGSV,4,1,14,01,57,182,30,03,75,282,32,04,31,162,20,06,03,318,25*73
93: $GPGSV,4,2,14,09,02,228,27,11,31,188,33,12,07,003,17,14,10,051,18*77
93: $GPGSV,4,3,14,17,29,288,34,19,15,219,35,23,38,220,35,25,07,039,14*70
93: $GPGSV,4,4,14,31,39,085,32,32,63,093,35*70
93: $GPGLL,5344.48628,N,02833.38825,E,145342.00,A,A*64
93: $GPRMC,145343.00,A,5344.48902,N,02833.41359,E,55.208,79.66,241015,,,A*6C
93: $GPVTG,79.66,T,,M,55.208,N,102.244,K,A*38
93: $GPGGA,145343.00,5344.48902,N,02833.41359,E,1,12,0.82,179.1,M,24.2,M,,*5A
93: $GPGSA,A,3,32,01,03,04,11,19,17,14,23,31,12,25,1.40,0.82,1.14*02
94: $GPGSV,4,1,14,01,57,182,31,03,75,282,33,04,31,162,19,06,03,318,25*79
94: $GPGSV,4,2,14,09,02,228,17,11,31,188,33,12,07,003,16,14,10,051,18*75
94: $GPGSV,4,3,14,17,29,288,34,19,15,219,35,23,38,220,36,25,07,039,14*73
94: $GPGSV,4,4,14,31,39,085,32,32,63,093,35*70
94: $GPGLL,5344.48902,N,02833.41359,E,145343.00,A,A*6C
94: $GPRMC,145344.00,A,5344.49176,N,02833.43908,E,55.570,79.64,241015,,,A*67
94: $GPVTG,79.64,T,,M,55.570,N,102.915,K,A*3D
94: $GPGGA,145344.00,5344.49176,N,02833.43908,E,1,12,0.82,179.1,M,24.2,M,,*5B
94: $GPGSA,A,3,32,01,03,04,11,19,17,14,23,31,12,25,1.40,0.82,1.14*02
94: $GPGSV,4,1,14,01,57,182,31,03,75,282,33,04,31,162,18,06,03,318,25*78
95: $GPGSV,4,2,14,09,02,228,29,11,31,188,32,12,07,003,16,14,10,051,19*78
95: $GPGSV,4,3,14,17,29,288,34,19,15,219,35,23,38,220,36,25,07,039,14*73
95: $GPGSV,4,4,14,31,39,085,33,32,63,093,35*71
95: $GPGLL,5344.49176,N,02833.43908,E,145344.00,A,A*6D
95: $GPRMC,145345.00,A,5344.49453,N,02833.46473,E,55.787,79.69,241015,,,A*67
95: $GPVTG,79.69,T,,M,55.787,N,103.318,K,A*3C
95: $GPGGA,145345.00,5344.49453,N,02833.46473,E,1,12,0.82,179.0,M,24.2,M,,*5D
95: $GPGSA,A,3,32,01,03,04,11,19,17,14,23,31,12,25,1.40,0.82,1.14*02
95: $GPGSV,4,1,14,01,57,182,32,03,75,282,32,04,31,162,19,06,03,318,23*7D
96: $GPGSV,4,2,14,09,02,228,31,11,31,188,33,12,07,003,15,14,10,051,20*79
96: $GPGSV,4,3,14,17,29,288,34,19,15,219,35,23,38,220,36,25,07,039,13*74
96: $GPGSV,4,4,14,31,39,085,32,32,63,093,35*70
96: $GPGLL,5344.49453,N,02833.46473,E,145345.00,A,A*6A
96: $GPRMC,145346.00,A,5344.49729,N,02833.49044,E,55.937,79.79,241015,,,A*61
96: $GPVTG,79.79,T,,M,55.937,N,103.595,K,A*3B
96: $GPGGA,145346.00,5344.49729,N,02833.49044,E,1,12,0.82,178.8,M,24.2,M,,*56
96: $GPGSA,A,3,32,01,03,04,11,19,17,14,23,31,12,25,1.40,0.82,1.13*05
96: $GPGSV,4,1,14,01,57,182,31,03,75,282,32,04,31,162,19,06,03,318,23*7E
97: $GPGSV,4,2,14,09,02,228,33,11,31,188,33,12,07,003,14,14,10,051,21*7B
97: $GPGSV,4,3,14,17,29,288,33,19,15,219,34,23,38,220,36,25,07,039,15*74
97: $GPGSV,4,4,14,31,39,085,32,32,63,093,35*70
97: $GPGLL,5344.49729,N,02833.49044,E,145346.00,A,A*68
97: $GPRMC,145347.00,A,5344.50006,N,02833.51629,E,56.170,79.84,241015,,,A*6C
97: $GPVTG,79.84,T,,M,56.170,N,104.026,K,A*3B
97: $GPGGA,145347.00,5344.50006,N,02833.51629,E,1,12,0.82,178.5,M,24.2,M,,*5C
97: $GPGSA,A,3,32,01,03,04,11,19,17,14,23,31,12,25,1.40,0.82,1.13*05
97: $GPGSV,4,1,14,01,57,182,31,03,75,282,32,04,31,162,21,06,03,318,23*75
98: $GPGSV,4,2,14,09,02,228,33,11,31,188,33,12,07,003,16,14,10,051,22*7A
98: $GPGSV,4,3,14,17,29,288,33,19,15,219,34,23,38,220,36,25,07,039,16*77
98: $GPGSV,4,4,14,31,39,085,32,32,63,093,35*70
98: $GPGLL,5344.50006,N,02833.51629,E,145347.00,A,A*6F
98: $GPRMC,145348.00,A,5344.50282,N,02833.54217,E,56.220,79.80,241015,,,A*63
98: $GPVTG,79.80,T,,M,56.220,N,104.119,K,A*34
98: $GPGGA,145348.00,5344.50282,N,02833.54217,E,1,12,0.82,178.2,M,24.2,M,,*56
98: $GPGSA,A,3,32,01,03,04,11,19,17,14,23,31,12,25,1.40,0.82,1.13*05
98: $GPGSV,4,1,14,01,57,182,31,03,75,282,32,04,31,162,22,06,03,318,23*76
99: $GPGSV,4,2,14,09,02,228,34,11,31,188,32,12,07,003,17,14,10,051,21*7E
99: $GPGSV,4,3,14,17,29,288,33,19,15,219,35,23,38,220,36,25,07,039,17*77
99: $GPGSV,4,4,14,31,39,085,32,32,63,093,35*70
99: $GPGLL,5344.50282,N,02833.54217,E,145348.00,A,A*62
99: $GPRMC,145349.00,A,5344.50559,N,02833.56806,E,56.299,79.65,241015,,,A*62
99: $GPVTG,79.65,T,,M,56.299,N,104.265,K,A*35
99: $GPGGA,145349.00,5344.50559,N,02833.56806,E,1,12,0.82,178.0,M,24.2,M,,*5C
99: $GPGSA,A,3,32,01,03,04,11,19,17,14,23,31,12,25,1.40,0.82,1.13*05
100: $GPGSV,4,1,14,01,57,182,32,03,75,282,33,04,31,162,21,06,03,318,22*76
100: $GPGSV,4,2,14,09,02,228,35,11,31,188,33,12,07,003,17,14,10,051,22*7D
100: $GPGSV,4,3,14,17,29,288,34,19,15,219,34,23,38,220,36,25,07,039,17*71
100: $GPGSV,4,4,14,31,39,085,33,32,63,093,35*71
100: $GPGLL,5344.50559,N,02833.56806,E,145349.00,A,A*6A
100: $GPRMC,145350.00,A,5344.50840,N,02833.59403,E,56.436,79.69,241015,,,A*66
100: $GPVTG,79.69,T,,M,56.436,N,104.519,K,A*36
100: $GPGGA,145350.00,5344.50840,N,02833.59403,E,1,12,0.82,177.7,M,24.2,M,,*5F
100: $GPGSA,A,3,32,01,03,04,11,19,17,14,23,31,12,25,1.40,0.82,1.13*05
100: $GPGSV,4,1,14,01,57,182,31,03,75,282,33,04,31,162,22,06,03,318,21*75
101: $GPGSV,4,2,14,09,02,228,35,11,31,188,33,12,07,003,15,14,10,051,21*7C
101: $GPGSV,4,3,14,17,29,288,34,19,15,219,35,23,38,220,36,25,07,039,18*7F
101: $GPGSV,4,4,14,31,39,085,32,32,63,093,35*70
101: $GPGLL,5344.50840,N,02833.59403,E,145350.00,A,A*61
