0: $GPGGA,145210.00,5344.21031,N,02830.83160,E,1,12,0.83,172.8,M,24.3,M,,*5C
1: $GPGGA,145211.00,5344.21359,N,02830.86228,E,1,12,0.89,172.9,M,24.3,M,,*51
2: $GPGGA,145212.00,5344.21690,N,02830.89300,E,1,12,0.89,173.1,M,24.3,M,,*5F
3: $GPGGA,145213.00,5344.22024,N,02830.92377,E,1,12,0.89,173.4,M,24.3,M,,*5B
4: $GPGGA,145214.00,5344.22360,N,02830.95457,E,1,12,0.89,173.7,M,24.3,M,,*5E
5: $GPGGA,145215.00,5344.22696,N,02830.98539,E,1,12,0.89,174.2,M,24.3,M,,*55
6: $GPGGA,145216.00,5344.23029,N,02831.01623,E,1,12,0.89,174.8,M,24.3,M,,*56
7: $GPGGA,145217.00,5344.23363,N,02831.04707,E,1,12,0.89,175.3,M,24.3,M,,*52
8: $GPGGA,145218.00,5344.23695,N,02831.07790,E,1,12,0.89,176.0,M,24.3,M,,*5C
9: $GPGGA,145219.00,5344.24029,N,02831.10872,E,1,11,0.89,176.6,M,24.3,M,,*5B
10: $GPGGA,145220.00,5344.24371,N,02831.13955,E,1,12,0.83,177.0,M,24.3,M,,*56
11: $GPGGA,145221.00,5344.24709,N,02831.17040,E,1,12,0.83,177.4,M,24.3,M,,*51
12: $GPGGA,145222.00,5344.25036,N,02831.20125,E,1,12,0.83,177.9,M,24.3,M,,*53
13: $GPGGA,145223.00,5344.25359,N,02831.23209,E,1,12,0.89,178.5,M,24.3,M,,*5F
14: $GPGGA,145224.00,5344.25681,N,02831.26285,E,1,11,0.89,179.2,M,24.3,M,,*5C
15: $GPGGA,145225.00,5344.26004,N,02831.29345,E,1,11,0.89,179.6,M,24.3,M,,*53
16: $GPGGA,145226.00,5344.26329,N,02831.32399,E,1,11,0.89,180.0,M,24.3,M,,*57
17: $GPGGA,145227.00,5344.26658,N,02831.35453,E,1,12,0.89,180.4,M,24.3,M,,*54
18: $GPGGA,145228.00,5344.26992,N,02831.38506,E,1,12,0.89,180.7,M,24.3,M,,*5D
19: $GPGGA,145229.00,5344.27329,N,02831.41572,E,1,12,0.89,180.8,M,24.3,M,,*55
20: $GPGGA,145230.00,5344.27659,N,02831.44644,E,1,12,0.89,180.8,M,24.3,M,,*5C
21: $GPGGA,145231.00,5344.27987,N,02831.47720,E,1,12,0.89,181.0,M,24.3,M,,*58
22: $GPGGA,145232.00,5344.28317,N,02831.50799,E,1,12,0.83,181.2,M,24.3,M,,*5B
23: $GPGGA,145233.00,5344.28654,N,02831.53890,E,1,12,0.83,181.3,M,24.3,M,,*5C
24: $GPGGA,145234.00,5344.28989,N,02831.56992,E,1,12,0.83,181.4,M,24.3,M,,*55
25: $GPGGA,145235.00,5344.29323,N,02831.60104,E,1,12,0.83,181.4,M,24.3,M,,*5D
26: $GPGGA,145236.00,5344.29662,N,02831.63234,E,1,11,0.89,181.1,M,24.3,M,,*51
27: $GPGGA,145237.00,5344.30003,N,02831.66372,E,1,11,0.89,180.9,M,24.3,M,,*56
28: $GPGGA,145238.00,5344.30347,N,02831.69516,E,1,11,0.89,180.7,M,24.3,M,,*5F
29: $GPGGA,145239.00,5344.30693,N,02831.72672,E,1,11,0.89,180.4,M,24.3,M,,*5A
30: $GPGGA,145240.00,5344.31040,N,02831.75834,E,1,11,0.89,180.1,M,24.2,M,,*52
31: $GPGGA,145241.00,5344.31387,N,02831.79005,E,1,11,0.89,179.7,M,24.2,M,,*5D
32: $GPGGA,145242.00,5344.31732,N,02831.82184,E,1,11,0.89,179.2,M,24.2,M,,*5D
33: $GPGGA,145243.00,5344.32072,N,02831.85367,E,1,11,0.89,178.8,M,24.2,M,,*5F
34: $GPGGA,145244.00,5344.32413,N,02831.88556,E,1,11,0.89,178.3,M,24.2,M,,*59
35: $GPGGA,145245.00,5344.32754,N,02831.91749,E,1,12,0.89,177.9,M,24.2,M,,*5A
36: $GPGGA,145246.00,5344.33097,N,02831.94946,E,1,12,0.89,177.4,M,24.2,M,,*59
37: $GPGGA,145247.00,5344.33440,N,02831.98143,E,1,12,0.89,176.9,M,24.2,M,,*5B
38: $GPGGA,145248.00,5344.33780,N,02832.01335,E,1,12,0.89,176.4,M,24.2,M,,*56
39: $GPGGA,145249.00,5344.34121,N,02832.04528,E,1,12,0.83,175.8,M,24.2,M,,*57
40: $GPGGA,145250.00,5344.34464,N,02832.07710,E,1,12,0.83,175.4,M,24.2,M,,*5D
41: $GPGGA,145251.00,5344.34812,N,02832.10885,E,1,12,0.83,175.0,M,24.2,M,,*50
42: $GPGGA,145252.00,5344.35158,N,02832.14053,E,1,12,0.83,174.7,M,24.2,M,,*54
43: $GPGGA,145253.00,5344.35500,N,02832.17211,E,1,12,0.83,174.6,M,24.2,M,,*5A
44: $GPGGA,145254.00,5344.35837,N,02832.20354,E,1,12,0.83,174.6,M,24.2,M,,*50
45: $GPGGA,145255.00,5344.36174,N,02832.23487,E,1,12,0.83,174.7,M,24.2,M,,*57
46: $GPGGA,145256.00,5344.36508,N,02832.26597,E,1,12,0.83,175.0,M,24.2,M,,*58
47: $GPGGA,145257.00,5344.36840,N,02832.29680,E,1,12,0.83,175.2,M,24.2,M,,*50
48: $GPGGA,145258.00,5344.37165,N,02832.32710,E,1,12,0.83,175.6,M,24.2,M,,*56
49: $GPGGA,145259.00,5344.37485,N,02832.35676,E,1,12,0.83,176.2,M,24.2,M,,*5D
50: $GPGGA,145300.00,5344.37802,N,02832.38576,E,1,12,0.83,176.9,M,24.2,M,,*56
51: $GPGGA,145301.00,5344.38114,N,02832.41421,E,1,12,0.83,177.3,M,24.2,M,,*50
52: $GPGGA,145302.00,5344.38418,N,02832.44217,E,1,12,0.83,177.7,M,24.2,M,,*58
53: $GPGGA,145303.00,5344.38718,N,02832.46986,E,1,12,0.83,178.0,M,24.2,M,,*53
54: $GPGGA,145304.00,5344.39012,N,02832.49736,E,1,12,0.82,178.4,M,24.2,M,,*57
55: $GPGGA,145305.00,5344.39303,N,02832.52480,E,1,12,0.82,178.9,M,24.2,M,,*5C
56: $GPGGA,145306.00,5344.39603,N,02832.55207,E,1,12,0.82,179.2,M,24.2,M,,*5E
57: $GPGGA,145307.00,5344.39900,N,02832.57885,E,1,11,0.86,179.4,M,24.2,M,,*50
58: $GPGGA,145308.00,5344.40185,N,02832.60489,E,1,11,0.86,179.8,M,24.2,M,,*5C
59: $GPGGA,145309.00,5344.40462,N,02832.63031,E,1,11,0.86,180.1,M,24.2,M,,*5A
60: $GPGGA,145310.00,5344.40725,N,02832.65508,E,1,12,0.86,180.3,M,24.2,M,,*5A
61: $GPGGA,145311.00,5344.40982,N,02832.67932,E,1,12,0.86,180.2,M,24.2,M,,*5E
62: $GPGGA,145312.00,5344.41233,N,02832.70323,E,1,12,0.86,180.4,M,24.2,M,,*57
63: $GPGGA,145313.00,5344.41481,N,02832.72692,E,1,12,0.86,180.7,M,24.2,M,,*57
64: $GPGGA,145314.00,5344.41723,N,02832.75011,E,1,12,0.82,180.7,M,24.2,M,,*55
65: $GPGGA,145315.00,5344.41958,N,02832.77278,E,1,12,0.82,180.7,M,24.2,M,,*59
66: $GPGGA,145316.00,5344.42197,N,02832.79491,E,1,12,0.82,180.5,M,24.2,M,,*5F
67: $GPGGA,145317.00,5344.42431,N,02832.81645,E,1,12,0.82,180.4,M,24.2,M,,*5A
68: $GPGGA,145318.00,5344.42664,N,02832.83783,E,1,12,0.82,180.3,M,24.2,M,,*59
69: $GPGGA,145319.00,5344.42891,N,02832.85910,E,1,12,0.83,180.5,M,24.2,M,,*59
70: $GPGGA,145320.00,5344.43120,N,02832.88050,E,1,12,0.83,180.6,M,24.2,M,,*52
71: $GPGGA,145321.00,5344.43350,N,02832.90205,E,1,12,0.83,180.7,M,24.2,M,,*5C
72: $GPGGA,145322.00,5344.43586,N,02832.92382,E,1,12,0.83,180.6,M,24.2,M,,*5F
73: $GPGGA,145323.00,5344.43822,N,02832.94572,E,1,12,0.83,180.5,M,24.2,M,,*51
74: $GPGGA,145324.00,5344.44063,N,02832.96775,E,1,12,0.82,180.4,M,24.2,M,,*5B
75: $GPGGA,145325.00,5344.44305,N,02832.98992,E,1,12,0.82,180.1,M,24.2,M,,*55
76: $GPGGA,145326.00,5344.44547,N,02833.01218,E,1,12,0.82,180.0,M,24.2,M,,*5F
77: $GPGGA,145327.00,5344.44786,N,02833.03450,E,1,12,0.82,180.1,M,24.2,M,,*58
78: $GPGGA,145328.00,5344.45027,N,02833.05695,E,1,12,0.83,180.2,M,24.2,M,,*55
79: $GPGGA,145329.00,5344.45269,N,02833.07948,E,1,12,0.82,180.1,M,24.2,M,,*53
80: $GPGGA,145330.00,5344.45509,N,02833.10212,E,1,12,0.82,180.2,M,24.2,M,,*5B
81: $GPGGA,145331.00,5344.45755,N,02833.12489,E,1,12,0.82,180.1,M,24.2,M,,*54
82: $GPGGA,145332.00,5344.46006,N,02833.14775,E,1,12,0.82,180.0,M,24.2,M,,*52
83: $GPGGA,145333.00,5344.46260,N,02833.17075,E,1,12,0.82,179.8,M,24.2,M,,*5B
84: $GPGGA,145334.00,5344.46512,N,02833.19385,E,1,12,0.82,179.8,M,24.2,M,,*5C
85: $GPGGA,145335.00,5344.46767,N,02833.21718,E,1,12,0.82,179.8,M,24.2,M,,*56
86: $GPGGA,145336.00,5344.47029,N,02833.24084,E,1,12,0.82,179.7,M,24.2,M,,*51
87: $GPGGA,145337.00,5344.47291,N,02833.26477,E,1,11,0.89,179.6,M,24.2,M,,*52
88: $GPGGA,145338.00,5344.47551,N,02833.28895,E,1,11,0.89,179.6,M,24.2,M,,*58
89: $GPGGA,145339.00,5344.47818,N,02833.31343,E,1,12,0.82,179.5,M,24.2,M,,*5A
90: $GPGGA,145340.00,5344.48087,N,02833.33812,E,1,12,0.83,179.5,M,24.2,M,,*59
91: $GPGGA,145341.00,5344.48356,N,02833.36307,E,1,12,0.82,179.4,M,24.2,M,,*5D
92: $GPGGA,145342.00,5344.48628,N,02833.38825,E,1,12,0.82,179.2,M,24.2,M,,*51
93: $GPGGA,145343.00,5344.48902,N,02833.41359,E,1,12,0.82,179.1,M,24.2,M,,*5A
94: $GPGGA,145344.00,5344.49176,N,02833.43908,E,1,12,0.82,179.1,M,24.2,M,,*5B
95: $GPGGA,145345.00,5344.49453,N,02833.46473,E,1,12,0.82,179.0,M,24.2,M,,*5D
96: $GPGGA,145346.00,5344.49729,N,02833.49044,E,1,12,0.82,178.8,M,24.2,M,,*56
97: $GPGGA,145347.00,5344.50006,N,02833.51629,E,1,12,0.82,178.5,M,24.2,M,,*5C
98: $GPGGA,145348.00,5344.50282,N,02833.54217,E,1,12,0.82,178.2,M,24.2,M,,*56
99: $GPGGA,145349.00,5344.50559,N,02833.56806,E,1,12,0.82,178.0,M,24.2,M,,*5C
100: $GPGGA,145350.00,5344.50840,N,02833.59403,E,1,12,0.82,177.7,M,24.2,M,,*5F
