0: $GPGLL,5344.20702,N,02830.80099,E,145209.00,A,A*62
1: $GPGLL,5344.21031,N,02830.83160,E,145210.00,A,A*68
2: $GPGLL,5344.21359,N,02830.86228,E,145211.00,A,A*6E
3: $GPGLL,5344.21690,N,02830.89300,E,145212.00,A,A*69
4: $GPGLL,5344.22024,N,02830.92377,E,145213.00,A,A*68
5: $GPGLL,5344.22360,N,02830.95457,E,145214.00,A,A*6E
6: $GPGLL,5344.22696,N,02830.98539,E,145215.00,A,A*67
7: $GPGLL,5344.23029,N,02831.01623,E,145216.00,A,A*6E
8: $GPGLL,5344.23363,N,02831.04707,E,145217.00,A,A*60
9: $GPGLL,5344.23695,N,02831.07790,E,145218.00,A,A*6E
10: $GPGLL,5344.24029,N,02831.10872,E,145219.00,A,A*6C
11: $GPGLL,5344.24371,N,02831.13955,E,145220.00,A,A*6F
12: $GPGLL,5344.24709,N,02831.17040,E,145221.00,A,A*6C
13: $GPGLL,5344.25036,N,02831.20125,E,145222.00,A,A*63
14: $GPGLL,5344.25359,N,02831.23209,E,145223.00,A,A*66
15: $GPGLL,5344.25681,N,02831.26285,E,145224.00,A,A*60
16: $GPGLL,5344.26004,N,02831.29345,E,145225.00,A,A*6B
17: $GPGLL,5344.26329,N,02831.32399,E,145226.00,A,A*6F
18: $GPGLL,5344.26658,N,02831.35453,E,145227.00,A,A*6B
19: $GPGLL,5344.26992,N,02831.38506,E,145228.00,A,A*61
20: $GPGLL,5344.27329,N,02831.41572,E,145229.00,A,A*66
21: $GPGLL,5344.27659,N,02831.44644,E,145230.00,A,A*6F
22: $GPGLL,5344.27987,N,02831.47720,E,145231.00,A,A*62
23: $GPGLL,5344.28317,N,02831.50799,E,145232.00,A,A*69
24: $GPGLL,5344.28654,N,02831.53890,E,145233.00,A,A*6F
25: $GPGLL,5344.28989,N,02831.56992,E,145234.00,A,A*61
26: $GPGLL,5344.29323,N,02831.60104,E,145235.00,A,A*69
27: $GPGLL,5344.29662,N,02831.63234,E,145236.00,A,A*69
28: $GPGLL,5344.30003,N,02831.66372,E,145237.00,A,A*67
29: $GPGLL,5344.30347,N,02831.69516,E,145238.00,A,A*60
30: $GPGLL,5344.30693,N,02831.72672,E,145239.00,A,A*66
31: $GPGLL,5344.31040,N,02831.75834,E,145240.00,A,A*6A
32: $GPGLL,5344.31387,N,02831.79005,E,145241.00,A,A*65
33: $GPGLL,5344.31732,N,02831.82184,E,145242.00,A,A*60
34: $GPGLL,5344.32072,N,02831.85367,E,145243.00,A,A*69
35: $GPGLL,5344.32413,N,02831.88556,E,145244.00,A,A*64
36: $GPGLL,5344.32754,N,02831.91749,E,145245.00,A,A*61
37: $GPGLL,5344.33097,N,02831.94946,E,145246.00,A,A*6F
38: $GPGLL,5344.33440,N,02831.98143,E,145247.00,A,A*61
39: $GPGLL,5344.33780,N,02832.01335,E,145248.00,A,A*61
40: $GPGLL,5344.34121,N,02832.04528,E,145249.00,A,A*65
41: $GPGLL,5344.34464,N,02832.07710,E,145250.00,A,A*63
42: $GPGLL,5344.34812,N,02832.10885,E,145251.00,A,A*6A
43: $GPGLL,5344.35158,N,02832.14053,E,145252.00,A,A*68
44: $GPGLL,5344.35500,N,02832.17211,E,145253.00,A,A*67
45: $GPGLL,5344.35837,N,02832.20354,E,145254.00,A,A*6D
46: $GPGLL,5344.36174,N,02832.23487,E,145255.00,A,A*6B
47: $GPGLL,5344.36508,N,02832.26597,E,145256.00,A,A*62
48: $GPGLL,5344.36840,N,02832.29680,E,145257.00,A,A*68
49: $GPGLL,5344.37165,N,02832.32710,E,145258.00,A,A*6A
50: $GPGLL,5344.37485,N,02832.35676,E,145259.00,A,A*66
51: $GPGLL,5344.37802,N,02832.38576,E,145300.00,A,A*66
52: $GPGLL,5344.38114,N,02832.41421,E,145301.00,A,A*6B
53: $GPGLL,5344.38418,N,02832.44217,E,145302.00,A,A*67
54: $GPGLL,5344.38718,N,02832.46986,E,145303.00,A,A*64
55: $GPGLL,5344.39012,N,02832.49736,E,145304.00,A,A*65
56: $GPGLL,5344.39303,N,02832.52480,E,145305.00,A,A*63
57: $GPGLL,5344.39603,N,02832.55207,E,145306.00,A,A*6B
58: $GPGLL,5344.39900,N,02832.57885,E,145307.00,A,A*64
59: $GPGLL,5344.40185,N,02832.60489,E,145308.00,A,A*64
60: $GPGLL,5344.40462,N,02832.63031,E,145309.00,A,A*6D
61: $GPGLL,5344.40725,N,02832.65508,E,145310.00,A,A*6C
62: $GPGLL,5344.40982,N,02832.67932,E,145311.00,A,A*69
63: $GPGLL,5344.41233,N,02832.70323,E,145312.00,A,A*66
64: $GPGLL,5344.41481,N,02832.72692,E,145313.00,A,A*65
65: $GPGLL,5344.41723,N,02832.75011,E,145314.00,A,A*63
66: $GPGLL,5344.41958,N,02832.77278,E,145315.00,A,A*6F
67: $GPGLL,5344.42197,N,02832.79491,E,145316.00,A,A*6B
68: $GPGLL,5344.42431,N,02832.81645,E,145317.00,A,A*6F
69: $GPGLL,5344.42664,N,02832.83783,E,145318.00,A,A*6B
70: $GPGLL,5344.42891,N,02832.85910,E,145319.00,A,A*6C
71: $GPGLL,5344.43120,N,02832.88050,E,145320.00,A,A*64
72: $GPGLL,5344.43350,N,02832.90205,E,145321.00,A,A*6B
73: $GPGLL,5344.43586,N,02832.92382,E,145322.00,A,A*69
74: $GPGLL,5344.43822,N,02832.94572,E,145323.00,A,A*64
75: $GPGLL,5344.44063,N,02832.96775,E,145324.00,A,A*6E
76: $GPGLL,5344.44305,N,02832.98992,E,145325.00,A,A*65
77: $GPGLL,5344.44547,N,02833.01218,E,145326.00,A,A*6E
78: $GPGLL,5344.44786,N,02833.03450,E,145327.00,A,A*68
79: $GPGLL,5344.45027,N,02833.05695,E,145328.00,A,A*67
80: $GPGLL,5344.45269,N,02833.07948,E,145329.00,A,A*63
81: $GPGLL,5344.45509,N,02833.10212,E,145330.00,A,A*68
82: $GPGLL,5344.45755,N,02833.12489,E,145331.00,A,A*64
83: $GPGLL,5344.46006,N,02833.14775,E,145332.00,A,A*63
84: $GPGLL,5344.46260,N,02833.17075,E,145333.00,A,A*64
85: $GPGLL,5344.46512,N,02833.19385,E,145334.00,A,A*63
86: $GPGLL,5344.46767,N,02833.21718,E,145335.00,A,A*69
87: $GPGLL,5344.47029,N,02833.24084,E,145336.00,A,A*61
88: $GPGLL,5344.47291,N,02833.26477,E,145337.00,A,A*6B
89: $GPGLL,5344.47551,N,02833.28895,E,145338.00,A,A*61
90: $GPGLL,5344.47818,N,02833.31343,E,145339.00,A,A*68
91: $GPGLL,5344.48087,N,02833.33812,E,145340.00,A,A*6A
92: $GPGLL,5344.48356,N,02833.36307,E,145341.00,A,A*6E
93: $GPGLL,5344.48628,N,02833.38825,E,145342.00,A,A*64
94: $GPGLL,5344.48902,N,02833.41359,E,145343.00,A,A*6C
95: $GPGLL,5344.49176,N,02833.43908,E,145344.00,A,A*6D
96: $GPGLL,5344.49453,N,02833.46473,E,145345.00,A,A*6A
97: $GPGLL,5344.49729,N,02833.49044,E,145346.00,A,A*68
98: $GPGLL,5344.50006,N,02833.51629,E,145347.00,A,A*6F
99: $GPGLL,5344.50282,N,02833.54217,E,145348.00,A,A*62
100: $GPGLL,5344.50559,N,02833.56806,E,145349.00,A,A*6A
101: $GPGLL,5344.50840,N,02833.59403,E,145350.00,A,A*61
